state,lon,division,booth_info,premises,opening_hours,polling_place_type,has_bbq,has_other,source,lat,polling_place_name,has_nothing,has_caek,address,extra_info,has_run_out,stall_name,stall_description,stall_website,first_report,latest_report
QLD,149.050612,Mirani,,State School,,Government School,FALSE,,,-21.275878,Homebush,FALSE,FALSE,"Homebush Road, HOMEBUSH, 4740",,,,,,,
QLD,145.594736,Dalrymple,,State School,,Government School,FALSE,,,-17.349409,Malanda,FALSE,FALSE,"24 Mary Street, MALANDA, 4885",,,,,,,
QLD,153.4525,Burleigh,,Fradgley Hall (above library building),,Hall,FALSE,,,-28.090556,Burleigh All-Districts Centre,FALSE,FALSE,"Park Avenue (cnr Ocean Street), BURLEIGH HEADS, 4220",,,,,,,
QLD,152.032861,Burnett,,State School,,Government School,FALSE,,,-25.209598,Booyal,FALSE,FALSE,"31620 Bruce Highway, BOOYAL, 4671",,,,,,,
QLD,151.231073,Callide,,Hall,,Hall,FALSE,,,-24.786282,Bancroft,FALSE,FALSE,"Gladstone Monto Road, BANCROFT, 4630",,,,,,,
QLD,153.027901,Beaudesert,,Memorial Hall,,Hall,FALSE,,,-28.104603,Kerry,FALSE,FALSE,"1488 Kerry Road, KERRY, 4285",,,,,,,
QLD,152.967839,Pine Rivers,,Les Hughes Sporting Complex,,Other,FALSE,,,-27.287968,Bray Park Central,FALSE,FALSE,"Baker Street, Bray Park, 4500",,,,,,,
QLD,150.728451,Keppel,,St Brendan's College,,Private School,FALSE,,,-23.118262,Yeppoon North,FALSE,FALSE,"139 Adelaide Park Road, YEPPOON, 4703",,,,,,,
QLD,145.397809,Dalrymple,,State School,,Government School,FALSE,,,-20.52292,Pentland,FALSE,FALSE,"Gilmore Street, PENTLAND, 4816",,,,,,,
QLD,145.850437,Hinchinbrook,,State School,,Government School,FALSE,,,-18.090422,Murray River Upper,FALSE,FALSE,"Upper Murray Road, Murray Upper, 4854",,,,,,,
QLD,153.402357,Currumbin,,Community Hall,,Hall,FALSE,,,-28.152121,Tallebudgera Valley,FALSE,FALSE,"611 Tallebudgera Creek Road, TALLEBUDGERA VALLEY, 4228",,,,,,,
QLD,153.185774,Beaudesert,,State School,,Government School,FALSE,,,-28.124972,Beechmont,FALSE,FALSE,"Beechmont Road, BEECHMONT, 4211",,,,,,,
QLD,152.613267,Maryborough,,Community Hall,,Hall,FALSE,,,-25.185015,Burrum Heads,FALSE,FALSE,"Cnr Howard Street & Burrum Heads Road, BURRUM HEADS, 4659",,,,,,,
QLD,152.645706,Gympie,,State School,,Government School,FALSE,,,-26.199074,Gympie South,FALSE,FALSE,"50 Exhibition Road, GYMPIE, 4570",,,,,,,
QLD,153.0659,Bulimba,,Morningside State School,,Government School,FALSE,,,-27.464324,Hawthorne,FALSE,FALSE,"Pashen Street, MORNINGSIDE, 4171",,,,,,,
QLD,152.063495,Lockyer,,Public Hall,,Hall,FALSE,,,-27.642321,Stockyard Creek,FALSE,FALSE,"Stockyard Creek Road, STOCKYARD, 4344",,,,,,,
QLD,151.578755,Southern Downs,,State School,,Government School,FALSE,,,-28.01311,Leyburn,FALSE,FALSE,"34 Peter Street, LEYBURN, 4352",,,,,,,
QLD,148.717301,Warrego,,Hall,,Hall,FALSE,,,-26.206812,Eumamurrin,FALSE,FALSE,"EUMAMURRIN, 4455",,,,,,,
QLD,151.931069,Southern Downs,,State School,,Government School,FALSE,,,-28.918302,Wallangarra,FALSE,FALSE,"50 Callandoon Street, WALLANGARRA, 4383",,,,,,,
QLD,152.377492,Bundaberg,,State High School,,Government School,FALSE,,,-24.875531,Kepnock,FALSE,FALSE,"Kepnock Road, BUNDABERG, 4670",,,,,,,
QLD,153.003598,Stafford,,State School,,Government School,FALSE,,,-27.401142,Stafford Heights,FALSE,FALSE,"95 Redwood Street, STAFFORD HEIGHTS, 4053",,,,,,,
QLD,153.123497,Kawana,,Early Learning Centre,,Kindergarten,FALSE,,,-26.698637,Minyama,FALSE,FALSE,"2 Jarrah Street, MINYAMA, 4575",,,,,,,
QLD,152.958427,Glass House,,Public Hall,,Hall,FALSE,,,-26.725918,Eudlo,FALSE,FALSE,"19 Rosebed Street, EUDLO, 4554",,,,,,,
QLD,150.154743,Mirani,,State School,,Government School,FALSE,,,-23.616857,Westwood,FALSE,FALSE,"108 Herbert Street, WESTWOOD, 4702",,,,,,,
QLD,153.0182,Sunnybank,,State School,,Government School,FALSE,,,-27.593082,Watson Road,FALSE,FALSE,"210 Watson Road, ACACIA RIDGE, 4110",,,,,,,
QLD,146.032339,Mulgrave,,State School,,Government School,FALSE,,,-17.53499,Innisfail East,FALSE,FALSE,"92 Mourilyan Road, INNISFAIL, 4860",,,,,,,
QLD,152.484452,Callide,,Hall,,Hall,FALSE,,,-26.090127,Lower Wonga,FALSE,FALSE,"7 Lower Wonga Road, LOWER WONGA, 4570",,,,,,,
QLD,151.996445,Nanango,,State School,,Government School,FALSE,,,-27.406914,Geham,FALSE,FALSE,"9625 New England Highway, GEHAM, 4352",,,,,,,
QLD,151.973501,Southern Downs,,Public Hall,,Hall,FALSE,,,-28.774458,Eukey,FALSE,FALSE,"1212 Eukey Road, EUKEY, 4380",,,,,,,
QLD,153.076809,"Sunnybank, Yeerongpilly",,Macgregor State High School,,Government School,FALSE,,,-27.565295,Macgregor,FALSE,FALSE,"29 Blackwattle Street, MACGREGOR, 4109",,,,,,,
QLD,153.036627,South Brisbane,,St John's Hall,,Church,FALSE,,,-27.502716,Thompson Estate,FALSE,FALSE,"23-33 King Street, ANNERLEY, 4103",,,,,,,
QLD,152.939727,Morayfield,,State School,,Government School,FALSE,,,-27.159982,Burpengary Meadows,FALSE,FALSE,"153-187 Rowley Road, BURPENGARY, 4505",,,,,,,
QLD,153.029637,"Brisbane Central, Stafford",,State School,,Government School,TRUE,"{""coffee"":false,""vego_sausages"":false,""halal"":false,""bacon_egg"":false,""other"":""""}",http://www.windsorsspandc.com.au/calendar/21/358-Election-Day-Stall,-27.43078,Windsor,FALSE,TRUE,"Harris Street, WINDSOR, 4030",,,,,,,
QLD,153.039196,Noosa,,Noosa Christian Outreach Centre Hall,,Church,FALSE,"{""coffee"":false,""vego_sausages"":false,""halal"":false,""bacon_egg"":false,""other"":""""}",Twitter,-26.41135,Noosa All-Districts Centre,FALSE,FALSE,"202 Eumundi Noosa Road, NOOSAVILLE, 4566",,,,,,,
QLD,153.004046,"Ashgrove, Brisbane Central, Stafford",,State School,,Government School,TRUE,"{""coffee"":false,""vego_sausages"":false,""halal"":false,""bacon_egg"":false,""other"":""""}",http://www.couriermail.com.au/questnews/north/queensland-election-2015-polling-booths-in-brisbanes-northwest/story-fni9r1kg-1227200826424,-27.431916,Newmarket,FALSE,TRUE,"Banks Street, NEWMARKET, 4051",Secondhand book stall,,,,,,
QLD,151.168254,Southern Downs,,Memorial Hall,,Hall,FALSE,,,-28.855119,Texas,FALSE,FALSE,"50 High Street, TEXAS, 4385",,,,,,,
QLD,152.619399,Gympie,,Pie Creek Hall,,Hall,FALSE,,,-26.241106,Pie Creek,FALSE,FALSE,"Herron Road, PIE CREEK, 4570",,,,,,,
QLD,148.491603,Mirani,,State School,,Government School,FALSE,,,-21.134529,Eungella,FALSE,FALSE,"Chelmer Road, EUNGELLA, 4757",,,,,,,
QLD,151.830609,Nanango,,Public Hall,,Hall,FALSE,,,-26.984065,Cooyar,FALSE,FALSE,"COOYAR, 4402",,,,,,,
QLD,152.363929,"Bundaberg, Burnett",,State School,,Government School,FALSE,,,-24.898378,Thabeban,FALSE,FALSE,"270 Goodwood Road, THABEBAN, 4670",,,,,,,
QLD,146.762704,Mundingburra,,State School,,Government School,FALSE,,,-19.296097,Aitkenvale,FALSE,FALSE,"67-85 Wotton Street, AITKENVALE, 4814",,,,,,,
QLD,151.891429,Condamine,,State School,,Government School,FALSE,,,-27.491453,Gowrie,FALSE,FALSE,"Old Homebush Road, GOWRIE, 4352",,,,,,,
QLD,147.109616,Warrego,,State School,,Government School,FALSE,,,-26.415649,Morven,FALSE,FALSE,"Cnr Warrego Hwy & West Street, MORVEN, 4468",,,,,,,
QLD,145.752756,Cairns,,Trinity Bay State High School,,Government School,FALSE,,,-16.922833,Manunda,FALSE,FALSE,"26-62 Hoare Street, MANUNDA, 4870",,,,,,,
QLD,151.365209,Gladstone,,State High School,,Government School,FALSE,,,-23.95945,Tannum Sands,FALSE,FALSE,"65 Coronation Drive, TANNUM SANDS, 4680",,,,,,,
QLD,153.033119,South Brisbane,,St Joseph's Primary School Meeting Room 'Coolock',,Private School,TRUE,"{""coffee"":false,""vego_sausages"":false,""halal"":false,""bacon_egg"":false,""other"":""""}",@sausagesizzles,-27.482818,Kangaroo Point,FALSE,TRUE,"Anglesey Street, KANGAROO POINT, 4169",,,,,,,
QLD,152.4756,Burnett,,State School,,Government School,FALSE,,,-24.907593,Elliott Heads,FALSE,FALSE,"143 Breusch Road, ELLIOTT HEADS, 4670",,,,,,,
QLD,151.997354,Callide,,State School,,Government School,FALSE,,,-25.073426,Wallaville,FALSE,FALSE,"7 Grey Street, WALLAVILLE, 4671",,,,,,,
QLD,151.265173,Southern Downs,,State School,,Government School,FALSE,,,-27.877777,Millmerran,FALSE,FALSE,"19 Simmons Street, MILLMERRAN, 4357",,,,,,,
QLD,152.989759,Ashgrove,,St Johns Anglican Church Hall,,Church,TRUE,"{""coffee"":false,""vego_sausages"":false,""halal"":false,""bacon_egg"":false,""other"":""""}",http://www.couriermail.com.au/questnews/north/queensland-election-2015-polling-booths-in-brisbanes-northwest/story-fni9r1kg-1227200826424,-27.429502,Enoggera South,FALSE,TRUE,"187 Wardell Street, ENOGGERA, 4051",,,,,,,
QLD,153.126173,Pumicestone,,Sports and Recreation Facility,,Other,FALSE,"{""coffee"":false,""vego_sausages"":false,""halal"":false,""bacon_egg"":false,""other"":""Drinks""}",@GumbyAu,-27.079083,Sandstone Point,TRUE,FALSE,"206 Bestmann Road East, SANDSTONE POINT, 4511",,,,,,,
QLD,151.954672,Southern Downs,,Public Hall,,Hall,FALSE,,,-28.149021,Massie,FALSE,FALSE,"12 Warwick Allora Back Road, MASSIE, 4370",,,,,,,
QLD,150.514094,"Keppel, Rockhampton",,State High School,,Government School,FALSE,,,-23.336871,Glenmore,FALSE,FALSE,"Farm Street, KAWANA, 4701",,,,,,,
QLD,152.910166,"Gympie, Nicklin, Noosa",,Noosa District High School,,Government School,FALSE,,,-26.424796,Cooroy,FALSE,FALSE,"2 Tulip Street, COOROY, 4563",,,,,,,
QLD,148.164694,Gregory,,State School,,Government School,FALSE,,,-23.51219,Emerald North,FALSE,FALSE,"Campbell Street, EMERALD, 4720",,,,,,,
QLD,153.42581,"Burleigh, Mermaid Beach",,Miami State School,,Government School,FALSE,,,-28.060279,Miami West,FALSE,FALSE,"Oceanic Drive, MIAMI, 4220",,,,,,,
QLD,153.027942,Stafford,,Wheller Gardens Settlement,,Other,FALSE,,,-27.383162,Chermside,FALSE,FALSE,"930 Gympie Road, CHERMSIDE, 4032",,,,,,,
QLD,152.933889,Ferny Grove,,State School,,Government School,TRUE,"{""coffee"":false,""vego_sausages"":false,""halal"":false,""bacon_egg"":false,""other"":""""}",http://www.couriermail.com.au/questnews/north/queensland-election-2015-polling-booths-in-brisbanes-northwest/story-fni9r1kg-1227200826424,-27.393333,Patricks Road,FALSE,FALSE,"Patricks Road, FERNY HILLS, 4055",,,,,,,
QLD,147.401396,Burdekin,,PCYC,,Other,FALSE,,,-19.582476,Ayr,FALSE,FALSE,"164 MacMillan Street, AYR, 4807",,,,,,,
QLD,153.11072,"Logan, Waterford, Woodridge",,State High School,,Government School,FALSE,,,-27.684989,Marsden,FALSE,FALSE,"106-130 Muchow Road, WATERFORD WEST, 4133",,,,,,,
QLD,152.998872,"Kallangur, Murrumba",,Community Centre,,Other,FALSE,,,-27.248788,Kallangur East,FALSE,FALSE,"1480 Anzac Avenue, KALLANGUR, 4503",,,,,,,
QLD,146.239794,Warrego,,Cultural Centre,,Other,FALSE,,,-26.401108,Charleville,FALSE,FALSE,"96-98 Alfred Street, CHARLEVILLE, 4470",,,,,,,
QLD,153.099364,Woodridge,,Woodridge State High School,,Government School,FALSE,,,-27.643143,Woodridge,FALSE,FALSE,"Wembley Road, WOODRIDGE, 4114",,,,,,,
QLD,146.152679,Hinchinbrook,,Ingham TYTO Centre,,Other,FALSE,,,-18.652131,Ingham South,FALSE,FALSE,"73 - 75 McIlwraith Street, INGHAM, 4850",,,,,,,
QLD,148.958881,Mirani,,State School,,Government School,FALSE,,,-21.146012,Marian,FALSE,FALSE,"Anzac Avenue, MARIAN, 4753",,,,,,,
QLD,143.062036,Gregory,,State School,,Government School,FALSE,,,-24.831109,Jundah,FALSE,FALSE,"11 Garrick Street, JUNDAH, 4736",,,,,,,
QLD,153.076227,"Nicklin, Noosa",,St Andrews Anglican College,,Private School,FALSE,,,-26.494254,Peregian Springs,FALSE,FALSE,"40 Peregian Springs Drive, PEREGIAN SPRINGS, 4573",,,,,,,
QLD,153.126676,Chatsworth,,State School,,Government School,FALSE,,,-27.473528,Tingalpa,FALSE,FALSE,"Tenbar Street, TINGALPA, 4173",,,,,,,
QLD,150.496441,Rockhampton,,St Vincent's Hall,,Church,FALSE,,,-23.372814,Wandal,FALSE,FALSE,"Rundle Street, WANDAL, 4700",,,,,,,
QLD,153.109044,Redcliffe,,,,Other,FALSE,,,-27.221467,Redcliffe TAFE,FALSE,FALSE,64-68 Klingner RoadREDCLIFFE4020,,,,,,,
QLD,150.917349,Warrego,,State School,,Government School,FALSE,,,-26.930363,Warra,FALSE,FALSE,"Robinson Street, WARRA, 4411",,,,,,,
QLD,151.444817,Condamine,,State School,,Government School,FALSE,,,-27.759868,Brookstead,FALSE,FALSE,"30a Ware Road, BROOKSTEAD, 4364",,,,,,,
QLD,153.409546,"Burleigh, Mermaid Beach, Mudgeeraba",,Varsity State College,,Government School,FALSE,"{""coffee"":false,""vego_sausages"":false,""halal"":false,""bacon_egg"":false,""other"":""""}",@idiotwrangler,-28.088523,Varsity,TRUE,FALSE,"Christine Avenue, VARSITY LAKES, 4227",,,,,,,
QLD,153.264964,Mudgeeraba,,State School,,Government School,TRUE,"{""coffee"":false,""vego_sausages"":false,""halal"":false,""bacon_egg"":false,""other"":""""}",@sausagesizzles,-28.189951,Springbrook,FALSE,TRUE,"2327 Springbrook Road, SPRINGBROOK, 4213",,,,,,,
QLD,150.594621,Callide,,Hall,,Hall,FALSE,,,-24.497224,Lawgi,FALSE,FALSE,"Burnett Highway, LAWGI, 4715",,,,,,,
QLD,145.741717,"Cairns, Mulgrave",,State High School,,Government School,FALSE,,,-16.960688,Woree,FALSE,FALSE,"42-80 Windarra Street, WOREE, 4868",,,,,,,
QLD,151.697526,Condamine,,State School,,Government School,FALSE,,,-27.555045,Biddeston,FALSE,FALSE,"Toowoomba-Cecil Plains Road, BIDDESTON, 4401",,,,,,,
QLD,147.685722,Burdekin,,State School,,Government School,FALSE,,,-19.87905,Gumlu,FALSE,FALSE,"Bruce Highway, GUMLU, 4805",,,,,,,
QLD,151.872431,Callide,,QCWA Hall,,Hall,FALSE,,,-26.318794,Wondai,FALSE,FALSE,"87 Mackenzie Street, WONDAI, 4606",,,,,,,
QLD,147.104546,Burdekin,,CWA Hall,,Hall,FALSE,,,-19.515094,Giru,FALSE,FALSE,"9 Carey Street, GIRU, 4809",,,,,,,
QLD,153.097489,Woodridge,,State School,,Government School,FALSE,,,-27.652211,Berrinba East,FALSE,FALSE,"Bardon Road, BERRINBA, 4117",,,,,,,
QLD,151.718706,"Condamine, Nanango",,State High School,,Government School,FALSE,,,-27.444508,Oakey,FALSE,FALSE,"1 Campbell Street, OAKEY, 4401",,,,,,,
QLD,145.463776,Cook,,Community Hall,,Hall,FALSE,,,-16.48544,Port Douglas,FALSE,FALSE,"13 - 29 Mowbray Street, PORT DOUGLAS, 4871",,,,,,,
QLD,152.680167,Gympie,,Community Hall,,Hall,FALSE,,,-26.386459,Kandanga,FALSE,FALSE,"Main Street, KANDANGA, 4570",,,,,,,
QLD,152.571071,Burnett,,Community Hall,,Hall,FALSE,,,-25.115149,Woodgate,FALSE,FALSE,"Esplanade, WOODGATE, 4660",,,,,,,
QLD,145.31938,Cook,,CDEP Offices,,Other,FALSE,,,-15.945725,Wujal Wujal,FALSE,FALSE,"1 Hartwig Street, WUJAL WUJAL, 4895",,,,,,,
QLD,153.229697,Capalaba,,State School,,Government School,TRUE,"{""coffee"":true,""vego_sausages"":false,""halal"":false,""bacon_egg"":true,""other"":""Cold drinks""}",http://www.redlandcitybulletin.com.au/story/2844089/where-to-vote-on-saturday/,-27.527409,Vienna Woods,FALSE,TRUE,"12 Heffernan Road, ALEXANDRA HILLS, 4161",,,,,,,
QLD,151.600342,Callide,,State School,,Government School,FALSE,,,-26.167817,Proston,FALSE,FALSE,"94 Rodney Street, PROSTON, 4613",,,,,,,
QLD,152.969489,"Ashgrove, Everton, Ferny Grove",,Mitchelton State  School,,Government School,TRUE,"{""coffee"":true,""vego_sausages"":false,""halal"":false,""bacon_egg"":true,""other"":""""}",http://www.couriermail.com.au/questnews/north/queensland-election-2015-polling-booths-in-brisbanes-northwest/story-fni9r1kg-1227200826424,-27.412779,Mitchelton South,FALSE,TRUE,"47 Glen Retreat Road, MITCHELTON, 4053",,,,,,,
QLD,152.592689,Ipswich West,,State School,,Government School,TRUE,"{""coffee"":false,""vego_sausages"":false,""halal"":false,""bacon_egg"":false,""other"":""Jelly cups""}",Twitter,-27.561861,Marburg,FALSE,TRUE,"Louisa Street, MARBURG, 4346",,,,,,,
QLD,153.053906,Buderim,,State School,,Government School,FALSE,,,-26.684477,Buderim,FALSE,FALSE,"8-42 Main Street, BUDERIM, 4556",,,,,,,
QLD,152.817555,Gympie,,State School,,Government School,FALSE,,,-26.149761,Wolvi,FALSE,FALSE,"936 Kin Kin Road, WOLVI, 4570",,,,,,,
QLD,150.280448,Mirani,,State School,,Government School,FALSE,,,-23.249853,Ridgelands,FALSE,FALSE,"43 Dalma Ridgelands Road, RIDGELANDS, 4702",,,,,,,
QLD,153.125746,"Caloundra, Kawana",,State College,,Government School,FALSE,,,-26.737064,Kawana Waters,FALSE,FALSE,"Sportsmans Parade, BOKARINA, 4575",,,,,,,
QLD,150.494599,Rockhampton,,Base Hospital,,Hospital,FALSE,,,-23.379304,Rockhampton Hospital,FALSE,FALSE,"Canning Street, THE RANGE, 4700",,,,,,,
QLD,153.038,Fortitude Valley,,Trinity Centre Sausage Sizzle,,Church,TRUE,"{""coffee"":false,""vego_sausages"":false,""halal"":false,""bacon_egg"":false,""other"":""""}",@sausagesizzles,-27.454,Brisbane Central,FALSE,TRUE,"9 Church Street, Brisbane",,,,,,,
QLD,138.829824,Mount Isa,,PCYC,,Other,FALSE,,,-17.93886,Doomadgee,FALSE,FALSE,"515 Goodeedawa Road, DOOMADGEE, 4830",,,,,,,
QLD,149.101848,Whitsunday,,State School,,Government School,FALSE,,,-21.106447,Farleigh,FALSE,FALSE,"Chidlow Street, FARLEIGH, 4741",,,,,,,
QLD,150.294546,Southern Downs,,Goondiwindi PCYC Indoor Sports Centre,,Other,FALSE,,,-28.535634,Goondiwindi West,FALSE,FALSE,"1 Russell Street, GOONDIWINDI, 4390",,,,,,,
QLD,150.186533,Warrego,,Civic Centre,,Other,FALSE,,,-26.658596,Miles,FALSE,FALSE,"Marion Street, MILES, 4415",,,,,,,
QLD,151.491423,Burnett,,State School,,Government School,FALSE,,,-24.244323,Bororen,FALSE,FALSE,"1 Kent Street, BOROREN, 4678",,,,,,,
QLD,146.826938,Townsville,,State School,,Government School,TRUE,"{""coffee"":true,""vego_sausages"":false,""halal"":false,""bacon_egg"":true,""other"":""""}",http://www.townsvillebulletin.com.au/news/election-day-snags-a-key-issue-for-voters/story-fnjfzs4b-1227203041701?from=public_rss&utm_medium=twitter&utm_campaign=Queensland_Online&utm_content=news&utm_source=RoamMedia,-19.26288,South Townsville,FALSE,TRUE,"78 Tully Street, SOUTH TOWNSVILLE, 4810","Car boot sale, activities for kids",,,,,,
QLD,153.063056,Sandgate,,Nursing Home Auditorium,,Hospital,FALSE,,,-27.289866,Eventide,FALSE,FALSE,"Beaconsfield Terrace, BRIGHTON, 4017",,,,,,,
QLD,149.144511,Mirani,,Swayneville State School,,Government School,FALSE,,,-21.472659,Shinfield,FALSE,FALSE,"952 Marlborough-Sarina Road, SHINFIELD, 4737",,,,,,,
QLD,153.305449,"Albert, Gaven",,State School,,Government School,FALSE,,,-27.919402,Gaven,FALSE,FALSE,"Universal Street, OXENFORD, 4210",,,,,,,
QLD,153.010796,Yeerongpilly,,St Sebastians School,,Private School,TRUE,"{""coffee"":true,""vego_sausages"":false,""halal"":false,""bacon_egg"":true,""other"":""""}",@sausagesizzles,-27.5138,Yeronga West,FALSE,TRUE,"141 Kadumba Street, YERONGA, 4104",,,,,,,
QLD,152.333,Bundaberg,,State School,,Government School,FALSE,,,-24.875833,Bundaberg West,FALSE,FALSE,"Steffensen Street, BUNDABERG, 4670",,,,,,,
QLD,153.085046,Nudgee,,School of Arts,,Other,FALSE,,,-27.365398,Nudgee,FALSE,FALSE,"Penhill Street, NUDGEE, 4014",,,,,,,
QLD,151.965616,"Toowoomba North, Toowoomba South",,State High School,,Government School,FALSE,"{""coffee"":false,""vego_sausages"":false,""halal"":false,""bacon_egg"":false,""other"":""""}",http://www.thechronicle.com.au/news/toowoomba-voters-cast-votes-early/2529340/,-27.579808,Centenary Heights,TRUE,FALSE,"South Street, CENTENARY HEIGHTS, 4350",,,,,,,
QLD,152.217314,Lockyer,,Baptist Church Hall,,Church,FALSE,"{""coffee"":false,""vego_sausages"":false,""halal"":false,""bacon_egg"":false,""other"":""""}",Twitter,-27.633809,Upper Tenthill,FALSE,FALSE,"979 Tenthill Creek Road, UPPER TENTHILL, 4343",,,,,,,
QLD,147.84483,Burdekin,,State School Parade Room,,Government School,FALSE,,,-20.547643,Collinsville,FALSE,FALSE,"Hamilton Street, COLLINSVILLE, 4804",,,,,,,
QLD,141.079463,Mount Isa,,Court House,,Courthouse,FALSE,,,-17.668824,Normanton,FALSE,FALSE,"Haig Street, NORMANTON, 4890",,,,,,,
QLD,153.323366,Redlands,,Public Hall,,Hall,FALSE,,,-27.574254,Coochiemudlo,FALSE,FALSE,"345 Victoria Parade South, COOCHIEMUDLO ISLAND, 4184",,,,,,,
QLD,153.380776,"Southport, Surfers Paradise",,State School,,Government School,FALSE,,,-27.98885,Ashmore,FALSE,FALSE,"Currumburra Road, ASHMORE, 4214",,,,,,,
QLD,152.209278,Southern Downs,,School of Arts,,Other,FALSE,,,-28.196371,Yangan,FALSE,FALSE,"7-9 King Street, YANGAN, 4371",,,,,,,
QLD,147.41377,Burdekin,,Big Bird's Nest Child Care Centre,,Kindergarten,FALSE,"{""coffee"":false,""vego_sausages"":false,""halal"":false,""bacon_egg"":false,""other"":""""}",Twitter,-19.57942,Parkside,FALSE,FALSE,"26 Darwin Street, AYR, 4807",,,,,,,
QLD,153.018925,Brisbane Central,,Ballymore Kindergarten,,Kindergarten,FALSE,,,-27.444423,Ballymore,FALSE,FALSE,"185 Butterfield Street, HERSTON, 4006",,,,,,,
QLD,151.957086,"Toowoomba North, Toowoomba South",,Court House,,Courthouse,FALSE,,,-27.562513,Hume Street,FALSE,FALSE,"159 Hume Street, TOOWOOMBA, 4350",,,,,,,
QLD,149.194314,"Mackay, Mirani, Whitsunday",,State School,,Government School,FALSE,"{""coffee"":false,""vego_sausages"":false,""halal"":false,""bacon_egg"":true,""other"":""""}",@sausagesizzles,-21.1481,Victoria Park,FALSE,TRUE,"Cnr Goldsmith & Shakespeare Streets, EAST MACKAY, 4740",,,,,,,
QLD,151.93903,"Toowoomba North, Toowoomba South",,Our Saviour's Hall,,Church,FALSE,"{""coffee"":false,""vego_sausages"":false,""halal"":false,""bacon_egg"":false,""other"":""""}",Twitter,-27.583307,West Street,FALSE,FALSE,"Alderley Street (Cnr West Street), HARRISTOWN, 4350",,,,,,,
QLD,152.981154,Indooroopilly,,Baptist Church,,Church,FALSE,"{""coffee"":false,""vego_sausages"":false,""halal"":false,""bacon_egg"":false,""other"":""""}",Twitter,-27.492712,Taringa,FALSE,FALSE,"36 Morrow Street, TARINGA, 4068",,,,,,,
QLD,146.189318,Hinchinbrook,,State School,,Government School,FALSE,,,-18.867773,Bambaroo,FALSE,FALSE,"Bruce Highway, BAMBAROO, 4850",,,,,,,
QLD,143.547133,Mount Isa,,State School,,Government School,FALSE,,,-18.294563,Georgetown,FALSE,FALSE,"High Street, GEORGETOWN, 4871",,,,,,,
QLD,152.763238,Ipswich West,,State School,,Government School,FALSE,,,-27.602901,North Ipswich,FALSE,FALSE,"Downs Street, NORTH IPSWICH, 4305",,,,,,,
QLD,152.888107,Moggill,,Bellbowrie Community Church,,Church,FALSE,,,-27.550086,Bellbowrie,FALSE,FALSE,"3077 Moggill Road, BELLBOWRIE, 4070",,,,,,,
QLD,145.412993,Cook,,Wonga Beach State School,,Government School,FALSE,,,-16.341974,Wonga,FALSE,FALSE,"48 Snapper Island Drive, WONGA BEACH, 4873",,,,,,,
QLD,152.918433,Hervey Bay,,Community Hall,,Hall,FALSE,,,-25.423073,River Heads,FALSE,FALSE,"45 Ariadne Street, RIVER HEADS, 4655",,,,,,,
QLD,153.039345,"Clayfield, Stafford",,State High School,,Government School,TRUE,"{""coffee"":false,""vego_sausages"":false,""halal"":false,""bacon_egg"":true,""other"":""Steak sandwiches""}",@sausagesizzles,-27.415011,Kedron High,FALSE,FALSE,"Park Road, KEDRON, 4031",,,,,,,
QLD,152.705283,Beaudesert,,State School,,Government School,FALSE,,,-27.920284,Roadvale,FALSE,FALSE,"111 Roadvale Road, ROADVALE, 4310",,,,,,,
QLD,146.73847,Mundingburra,,Goodstart Early Learning,,Kindergarten,FALSE,,,-19.318542,Riverside,FALSE,FALSE,"250 Riverside Boulevard, DOUGLAS, 4814",,,,,,,
QLD,152.584306,Maryborough,,Hall,,Hall,FALSE,,,-26.065057,Curra,FALSE,FALSE,"CURRA, 4570",,,,,,,
QLD,150.757758,Warrego,,State School,,Government School,FALSE,,,-27.038348,Kogan,FALSE,FALSE,"Condamine Highway, KOGAN, 4406",,,,,,,
QLD,153.017479,Murrumba,,State College - Senior Campus Sports Hall,,Government School,FALSE,,,-27.23981,North Lakes,FALSE,FALSE,"The Corso, NORTH LAKES, 4509",,,,,,,
QLD,153.079687,"Mansfield, Sunnybank, Yeerongpilly",,State School,,Government School,TRUE,"{""coffee"":false,""vego_sausages"":false,""halal"":false,""bacon_egg"":false,""other"":""""}",@sausagesizzles,-27.556402,Upper Mount Gravatt,FALSE,TRUE,"1899 Logan Road, UPPER MOUNT GRAVATT, 4122",,,,,,,
QLD,152.758702,Ipswich,,Ground Floor WG Hayden Humanities Centre,,Other,FALSE,,,-27.61648,Ipswich,FALSE,FALSE,"56 South Street, IPSWICH, 4305",,,,,,,
QLD,148.97624,Mirani,,State School,,Government School,FALSE,,,-21.264555,Eton,FALSE,FALSE,"Prospect Street, ETON, 4741",,,,,,,
QLD,152.739229,Ipswich West,,Leichhardt Parish Centre,,Church,FALSE,,,-27.628596,Leichhardt,FALSE,FALSE,"22 Old Toowoomba Road, LEICHHARDT, 4305",,,,,,,
QLD,149.524232,Mirani,,Centenary Hall,,Courthouse,FALSE,,,-22.349465,St Lawrence,FALSE,FALSE,"7 Railway Parade, ST LAWRENCE, 4707",,,,,,,
QLD,151.846097,Callide,,State School,,Government School,FALSE,,,-26.107759,Cloyna,FALSE,FALSE,"8 William Webber Road, CLOYNA, 4605",,,,,,,
QLD,153.025541,"Aspley, Sandgate",,Norris Road State School Hall,,Government School,TRUE,"{""coffee"":false,""vego_sausages"":false,""halal"":false,""bacon_egg"":false,""other"":""""}",@sausagesizzles,-27.31735,Bracken Ridge West,FALSE,FALSE,"Pritchard Place, BRACKEN RIDGE, 4017",,,,,,,
QLD,152.876086,Hervey Bay,,Sandy Straits State School,,Government School,TRUE,"{""coffee"":false,""vego_sausages"":false,""halal"":false,""bacon_egg"":false,""other"":""""}",https://www.facebook.com/photo.php?fbid=649884835134524,-25.30054,Urangan West,FALSE,TRUE,"Robert Street, URANGAN, 4655",,,,,,,
QLD,152.772017,Glass House,,Public Hall,,Hall,FALSE,,,-27.080554,Mount Mee,FALSE,FALSE,"1370 Mt Mee Road, MOUNT MEE, 4521",,,,,,,
QLD,150.545,"Keppel, Rockhampton",,State School - Activities Centre,,Government School,FALSE,"{""coffee"":false,""vego_sausages"":false,""halal"":false,""bacon_egg"":false,""other"":""""}",@MeganAHendry,-23.341944,Frenchville,TRUE,FALSE,"Frenchville Road, FRENCHVILLE, 4701",,,,,,,
QLD,153.181622,Lytton,,State School,,Government School,FALSE,,,-27.458311,Manly,FALSE,FALSE,"63 Ernest Street, MANLY, 4179",,,,,,,
QLD,147.790559,Warrego,,State School,,Government School,FALSE,,,-28.971052,Hebel,FALSE,FALSE,"41 Maud Street, HEBEL, 4486",,,,,,,
QLD,150.499748,"Keppel, Mirani, Rockhampton",,State High School,,Government School,FALSE,,,-23.369594,Rockhampton High,FALSE,FALSE,"Campbell Street, WANDAL, 4700",,,,,,,
QLD,149.66825,Gregory,,State School,,Government School,FALSE,,,-23.716162,Duaringa,FALSE,FALSE,"1 Charlotte Street, DUARINGA, 4702",,,,,,,
QLD,153.418311,"Burleigh, Mermaid Beach, Mudgeeraba",,Community Centre,,Other,FALSE,"{""coffee"":false,""vego_sausages"":false,""halal"":false,""bacon_egg"":false,""other"":""""}",Twitter,-28.098399,Varsity Lakes,TRUE,FALSE,"(Off Mattocks Road) Lyn Muller Lane, VARSITY LAKES, 4227",,,,,,,
QLD,153.181489,Waterford,,State School,,Government School,TRUE,"{""coffee"":false,""vego_sausages"":true,""halal"":false,""bacon_egg"":false,""other"":""""}",@Mel_Venville,-27.686779,Loganholme,FALSE,FALSE,"Wandilla Crescent, LOGANHOLME, 4129",,,,,,,
QLD,153.143513,Waterford,,State High School,,Government School,FALSE,,,-27.672687,Loganlea,FALSE,FALSE,"Neridah Street, LOGANLEA, 4131",,,,,,,
QLD,152.594551,Beaudesert,,State School,,Government School,FALSE,,,-28.067914,Mount Alford,FALSE,FALSE,"942 Recumpilla Street, MOUNT ALFORD, 4310",,,,,,,
QLD,153.101619,Redcliffe,,Retirement Village,,Other,FALSE,,,-27.203639,Bally Cara,FALSE,FALSE,"Oyster Point Esplanade, SCARBOROUGH, 4020",,,,,,,
QLD,152.591053,Maryborough,,State School,,Government School,FALSE,,,-25.604108,Mungar,FALSE,FALSE,"1143 Mungar Road, MUNGAR, 4650",,,,,,,
QLD,152.67095,Gympie,,Church Of Christ Hall,,Church,FALSE,"{""coffee"":false,""vego_sausages"":false,""halal"":false,""bacon_egg"":false,""other"":""""}",Twitter,-26.182572,Horseshoe Bend,FALSE,FALSE,"10 Tucker Street, GYMPIE, 4570",,,,,,,
QLD,151.77126,Condamine,,Public Hall,,Hall,FALSE,,,-27.801256,Felton East,FALSE,FALSE,"2775 Toowoomba-Karara Road, FELTON EAST, 4358",,,,,,,
QLD,151.904845,"Nanango, Toowoomba North",,State School,,Government School,FALSE,,,-27.430721,Meringandan,FALSE,FALSE,"Shirley Road, MERINGANDAN, 4352",,,,,,,
QLD,153.043155,"Clayfield, Nudgee, Stafford",,Assembly of God Church Hall,,Church,FALSE,"{""coffee"":false,""vego_sausages"":false,""halal"":false,""bacon_egg"":false,""other"":""""}",Twitter,-27.388157,Chermside East,FALSE,FALSE,"Cnr Pfingst & Hamilton Roads, CHERMSIDE, 4032",,,,,,,
QLD,152.679175,Gympie,,State High School,,Government School,FALSE,,,-26.188445,Gympie High,FALSE,FALSE,"Cootharaba Road, GYMPIE, 4570",,,,,,,
QLD,139.487131,Mount Isa,,Spinifex State College - Junior Campus,,Government School,FALSE,,,-20.734616,Mt Isa West,FALSE,FALSE,"6-12 Fifth Avenue, MOUNT ISA, 4825",,,,,,,
QLD,148.638893,Mirani,,State School,,Government School,FALSE,,,-21.139888,Finch Hatton,FALSE,FALSE,"Eungella Road, FINCH HATTON, 4756",,,,,,,
QLD,152.979727,Kallangur,,State High School,,Government School,TRUE,"{""coffee"":false,""vego_sausages"":false,""halal"":false,""bacon_egg"":false,""other"":""""}",@sausagesizzles,-27.230229,Dakabin,FALSE,FALSE,"Marsden Road, DAKABIN, 4503",,,,,,,
QLD,153.161095,Lytton,,State School,,Government School,FALSE,,,-27.440605,Wynnum,FALSE,FALSE,"81 Boxgrove Avenue, WYNNUM, 4178",,,,,,,
QLD,150.753804,Southern Downs,,State School,,Government School,FALSE,,,-28.57408,Yelarbon,FALSE,FALSE,"17 Eena Street, YELARBON, 4388",,,,,,,
QLD,152.974824,Pine Rivers,,State School,,Government School,TRUE,"{""coffee"":false,""vego_sausages"":false,""halal"":false,""bacon_egg"":false,""other"":""""}",@surelysarah,-27.281332,Lawnton,FALSE,FALSE,"Todds Road, LAWNTON, 4501",,,,,,,
QLD,153.092103,"Bulimba, Chatsworth",,State School,,Government School,TRUE,"{""coffee"":false,""vego_sausages"":false,""halal"":false,""bacon_egg"":false,""other"":""""}",@carindale_local,-27.48437,Mayfield,FALSE,TRUE,"37 Paget Street, CARINA, 4152",,,,,,,
QLD,148.696448,Whitsunday,,TAFE College,,Other,FALSE,,,-20.27827,Cannonvale Beach,FALSE,FALSE,"190 Shute Harbour Road, CANNONVALE BEACH, 4802",,,,,,,
QLD,153.378244,"Broadwater, Southport",,State High School,,Government School,FALSE,,,-27.923666,Coombabah High,FALSE,FALSE,"Pine Ridge Road, COOMBABAH, 4216",,,,,,,
QLD,146.258969,Warrego,,State High School,,Government School,FALSE,,,-26.397316,Charleville High,FALSE,FALSE,"Partridge Street (cnr Hunter Street), CHARLEVILLE, 4470",,,,,,,
QLD,153.204117,"Redlands, Springwood",,Chisholm Catholic College,,Private School,TRUE,"{""coffee"":true,""vego_sausages"":false,""halal"":false,""bacon_egg"":false,""other"":""""}",@sausagesizzles,-27.666271,Cornubia,FALSE,FALSE,"204 California Creek Road, CORNUBIA, 4130",,,,,,,
QLD,153.244869,"Albert, Coomera",,State School,,Government School,FALSE,,,-27.773026,Norfolk Village,FALSE,FALSE,"Halfway Drive, ORMEAU, 4208",,,,,,,
QLD,152.973826,"Glass House, Nicklin",,State School,,Government School,TRUE,"{""coffee"":false,""vego_sausages"":false,""halal"":false,""bacon_egg"":false,""other"":""""}",@evilcaz78,-26.667192,Woombye,FALSE,FALSE,"95 Pine Grove Road, WOOMBYE, 4559",Had packed up by 12,,,,,,
QLD,153.059523,Buderim,,Matthew Flinders College,,Private School,FALSE,,,-26.697547,Buderim South,FALSE,FALSE,"41-47 Stringybark Road, BUDERIM, 4556",,,,,,,
QLD,150.572326,Callide,,State School,,Government School,FALSE,,,-24.491113,Thangool,FALSE,FALSE,"2 Aerodrome Road, THANGOOL, 4716",,,,,,,
QLD,146.816145,Townsville,,State School,,Government School,FALSE,,,-19.274154,Railway Estate,FALSE,FALSE,"39 Railway Avenue, RAILWAY ESTATE, 4810",,,,,,,
QLD,153.165904,Beaudesert,,State School,,Government School,FALSE,,,-28.018021,Canungra,FALSE,FALSE,"Christie Street, CANUNGRA, 4275",,,,,,,
QLD,153.428696,Surfers Paradise,,The Pavillion,,Other,FALSE,,,-27.974131,Main Beach,FALSE,FALSE,"The Esplanade, MAIN BEACH, 4217",,,,,,,
QLD,153.025373,Murrumba,,Deception Bay Community Hall,,Hall,FALSE,,,-27.184391,Bayview Terrace,FALSE,FALSE,"cnr Bayview Tce Ewart Street, DECEPTION BAY, 4508",,,,,,,
QLD,152.96711,"Morayfield, Murrumba",,Burpengary Community Complex,,Other,FALSE,,,-27.155317,Burpengary North,FALSE,FALSE,"111 Station Road, BURPENGARY, 4505",,,,,,,
QLD,153.081467,Nudgee,,Earnshaw State College,,Government School,FALSE,,,-27.378269,Banyo East,FALSE,FALSE,"Cnr Earnshaw and Tufnell Road, NUDGEE, 4014",,,,,,,
QLD,139.511701,Mount Isa,,State School,,Government School,FALSE,,,-21.693964,Dajarra,FALSE,FALSE,"Matheson Street, DAJARRA, 4825",,,,,,,
QLD,153.051036,Pumicestone,,Community Hall,,Hall,FALSE,,,-27.129878,Beachmere,FALSE,FALSE,"3 Progress Avenue, BEACHMERE, 4510",,,,,,,
QLD,146.953012,Burdekin,,Bush Fire Brigade Hall,,Hall,FALSE,,,-19.38838,Nome,FALSE,FALSE,"2 Alligator Creek Road, NOME, 4816",,,,,,,
QLD,152.748671,Ipswich,,Blair State School,,Government School,FALSE,,,-27.612278,Sadliers Crossing,FALSE,FALSE,"Cribb Street, SADLIERS CROSSING, 4305",,,,,,,
QLD,153.016444,Murrumba,,State School,,Government School,FALSE,,,-27.199379,Moreton Downs,FALSE,FALSE,"Parsons Boulevard, DECEPTION BAY, 4508",,,,,,,
QLD,153.066663,Sandgate,,State School Prep Building,,Government School,TRUE,"{""coffee"":false,""vego_sausages"":false,""halal"":false,""bacon_egg"":false,""other"":""""}",@sausagesizzles,-27.320282,Sandgate,FALSE,TRUE,"Lagoon Street, SANDGATE, 4017",,,,,,,
QLD,152.615054,Gympie,,State School,,Government School,TRUE,"{""coffee"":false,""vego_sausages"":false,""halal"":false,""bacon_egg"":false,""other"":""Lamingtons""}",@carindale_local,-26.142619,Chatsworth,FALSE,FALSE,"Bruce Highway, CHATSWORTH, 4570",,,,,,,
QLD,144.520922,Cook,,State School,,Government School,FALSE,,,-17.155498,Chillagoe,FALSE,FALSE,"Cathedral Street, CHILLAGOE, 4871",,,,,,,
QLD,149.068943,Gregory,,State School,,Government School,FALSE,,,-23.5821,Bluff,FALSE,FALSE,"32 Main Street, BLUFF, 4702",,,,,,,
QLD,153.407483,"Broadwater, Southport",,Labrador Senior Citizens Hall,,Hall,FALSE,,,-27.940672,Harley Park,FALSE,FALSE,"370 Marine Parade, LABRADOR, 4215",,,,,,,
QLD,153.383571,Redlands,,Pioneer Hall,,Hall,FALSE,,,-27.624223,Lamb Island,FALSE,FALSE,"125 Luca Drive, LAMB ISLAND, 4184",,,,,,,
QLD,145.772249,"Barron River, Cairns",,St Monica's College,,Private School,TRUE,"{""coffee"":false,""vego_sausages"":false,""halal"":false,""bacon_egg"":false,""other"":""""}",@sausagesizzles,-16.917246,Cairns,FALSE,FALSE,"Lake Street, CAIRNS, 4870",Setting up mid-morning,,,,,,
QLD,153.417328,Mermaid Beach,,State High School,,Government School,FALSE,,,-28.040046,Merrimac High,FALSE,FALSE,"Dunlop Court, MERMAID WATERS, 4218",,,,,,,
QLD,149.161506,"Mackay, Mirani",,"State School, Library Performing Arts Centre",,Government School,FALSE,,,-21.152401,Mackay West,FALSE,FALSE,"20 Pinder Street, WEST MACKAY, 4740",,,,,,,
QLD,145.416551,Cook,,State High School,,Government School,FALSE,"{""coffee"":false,""vego_sausages"":false,""halal"":false,""bacon_egg"":false,""other"":""""}",@sausagesizzles,-16.995432,Mareeba West,FALSE,TRUE,"Jasper Street, MAREEBA WEST, 4880",,,,,,,
QLD,152.543211,Ipswich West,,State School,,Government School,FALSE,,,-27.554574,Minden,FALSE,FALSE,"Cnr Warrego Hwy & Lowood Road, MINDEN, 4311",,,,,,,
QLD,153.430778,Burleigh,,State School,,Government School,TRUE,"{""coffee"":false,""vego_sausages"":false,""halal"":false,""bacon_egg"":false,""other"":""Fudge""}",@sausagesizzles,-28.085488,Caningeraba,FALSE,TRUE,"Whistler Drive, BURLEIGH WATERS, 4220",,,,,,,
QLD,152.912642,Hervey Bay,,Rural Fire Brigade,,Other,FALSE,,,-25.362351,Booral,FALSE,FALSE,"118 Oslove Drive, BOORAL, 4655",,,,,,,
QLD,153.06074,"Greenslopes, South Brisbane",,State School,,Government School,TRUE,"{""coffee"":false,""vego_sausages"":false,""halal"":false,""bacon_egg"":false,""other"":""""}",https://coorpaross.eq.edu.au/calendarandnews/newsletters/newsletters/newsletter%20w1%20term%201%202015.pdf,-27.494315,Coorparoo,FALSE,FALSE,"327 Old Cleveland Road, COORPAROO, 4151",,,,,,,
QLD,153.073267,Clayfield,,Uniting Church Activities Centre,,Church,FALSE,"{""coffee"":false,""vego_sausages"":false,""halal"":false,""bacon_egg"":false,""other"":""""}",Tiwtter,-27.432251,Doomben,FALSE,FALSE,"Cnr Jackson Street & Oxford Streets, HAMILTON, 4007",,,,,,,
QLD,150.458695,Warrego,,State School,,Government School,FALSE,,,-27.280308,Tara,FALSE,FALSE,"22 Binnie Street, TARA, 4421",,,,,,,
QLD,153.102073,"Bulimba, Chatsworth",,State School,,Government School,FALSE,"{""coffee"":false,""vego_sausages"":false,""halal"":false,""bacon_egg"":false,""other"":""""}",@sausagesizzles,-27.493623,Carina,FALSE,TRUE,"1413 Creek Road, CARINA, 4152",,,,,,,
QLD,153.214103,Coomera,,State School,,Government School,FALSE,,,-27.703457,Eagleby South,FALSE,FALSE,"Cnr River Hills & Fryar Roads, EAGLEBY, 4207",,,,,,,
QLD,145.635565,Barron River,,CWA Hall,,Hall,FALSE,,,-16.818629,Kuranda,FALSE,FALSE,"20 Thongon Street, KURANDA, 4881",,,,,,,
QLD,153.081491,"Caloundra, Kawana",,ABC Learning Centre,,Kindergarten,FALSE,,,-26.787209,Little Mountain,FALSE,FALSE,"2A Keneland Avenue, LITTLE MOUNTAIN, 4551",,,,,,,
QLD,153.11047,Redcliffe,,State School,,Government School,FALSE,,,-27.215935,Scarborough,FALSE,FALSE,"Garsden Street, SCARBOROUGH, 4020",,,,,,,
QLD,149.455928,Gregory,,HACC Building,,Other,FALSE,,,-24.13106,Woorabinda,FALSE,FALSE,"112 Munns Drive, WOORABINDA, 4713",,,,,,,
QLD,153.088169,Buderim,,Buderim Gardens Community Hall,,Hall,TRUE,"{""coffee"":false,""vego_sausages"":false,""halal"":false,""bacon_egg"":false,""other"":""""}",@sausagesizzles,-26.677915,Buderim Gardens,FALSE,FALSE,"405 Mooloolaba Road, BUDERIM, 4556",,,,,,,
QLD,153.037722,South Brisbane,,The Little Kings Movement for the Handicapped,,Other,FALSE,,,-27.497627,Stones Corner,FALSE,FALSE,"Carl St corner of O'Keefe Street, BURANDA, 4102",,,,,,,
QLD,152.810657,"Bundamba, Ipswich",,TAFE College,,Other,FALSE,"{""coffee"":false,""vego_sausages"":false,""halal"":false,""bacon_egg"":false,""other"":""""}",@Chris_Campey,-27.604553,Bundamba TAFE,FALSE,TRUE,"Mary Street, BUNDAMBA, 4304",Cake stall at the childcare centre.,,,,,,
QLD,146.001118,Hinchinbrook,,State School,,Government School,FALSE,,,-17.736378,Silkwood,FALSE,FALSE,"318 Silkwood-Japoon Road, SILKWOOD, 4856",,,,,,,
QLD,151.405726,Nanango,,Hall,,Hall,FALSE,,,-26.766306,Cooranga North,FALSE,FALSE,"41 Cooranga North - Niagara Road, COORANGA NORTH, 4408",,,,,,,
QLD,146.147486,Hinchinbrook,,State School,,Government School,FALSE,,,-18.71238,Toobanna,FALSE,FALSE,"Bruce Highway, TOOBANNA, 4850",,,,,,,
QLD,144.445556,Cook,,Town Hall,,Hall,FALSE,,,-15.55758,Laura,FALSE,FALSE,"4 Terminus Street, LAURA, 4892",,,,,,,
QLD,152.964331,"Caloundra, Glass House",,State School,,Government School,FALSE,,,-26.804178,Landsborough,FALSE,FALSE,"41 Gympie Street North, LANDSBOROUGH, 4551",,,,,,,
QLD,153.303598,"Albert, Coomera, Gaven",,State School,,Government School,TRUE,"{""coffee"":false,""vego_sausages"":false,""halal"":false,""bacon_egg"":false,""other"":""Slushies""}","@sausagesizzles, @raspberrymadnes",-27.900365,Oxenford,FALSE,FALSE,"Michigan Drive, OXENFORD, 4210",,,,,,,
QLD,151.94477,Condamine,,State School,,Government School,FALSE,,,-27.783714,Emu Creek,FALSE,FALSE,"14534 New England Highway, GREENMOUNT EAST, 4359",,,,,,,
QLD,152.9705,"Everton, Pine Rivers",,State School,,Government School,TRUE,"{""coffee"":false,""vego_sausages"":false,""halal"":false,""bacon_egg"":false,""other"":""""}",http://www.couriermail.com.au/questnews/north/queensland-election-2015-polling-booths-in-brisbanes-northwest/story-fni9r1kg-1227200826424,-27.346206,Albany Creek,FALSE,TRUE,"696 Albany Creek Road, ALBANY CREEK, 4035",,,,,,,
QLD,153.062884,Bulimba,,State School,,Government School,TRUE,"{""coffee"":false,""vego_sausages"":false,""halal"":false,""bacon_egg"":false,""other"":""""}",@sausagesizzles,-27.474355,Norman Park School,FALSE,TRUE,"53 Hipwood Street, NORMAN PARK, 4170",,,,,,,
QLD,151.954731,Toowoomba North,,State School,,Government School,FALSE,,,-27.540074,Harlaxton,FALSE,FALSE,"110 Ruthven Street, TOOWOOMBA, 4350",,,,,,,
QLD,146.726473,Thuringowa,,State School,,Government School,FALSE,,,-19.388082,Kelso,FALSE,FALSE,"Yvette Street, KELSO, 4815",,,,,,,
QLD,153.396775,Broadwater,,State School Activities Centre,,Government School,FALSE,,,-27.927597,Biggera Waters,FALSE,FALSE,"Coombabah Road, BIGGERA WATERS, 4216",,,,,,,
QLD,146.266292,Dalrymple,,,,Other,FALSE,,,-20.070353,Charters Towers Tennis Centre,FALSE,FALSE,1 - 11 Aplin Street (Cnr Boundary Street)QUEENTON4820,,,,,,,
QLD,153.058154,Greenslopes,,Anglican Church Hall,,Church,FALSE,"{""coffee"":false,""vego_sausages"":false,""halal"":false,""bacon_egg"":false,""other"":""""}",Twitter,-27.517084,St Matthews,FALSE,FALSE,"889 Logan Road, HOLLAND PARK, 4121",,,,,,,
QLD,153.018265,Stafford,,Wilston Scout Hall,,Hall,FALSE,,,-27.424957,Grange,FALSE,FALSE,"72 Selheim Street, GRANGE, 4051",,,,,,,
QLD,144.19943,Mount Isa,,Court House,,Courthouse,FALSE,,,-20.842088,Hughenden,FALSE,FALSE,"65 Brodie Street, HUGHENDEN, 4821",,,,,,,
QLD,152.977281,Indooroopilly,,Milpera State High School,,Government School,FALSE,,,-27.51351,Chelmer,FALSE,FALSE,"Parker Street, CHELMER, 4068",,,,,,,
QLD,152.783046,Ipswich,,State School,,Government School,FALSE,,,-27.640558,Raceview,FALSE,FALSE,"96 Wildey Street, RACEVIEW, 4305",,,,,,,
QLD,152.944861,Ashgrove,,State School,,Government School,TRUE,"{""coffee"":true,""vego_sausages"":false,""halal"":false,""bacon_egg"":true,""other"":""""}",@sausagesizzles,-27.442987,The Gap,FALSE,TRUE,"Cnr Waterworks & Settlement Roads, THE GAP, 4061",,,,,,,
QLD,152.587062,Nanango,,State School,,Government School,FALSE,,,-26.873914,Mount Kilcoy,FALSE,FALSE,"251 Jenkinsons Road, MOUNT KILCOY, 4515",,,,,,,
QLD,153.39637,Surfers Paradise,,State School,,Government School,FALSE,,,-27.995233,Bellevue Park,FALSE,FALSE,"Sapium Road, ASHMORE, 4214",,,,,,,
QLD,145.681758,Warrego,,Shire Hall,,Hall,FALSE,,,-28.068061,Cunnamulla,FALSE,FALSE,"Cnr Stockyard & Jane Streets, CUNNAMULLA, 4490",,,,,,,
QLD,153.052225,Sandgate,,State School Sports Hall,,Government School,TRUE,"{""coffee"":false,""vego_sausages"":false,""halal"":false,""bacon_egg"":false,""other"":""""}",http://www.couriermail.com.au/questnews/east/schools-in-a-rush-to-organise-food-stalls-in-time-for-election-day-on-january-31/story-fni9r0lo-1227200790821,-27.294333,Brighton,FALSE,FALSE,"2 North Road, BRIGHTON, 4017",,,,,,,
QLD,153.032427,Noosa,,State School,,Government School,FALSE,,,-26.390111,Tewantin,FALSE,FALSE,"Goodwin Street, TEWANTIN, 4565",,,,,,,
QLD,141.880673,Cook,,Weipa Campus Western Cape College,,Government School,FALSE,"{""coffee"":false,""vego_sausages"":false,""halal"":false,""bacon_egg"":false,""other"":""""}",@MattNicholls29,-12.623158,Weipa North,TRUE,FALSE,"Central Avenue, WEIPA (ROCKY POINT), 4874",,,,,,,
QLD,153.151731,"Chatsworth, Lytton",,Uniting Church Hall,,Church,FALSE,"{""coffee"":false,""vego_sausages"":false,""halal"":false,""bacon_egg"":false,""other"":""""}",Twitter,-27.469435,Bayside,FALSE,FALSE,"420 Wondall Road, MANLY WEST, 4179",,,,,,,
QLD,142.248914,Cook,,Nurapai Kazil Centre,,Other,FALSE,,,-10.595265,Horn Island,FALSE,FALSE,"30 Nawie Street, HORN ISLAND, 4875",,,,,,,
QLD,152.887387,Ferny Grove,,Farmers Hall,,Hall,TRUE,"{""coffee"":false,""vego_sausages"":false,""halal"":false,""bacon_egg"":false,""other"":""""}",@sausagesizzles,-27.370775,Samford,FALSE,TRUE,"30 Main Street, SAMFORD, 4520",,,,,,,
QLD,153.174428,Lytton,,Alliance Church Hall,,Church,FALSE,"{""coffee"":false,""vego_sausages"":false,""halal"":false,""bacon_egg"":false,""other"":""""}",Twitter,-27.456636,Preston Road,FALSE,FALSE,"60 Preston Road, MANLY WEST, 4179",,,,,,,
QLD,151.93528,"Toowoomba North, Toowoomba South",,State School,,Government School,FALSE,,,-27.558951,Newtown,FALSE,FALSE,"Albert Street, TOOWOOMBA, 4350",,,,,,,
QLD,151.0819,Southern Downs,,Civic Centre,,Other,FALSE,,,-28.414222,Inglewood,FALSE,FALSE,"Elizabeth Street, INGLEWOOD, 4387",,,,,,,
QLD,145.925131,Mulgrave,,State School,,Government School,FALSE,,,-17.2664,Bellenden Ker,FALSE,FALSE,"Harvey Creek Road, BELLENDEN KER, 4871",,,,,,,
QLD,153.028366,Murrumba,,State School,,Government School,FALSE,,,-27.190828,Deception Bay,FALSE,FALSE,"King Street, DECEPTION BAY, 4508",,,,,,,
QLD,152.962814,Inala,,Samoan Assembly of God,,Church,FALSE,"{""coffee"":false,""vego_sausages"":false,""halal"":false,""bacon_egg"":false,""other"":""""}",Twitter,-27.593767,Richlands,FALSE,FALSE,"23 Lavender Street, INALA, 4077",,,,,,,
QLD,146.863609,Townsville,,Magnetic Island Bowls Club,,Other,FALSE,,,-19.151026,Arcadia,FALSE,FALSE,"18 Marine Parade, ARCADIA, 4819",,,,,,,
QLD,145.342711,Cook,,State School,,Government School,FALSE,,,-16.607581,Julatten,FALSE,FALSE,"1141 Euluma Creek Road, JULATTEN, 4871",,,,,,,
QLD,152.358227,Lockyer,,State School,,Government School,FALSE,,,-27.521845,Lake Clarendon,FALSE,FALSE,"35 Lake Clarendon Road, LAKE CLARENDON, 4343",,,,,,,
QLD,152.118051,Nanango,,Public Hall,,Hall,FALSE,,,-27.378417,Perseverance,FALSE,FALSE,"Esk-Hampton Road, PERSEVERANCE, 4352",,,,,,,
QLD,150.514116,Rockhampton,,State School,,Government School,FALSE,,,-23.413162,Port Curtis Road,FALSE,FALSE,"145 Port Curtis Road, PORT CURTIS, 4700",,,,,,,
QLD,147.54467,Warrego,,State School,,Government School,FALSE,,,-26.444459,Mungallala,FALSE,FALSE,"21 Redford Street, MUNGALLALA, 4467",,,,,,,
QLD,139.507763,Mount Isa,,State School,,Government School,FALSE,,,-20.733318,Townview,FALSE,FALSE,"Kookaburra Street, MOUNT ISA, 4825",,,,,,,
QLD,152.937168,Ashgrove,,State School,,Government School,FALSE,,,-27.436989,Hilder Road,FALSE,FALSE,"Hilder Road, THE GAP, 4061",,,,,,,
QLD,153.075798,Nudgee,,Anglican Church Hall,,Church,TRUE,"{""coffee"":false,""vego_sausages"":false,""halal"":false,""bacon_egg"":false,""other"":""""}",@liquid_mufos,-27.374721,Banyo,FALSE,TRUE,"Froude Street, BANYO, 4014",Crafts,,,,,,
QLD,150.451756,"Mirani, Rockhampton",,Waraburra State School,,Government School,FALSE,,,-23.448699,Gracemere,FALSE,FALSE,"55 Johnson Road, GRACEMERE, 4702",,,,,,,
QLD,152.114768,Lockyer,,State School,,Government School,FALSE,,,-27.615168,Flagstone Creek,FALSE,FALSE,"Flagstone School Road, FLAGSTONE CREEK, 4344",,,,,,,
QLD,153.039899,"Nudgee, Sandgate, Aspley",,State School Hall,,Government School,TRUE,"{""coffee"":false,""vego_sausages"":false,""halal"":false,""bacon_egg"":false,""other"":""""}","@sausagesizzles, @vivzilla",-27.348117,Taigum,FALSE,TRUE,"266 Handford Road, TAIGUM, 4018",,,,,,,
QLD,153.06143,"Clayfield, Nudgee",,St Francis Anglican Church Hall,,Church,TRUE,"{""coffee"":false,""vego_sausages"":false,""halal"":false,""bacon_egg"":false,""other"":""""}",@miremadra,-27.394596,Nundah North,FALSE,TRUE,"Cnr Cameron & Cavendish Street, NUNDAH, 4012",Knick knacks! ,,,,,,
QLD,145.922897,Hinchinbrook,,Court House,,Courthouse,FALSE,,,-17.9364,Tully,FALSE,FALSE,"46 Bryant Street, TULLY, 4854",,,,,,,
QLD,151.251574,Gladstone,,State School - Administration Building,,Government School,FALSE,,,-23.859307,Gladstone West,FALSE,FALSE,"Cnr Boles & Breslin Streets, GLADSTONE WEST, 4680",,,,,,,
QLD,152.757049,Ipswich West,,St Joseph's School,,Private School,FALSE,,,-27.591227,Pine Mountain Road,FALSE,FALSE,"42 Pine Mountain Road, NORTH IPSWICH, 4305",,,,,,,
QLD,151.565414,Southern Downs,,State School - Recreation Reserve,,Government School,FALSE,,,-28.203576,Karara,FALSE,FALSE,"Karara School Road, KARARA, 4373",,,,,,,
QLD,153.236748,Redlands,,State School,,Government School,FALSE,,,-27.621693,Mount Cotton,FALSE,FALSE,"Sanctuary Drive, MOUNT COTTON, 4165",,,,,,,
QLD,139.911088,Mount Isa,,State School,,Government School,FALSE,,,-22.908228,Boulia,FALSE,FALSE,"Templeton Street, BOULIA, 4829",,,,,,,
QLD,152.968099,Inala,,State School,,Government School,FALSE,,,-27.597845,Richlands East,FALSE,FALSE,"Barwing Street, INALA, 4077",,,,,,,
QLD,146.000919,Hinchinbrook,,State School,,Government School,FALSE,,,-17.995468,Lower Tully,FALSE,FALSE,"Tully Heads Road, LOWER TULLY, 4854",,,,,,,
QLD,152.971728,"Indooroopilly, Moggill",,Uniting Church Hall,,Church,TRUE,"{""coffee"":true,""vego_sausages"":false,""halal"":false,""bacon_egg"":false,""other"":""""}",@sausagesizzles,-27.501767,Indooroopilly,FALSE,TRUE,"Cnr Station and Musgrave Roads, INDOOROOPILLY, 4068",,,,,,,
QLD,152.160709,Burnett,,State School,,Government School,FALSE,,,-24.736152,Avondale,FALSE,FALSE,"Avondale Street, AVONDALE, 4670",,,,,,,
QLD,153.213055,"Capalaba, Cleveland",,State School,,Government School,FALSE,,,-27.505866,Birkdale South,FALSE,FALSE,"451 Old Cleveland Road East, BIRKDALE, 4159",,,,,,,
QLD,152.397398,"Bundaberg, Burnett",,State School,,Government School,FALSE,,,-24.846334,Kalkie,FALSE,FALSE,"Bargara Road, KALKIE, 4670",,,,,,,
QLD,151.955187,Southern Downs,,State School,,Government School,FALSE,,,-28.579453,The Summit,FALSE,FALSE,"Taggart's Road, THE SUMMIT, 4377",,,,,,,
QLD,152.973998,Beaudesert,,State School,,Government School,FALSE,,,-27.893334,Woodhill,FALSE,FALSE,"Mt Lindesay Highway, WOODHILL, 4285",,,,,,,
QLD,150.739449,Southern Downs,,State School,,Government School,FALSE,,,-28.079998,Kindon,FALSE,FALSE,"14034 Gore Highway, KINDON, 4390",,,,,,,
QLD,152.721801,Maryborough,,Kindergarten,,Kindergarten,FALSE,,,-25.544171,Granville,FALSE,FALSE,"162-164 Cambridge Street, GRANVILLE, 4650",,,,,,,
QLD,153.058351,"Buderim, Maroochydore",,State School,,Government School,FALSE,,,-26.659222,Kuluin,FALSE,FALSE,"41-67 Tallow Wood Drive, KULUIN, 4558",,,,,,,
QLD,152.957413,Logan,,State Community College,,Government School,FALSE,,,-27.807816,Flagstone,FALSE,FALSE,"cnr Homestead & Poinciana Drive, FLAGSTONE, 4280",,,,,,,
QLD,149.961544,Callide,,State School,,Government School,FALSE,,,-26.118804,Wandoan,FALSE,FALSE,"North Street, WANDOAN, 4419",,,,,,,
QLD,149.282,Mirani,,Llewellyn Hall,,Hall,FALSE,,,-21.448,Armstrong Beach,FALSE,FALSE,"Armstrong Beach Road, ARMSTRONG BEACH, 4737",,,,,,,
QLD,150.503684,Rockhampton,,State School,,Government School,FALSE,"{""coffee"":false,""vego_sausages"":false,""halal"":false,""bacon_egg"":false,""other"":""""}",@HelenQCL,-23.391609,Allenstown,TRUE,FALSE,"Upper Dawson Road, ALLENSTOWN, 4700",,,,,,,
QLD,152.354123,Lockyer,,State School,,Government School,FALSE,,,-27.590467,Forest Hill,FALSE,FALSE,"11 Church Street, FOREST HILL, 4342",,,,,,,
QLD,150.39073,Mirani,,School Of Arts,,Other,FALSE,,,-23.620522,Baree,FALSE,FALSE,"18 Creek Street, BAREE, 4714",,,,,,,
QLD,153.002885,Indooroopilly,,Special School,,Government School,FALSE,,,-27.527306,Tennyson,FALSE,FALSE,"38 Lofter Street, TENNYSON, 4105",,,,,,,
QLD,152.957072,Glass House,,School of Arts Hall,,Hall,FALSE,,,-26.959229,Beerburrum,FALSE,FALSE,"7 Anzac Avenue, BEERBURRUM, 4517",,,,,,,
QLD,153.023865,Yeerongpilly,,Moorooka State School,,Government School,TRUE,"{""coffee"":false,""vego_sausages"":false,""halal"":false,""bacon_egg"":false,""other"":""""}",http://www.couriermail.com.au/questnews/east/schools-in-a-rush-to-organise-food-stalls-in-time-for-election-day-on-january-31/story-fni9r0lo-1227200790821,-27.536901,Moorooka,FALSE,FALSE,"274 Beaudesert Road, MOOROOKA, 4105",,,,,,,
QLD,153.37222,"Southport, Surfers Paradise",,Trinity Primary School Hall,,Private School,TRUE,"{""coffee"":false,""vego_sausages"":false,""halal"":false,""bacon_egg"":false,""other"":""""}",http://www.tlc.qld.edu.au/output/parent-portal,-27.98353,Ashmore West,FALSE,FALSE,"251 Cotlew Street, ASHMORE, 4214",,,,,,,
QLD,153.037606,"Aspley, Nudgee",,State School,,Government School,FALSE,,,-27.364619,Zillmere,FALSE,FALSE,"Murphy Road, ZILLMERE, 4034",,,,,,,
QLD,153.365056,Coomera,,Community Centre,,Hall,FALSE,,,-27.779831,Jacobs Well,FALSE,FALSE,"27 Bay Street, JACOBS WELL, 4208",,,,,,,
QLD,152.824735,Gympie,,State School,,Government School,FALSE,,,-26.340636,Cooran,FALSE,FALSE,"31 James Street, COORAN, 4569",,,,,,,
QLD,145.732426,Barron River,,Community Centre,,Other,FALSE,,,-16.875707,Stratford,FALSE,FALSE,"15 Kamerunga Road, STRATFORD, 4870",,,,,,,
QLD,152.888017,Maryborough,,Coast Guard Base Station,,Other,FALSE,,,-25.672667,Boonooroo,FALSE,FALSE,"126 Eckert Road, BOONOOROO, 4650",,,,,,,
QLD,146.578367,Townsville,,Bwgcolman Community School,,Government School,FALSE,,,-18.736685,Palm Island,FALSE,FALSE,"Creek Road, PALM ISLAND, 4816",,,,,,,
QLD,153.091709,Chatsworth,,Carina And Districts Senior Citizens Centre,,Other,FALSE,,,-27.493004,Carina Central,FALSE,FALSE,"1 Edmond Street, CARINA, 4152",,,,,,,
QLD,152.975349,Mount Ommaney,,Senior Citizens' Hall,,Hall,FALSE,,,-27.555098,Oxley,FALSE,FALSE,"86 Oxley Station Road, OXLEY, 4075",,,,,,,
QLD,146.775557,Townsville,,State School,,Government School,FALSE,,,-19.262158,Garbutt,FALSE,FALSE,"76 Chandler Street, GARBUTT, 4814",,,,,,,
QLD,150.488137,Rockhampton,,State School,,Government School,FALSE,,,-23.383229,Crescent Lagoon,FALSE,FALSE,"6 North Street Extension, WEST ROCKHAMPTON, 4700",,,,,,,
QLD,151.633978,Condamine,,Technology Centre,,Other,FALSE,,,-27.718624,Pittsworth,FALSE,FALSE,"Hume Street, PITTSWORTH, 4356",,,,,,,
QLD,147.416064,Burdekin,,State School,,Government School,FALSE,,,-19.563532,East Ayr,FALSE,FALSE,"43 Ross Street, AYR, 4807",,,,,,,
QLD,153.068957,Pumicestone,,Community Hall,,Other,FALSE,,,-27.004036,Donnybrook,FALSE,FALSE,"Cnr Alice& Ediths Streets, DONNYBROOK, 4510",,,,,,,
QLD,153.061738,Sandgate,,Freemasons' Home Activities Room,,Other,FALSE,,,-27.311083,Nashville Central,FALSE,FALSE,"Wakefield Street, SANDGATE, 4017",,,,,,,
QLD,153.339376,Gaven,,GCCC Bicentennial Hall Auditorium,,Hall,FALSE,,,-27.984088,Bicentennial Hall,FALSE,FALSE,"Nerang-Southport Road, NERANG, 4211",,,,,,,
QLD,153.025378,Sunnybank,,Aboriginal & Islander Ind School,,Private School,FALSE,,,-27.5816,Acacia Ridge,FALSE,FALSE,"1277 Beaudesert Road, ACACIA RIDGE, 4110",,,,,,,
QLD,150.26296,Callide,,School of Arts Hall,,Hall,FALSE,,,-23.847318,Dululu,FALSE,FALSE,"Bryant Street, DULULU, 4702",,,,,,,
QLD,152.938399,Moggill,,State School,,Government School,FALSE,,,-27.509223,Kenmore,FALSE,FALSE,"2052 Moggill Road, KENMORE, 4069",,,,,,,
QLD,152.42732,Lockyer,,State School,,Government School,FALSE,,,-27.479263,Kentville,FALSE,FALSE,"Turpin Road, KENTVILLE, 4341",,,,,,,
QLD,151.841184,Southern Downs,,State School,,Government School,TRUE,"{""coffee"":false,""vego_sausages"":false,""halal"":false,""bacon_egg"":false,""other"":""""}",http://www.tenfm.org.au/community,-28.799122,Ballandean,FALSE,TRUE,"7 Bents Road, BALLANDEAN, 4382",,,,,,,
QLD,139.353483,Mount Isa,,Shire Hall,,Hall,FALSE,,,-25.898221,Birdsville,FALSE,FALSE,"Adelaide Street, BIRDSVILLE, 4482",,,,,,,
QLD,151.432071,Condamine,,State School,,Government School,FALSE,,,-27.058299,Kaimkillenbun,FALSE,FALSE,"Messenger Street, KAIMKILLENBUN, 4406",,,,,,,
QLD,152.98898,Pine Rivers,,Pine Rivers State High School (Community Hall),,Government School,TRUE,"{""coffee"":false,""vego_sausages"":false,""halal"":false,""bacon_egg"":false,""other"":""""}",@sausagesizzles,-27.296399,Strathpine,FALSE,TRUE,"Ash Court, STRATHPINE, 4500",,,,,,,
QLD,152.66733,Gympie,,Senior Citizens Centre,,Other,FALSE,,,-26.187825,Gympie City,FALSE,FALSE,"Mellor Street, GYMPIE, 4570",,,,,,,
QLD,145.714471,Barron River,,Community Hall,,Hall,FALSE,,,-16.897761,Brinsmead,FALSE,FALSE,"85 Loridan Drive, BRINSMEAD, 4870",,,,,,,
QLD,153.230036,Cleveland,,State High School - I Block,,Government School,FALSE,,,-27.490427,Wellington Point High,FALSE,FALSE,"Anson Road, WELLINGTON POINT, 4160",,,,,,,
QLD,153.477786,Currumbin,,State School,,Government School,FALSE,,,-28.138477,Currumbin,FALSE,FALSE,"Phillip Street, CURRUMBIN, 4223",,,,,,,
QLD,153.014205,Caloundra,,State School,,Government School,FALSE,,,-26.76589,Glenview,FALSE,FALSE,"6 Leeding Road, GLENVIEW, 4551",,,,,,,
QLD,146.777322,Mundingburra,,Townsville Community Learning Centre,,Other,FALSE,"{""coffee"":false,""vego_sausages"":false,""halal"":false,""bacon_egg"":false,""other"":""""}",Twitter,-19.303489,Mundingburra South,TRUE,FALSE,"78 Thompson Street, MUNDINGBURRA, 4812",,,,,,,
QLD,152.644343,"Ipswich West, Nanango",,State School,,Government School,FALSE,"{""coffee"":false,""vego_sausages"":false,""halal"":false,""bacon_egg"":false,""other"":""""}",Twitter,-27.447581,Fernvale,TRUE,FALSE,"Brisbane Valley Highway, FERNVALE, 4306",,,,,,,
QLD,150.55221,Keppel,,QCWA Hall,,Hall,FALSE,,,-23.366802,Rockonia Road,FALSE,FALSE,"Peltophorum Street, KOONGAL, 4701",,,,,,,
QLD,153.082784,"Chatsworth, Greenslopes",,State College,,Government School,TRUE,"{""coffee"":true,""vego_sausages"":true,""halal"":false,""bacon_egg"":false,""other"":""""}",@carindale_local,-27.500235,Whites Hill,FALSE,TRUE,"Burn Street, CAMP HILL, 4152","Steak burgers, mushroom burgers, vegan and gluten free friendly options.",,,,,,
QLD,153.003794,Aspley,,Anglican Church Hall,,Church,FALSE,"{""coffee"":false,""vego_sausages"":false,""halal"":false,""bacon_egg"":false,""other"":""""}",Twitter,-27.352312,Bridgeman Downs,FALSE,FALSE,"30 Ridley Road, BRIDGEMAN DOWNS, 4035",,,,,,,
QLD,153.056744,"Stretton, Sunnybank",,State School,,Government School,TRUE,"{""coffee"":false,""vego_sausages"":false,""halal"":false,""bacon_egg"":false,""other"":""""}",http://www.couriermail.com.au/questnews/east/schools-in-a-rush-to-organise-food-stalls-in-time-for-election-day-on-january-31/story-fni9r0lo-1227200790821,-27.594575,Sunnybank Hills,FALSE,FALSE,"77 Symons Road, SUNNYBANK HILLS, 4109",,,,,,,
QLD,145.73199,Mulgrave,,St Therese's School,,Private School,TRUE,"{""coffee"":false,""vego_sausages"":false,""halal"":false,""bacon_egg"":false,""other"":""""}",http://www.stthereses.qld.edu.au/,-17.006986,Edmonton,FALSE,TRUE,"135 Robert Road, BENTLEY PARK, 4868",,,,,,,
QLD,153.080449,Maroochydore,,State School,,Government School,FALSE,,,-26.612932,Pacific Paradise,FALSE,FALSE,"14-24 Menzies Drive, PACIFIC PARADISE, 4564",,,,,,,
QLD,151.889403,Nanango,,State School,,Government School,FALSE,,,-27.223737,Haden,FALSE,FALSE,"1520 Haden-Crows Nest Road, HADEN, 4352",,,,,,,
QLD,153.024444,"Aspley, Nudgee",,State School,,Government School,TRUE,"{""coffee"":false,""vego_sausages"":false,""halal"":false,""bacon_egg"":false,""other"":""Haloumi""}",http://www.aspleastss.eq.edu.au/newsletters/Election%20day%20stall%20Jan%202015.pdf,-27.363333,Aspley East,FALSE,TRUE,"Clorane Street, ASPLEY, 4034",,,,,,,
QLD,153.339239,Gaven,,Police Youth Club,,Other,TRUE,"{""coffee"":false,""vego_sausages"":false,""halal"":false,""bacon_egg"":false,""other"":""""}",@sausagesizzles,-28.004253,Nerang PYC,FALSE,TRUE,"Cayuga Road, NERANG, 4211",,,,,,,
QLD,151.818346,Nanango,,Rural Fire Brigade,,Other,FALSE,,,-26.743086,Brooklands,FALSE,FALSE,"Lord Street, , BROOKLANDS, 4615",,,,,,,
QLD,146.734386,"Mundingburra, Thuringowa",,State School,,Government School,FALSE,,,-19.315997,Weir,FALSE,FALSE,"Ross River Road, KIRWAN, 4817",,,,,,,
QLD,145.745266,Barron River,,State School,,Government School,FALSE,,,-16.85263,Machans Beach,FALSE,FALSE,"61 Machan Street, MACHANS BEACH, 4878",,,,,,,
QLD,153.135488,"Caloundra, Kawana",,State School,,Government School,TRUE,"{""coffee"":false,""vego_sausages"":false,""halal"":false,""bacon_egg"":false,""other"":""""}",@sausagesizzles,-26.776821,Currimundi,FALSE,TRUE,"17 Buderim Street, CURRIMUNDI, 4551",,,,,,,
QLD,153.261797,"Cleveland, Redlands",,State School,,Government School,TRUE,"{""coffee"":false,""vego_sausages"":false,""halal"":false,""bacon_egg"":false,""other"":""""}",@sausagesizzles,-27.562332,Bay View Thornlands,FALSE,FALSE,"77 Ziegenfusz Road, THORNLANDS, 4164",,,,,,,
QLD,150.78617,Keppel,,State School,,Government School,FALSE,,,-23.327591,Keppel Sands,FALSE,FALSE,"1325 Keppel Sands Road, KEPPEL SANDS, 4702",,,,,,,
QLD,148.242162,Burdekin,,AHW Cunningham Memorial Home,,Other,FALSE,,,-19.99302,Cunningham,FALSE,FALSE,"Tollington Road, QUEENS BEACH, 4805",,,,,,,
QLD,152.033143,Southern Downs,,Town Hall,,Hall,FALSE,,,-28.215078,Warwick,FALSE,FALSE,"Palmerin Street, WARWICK, 4370",,,,,,,
QLD,152.293961,"Bundaberg, Burnett",,State School,,Government School,FALSE,,,-24.892631,Branyan,FALSE,FALSE,"Branyan Drive, BUNDABERG, 4670",,,,,,,
QLD,153.079099,Gympie,,State School,,Government School,FALSE,,,-25.907209,Rainbow Beach,FALSE,FALSE,"1 Warooga Road, RAINBOW BEACH, 4581",,,,,,,
QLD,151.561407,Burnett,,State School,,Government School,FALSE,,,-24.330264,Miriam Vale,FALSE,FALSE,"15 Roe Street, MIRIAM VALE, 4677",,,,,,,
QLD,152.769177,Ipswich,,Central State School,,Government School,FALSE,,,-27.62163,Griffith Road,FALSE,FALSE,"2A Griffith Road, IPSWICH, 4305",,,,,,,
QLD,152.33605,Lockyer,,UQ Gatton Campus - Morrison Hall (Ground Level),,Other,FALSE,,,-27.554613,Lawes,FALSE,FALSE,"Warrego Highway, LAWES, 4343",,,,,,,
QLD,153.088338,"Maroochydore, Noosa",,Uniting Church,,Church,FALSE,"{""coffee"":false,""vego_sausages"":false,""halal"":false,""bacon_egg"":false,""other"":""""}",Twitter,-26.528581,Coolum Beach North,FALSE,FALSE,"22-26 Elizabeth Street, COOLUM BEACH, 4573",,,,,,,
QLD,140.840757,Mount Isa,,State School,,Government School,FALSE,,,-17.482889,Karumba,FALSE,FALSE,"5 Yappar Street, KARUMBA, 4891",,,,,,,
QLD,152.826855,Glass House,,Old Witta School Community Centre,,Other,FALSE,,,-26.708599,Witta,FALSE,FALSE,"316 Witta Road, WITTA, 4552",,,,,,,
QLD,152.75141,Ipswich,,State School,,Government School,FALSE,,,-27.620294,West Ipswich,FALSE,FALSE,"Kennedy Street, WEST IPSWICH, 4305",,,,,,,
QLD,152.979954,Indooroopilly,,Anglican Church Hall,,Church,FALSE,"{""coffee"":false,""vego_sausages"":false,""halal"":false,""bacon_egg"":false,""other"":""""}",http://anglicanipilly.org.au/weekly-news/,-27.503459,Indooroopilly East,FALSE,TRUE,"Cnr Lambert Road & Fairley Street, INDOOROOPILLY, 4068","Raffle stall, book stall",,,,,,
QLD,143.03887,Mount Isa,,Court House,,Courthouse,FALSE,,,-22.388333,Winton,FALSE,FALSE,"57 Vindex Street, WINTON, 4735",,,,,,,
QLD,153.067788,Clayfield,,St Johns Anglican Church Hall,,Church,TRUE,"{""coffee"":false,""vego_sausages"":false,""halal"":false,""bacon_egg"":false,""other"":""""}",@sausagesizzles,-27.421969,Hendra,FALSE,TRUE,"12 Burilda Street, HENDRA, 4011","Children's corner, white elephant stall, plant stall.",,,,,,
QLD,153.101059,Noosa,,Sunshine Beach State School,,Government School,FALSE,,,-26.403008,Noosa Junction,FALSE,FALSE,"Bicentennial Drive, , SUNSHINE BEACH, 4567",,,,,,,
QLD,152.750033,"Ipswich, Ipswich West, Lockyer",,Amberley District State School,,Government School,FALSE,,,-27.657408,Yamanto,FALSE,FALSE,"37 Deebing Creek Road, YAMANTO, 4305",,,,,,,
QLD,152.465279,"Ipswich West, Lockyer",,State School,,Government School,FALSE,,,-27.666121,Grandchester,FALSE,FALSE,"School Road, GRANDCHESTER, 4340",,,,,,,
QLD,152.777145,Ipswich West,,State School,,Government School,TRUE,"{""coffee"":false,""vego_sausages"":false,""halal"":false,""bacon_egg"":true,""other"":""""}",@sausagesizzles,-27.583355,Tivoli,FALSE,FALSE,"108 Mt Crosby Road, TIVOLI, 4305",,,,,,,
QLD,153.442893,Burleigh,,Church of Christ,,Church,FALSE,"{""coffee"":false,""vego_sausages"":false,""halal"":false,""bacon_egg"":false,""other"":""""}",Twitter,-28.100175,West Burleigh,FALSE,FALSE,"174 West Burleigh Road, WEST BURLEIGH, 4219",,,,,,,
QLD,152.779393,Gympie,,Hall,,Hall,FALSE,,,-26.077002,Goomboorian,FALSE,FALSE,"Tin Can Bay Road, GOOMBOORIAN, 4570",,,,,,,
QLD,151.938478,Callide,,Murgon PCYC Hall,,Other,FALSE,,,-26.246575,Murgon,FALSE,FALSE,"40 Macalister Street, MURGON, 4605",,,,,,,
QLD,152.68602,Gympie,,State School,,Government School,FALSE,,,-26.213171,Monkland,FALSE,FALSE,"220 Brisbane Road, GYMPIE, 4570",,,,,,,
QLD,152.943479,"Morayfield, Pumicestone",,Caboolture Special School,,Government School,FALSE,,,-27.09675,Torrens Road,FALSE,FALSE,"50 - 80 Torrens Road, CABOOLTURE SOUTH, 4506",,,,,,,
QLD,152.04664,Callide,,Bowls Club,,Other,FALSE,,,-26.03441,Tansey,FALSE,FALSE,"28 Tansey Hall Road, TANSEY, 4601",,,,,,,
QLD,152.060834,Callide,,State School,,Government School,FALSE,,,-24.949964,Bullyard,FALSE,FALSE,"2359 Bucca Road, BULLYARD, 4671",,,,,,,
QLD,153.062037,Greenslopes,,State School,,Government School,FALSE,,,-27.51323,Holland Park,FALSE,FALSE,"59 Abbotsleigh Street, HOLLAND PARK, 4121",,,,,,,
QLD,144.250681,Gregory,,Civic Centre,,Other,FALSE,,,-23.441042,Longreach,FALSE,FALSE,"96a Eagle Street, LONGREACH, 4730",,,,,,,
QLD,153.059812,Greenslopes,,Coorparoo Baptist Church,,Church,FALSE,"{""coffee"":false,""vego_sausages"":false,""halal"":false,""bacon_egg"":false,""other"":""""}",Twitter,-27.486904,Temple Street,FALSE,FALSE,"Cnr Armuna & Temple Streets, COORPAROO, 4151",,,,,,,
QLD,153.018678,"Algester, Logan",,State School,,Government School,TRUE,"{""coffee"":false,""vego_sausages"":false,""halal"":false,""bacon_egg"":false,""other"":""""}",@ClaudieGeary,-27.683804,Boronia Heights,FALSE,FALSE,"176 Middle Road, BORONIA HEIGHTS, 4124",,,,,,,
QLD,148.931254,Whitsunday,,Hampden State School,,Government School,FALSE,,,-21.059882,Kuttabul,FALSE,FALSE,"2880 Bruce Highway, KUTTABUL, 4741",,,,,,,
QLD,153.044543,South Brisbane,,St Pauls Anglican Church Hall,,Church,TRUE,"{""coffee"":false,""vego_sausages"":false,""halal"":false,""bacon_egg"":false,""other"":""""}",@sausagesizzles,-27.485526,Vulture Street,FALSE,TRUE,"554 Vulture Street, EAST BRISBANE, 4169",,,,,,,
QLD,145.690062,Barron River,,State School,,Government School,FALSE,,,-16.79464,Trinity Beach,FALSE,FALSE,"Wewak Street, TRINITY BEACH, 4879",,,,,,,
QLD,152.546003,Ipswich West,,State School,,Government School,FALSE,,,-27.487168,Tarampa,FALSE,FALSE,"Manthey Road, TARAMPA, 4311",,,,,,,
QLD,148.088182,Gregory,,State School,,Government School,FALSE,,,-24.11547,Springsure,FALSE,FALSE,"55 Eclipse Street, SPRINGSURE, 4722",,,,,,,
QLD,153.402663,"Broadwater, Southport",,State High School Assembly Hall,,Government School,FALSE,,,-27.962476,Southport North,FALSE,FALSE,"Brooke Avenue, SOUTHPORT, 4215",,,,,,,
QLD,153.007858,"Kallangur, Murrumba",,Undurba State School,,Government School,FALSE,,,-27.262031,Murrumba Downs,FALSE,FALSE,"49 Ogg Road, MURRUMBA DOWNS, 4503",,,,,,,
QLD,145.250661,Cook,,PCYC Cooktown Events Centre,,Other,TRUE,"{""coffee"":false,""vego_sausages"":false,""halal"":false,""bacon_egg"":false,""other"":""""}",@sausagesizzles,-15.481231,Cooktown,FALSE,FALSE,"3 May Street, COOKTOWN, 4895",,,,,,,
QLD,153.427463,Surfers Paradise,,RSL Building,,Other,FALSE,"{""coffee"":false,""vego_sausages"":false,""halal"":false,""bacon_egg"":false,""other"":""""}",@EvanD,-28.002529,Surfers Paradise,TRUE,FALSE,"Shop 20, 9 Beach Road, SURFERS PARADISE, 4217",,,,,,,
QLD,145.744115,"Cairns, Mulgrave",,State School,,Government School,FALSE,,,-16.986927,White Rock,FALSE,FALSE,"114 Progress Road, WHITE ROCK, 4868",,,,,,,
QLD,152.860014,Beaudesert,,State School,,Government School,FALSE,,,-28.215848,Rathdowney,FALSE,FALSE,"141-155 Mt Lindesay Highway, RATHDOWNEY, 4287",,,,,,,
QLD,153.201468,Capalaba,,Uniting Church Hall,,Church,TRUE,"{""coffee"":false,""vego_sausages"":false,""halal"":false,""bacon_egg"":false,""other"":""""}",@sausagesizzles,-27.480346,Thorneside,FALSE,TRUE,"12 John Street, THORNESIDE, 4158","Accessible booth, plant stall",,,,,,
QLD,151.819323,Callide,,State School,,Government School,FALSE,,,-26.363073,Tingoora,FALSE,FALSE,"Main Street, TINGOORA, 4608",,,,,,,
QLD,153.0468,Yeerongpilly,,State School,,Government School,TRUE,"{""coffee"":false,""vego_sausages"":false,""halal"":false,""bacon_egg"":false,""other"":""""}",@terrimbutler,-27.5258,Wellers Hill,FALSE,FALSE,"190 Toohey Road, WELLERS HILL, 4121",,,,,,,
QLD,152.933764,Inala,,State School,,Government School,TRUE,"{""coffee"":false,""vego_sausages"":false,""halal"":false,""bacon_egg"":false,""other"":""""}",@azninsect,-27.607325,Carole Park,FALSE,FALSE,"260 Waterford Road, CAROLE PARK, 4300",,,,,,,
QLD,150.734117,Keppel,,State High School - Evacuation Centre,,Government School,FALSE,,,-23.134761,Yeppoon,FALSE,FALSE,"Rawling Street, YEPPOON, 4703",,,,,,,
QLD,149.142989,Mirani,,CQU Building 19/G.08 and B19 Foyer,,Other,FALSE,,,-21.173798,Planlands,FALSE,FALSE,"Off Boundary Road, OORALEA, 4740",,,,,,,
QLD,146.826296,Burdekin,,Guppy's Early Childcare Centre,,Kindergarten,FALSE,"{""coffee"":false,""vego_sausages"":false,""halal"":false,""bacon_egg"":false,""other"":""""}",Twitter,-19.333577,Stuart,FALSE,FALSE,"353 Stuart Drive, STUART, 4811",,,,,,,
QLD,152.950147,"Glass House, Morayfield, Pumicestone",,Memorial Hall,,Hall,FALSE,,,-27.084411,Caboolture,FALSE,FALSE,"65 King Street, CABOOLTURE, 4510",,,,,,,
QLD,150.518087,Rockhampton,,Pre-School Centre,,Kindergarten,FALSE,"{""coffee"":false,""vego_sausages"":false,""halal"":false,""bacon_egg"":false,""other"":""""}",Twitter,-23.395892,Depot Hill,FALSE,FALSE,"O'Connell Street, DEPOT HILL, 4700",,,,,,,
QLD,139.49108,Mount Isa,,State School,,Government School,FALSE,,,-20.745168,Happy Valley,FALSE,FALSE,"25-31 Brilliant Street, MOUNT ISA, 4825",,,,,,,
QLD,151.323919,Gladstone,,State School,,Government School,FALSE,,,-24.003949,Benaraby,FALSE,FALSE,"17 O'Connor Road, BENARABY, 4680",,,,,,,
QLD,145.108807,Cook,,State School,,Government School,FALSE,,,-15.295832,Hopevale,FALSE,FALSE,"Cnr Thiele & Poland Streets, HOPEVALE, 4895",,,,,,,
QLD,150.471464,Mirani,,State School,,Government School,FALSE,,,-23.564135,Bouldercombe,FALSE,FALSE,"52599 Burnett Highway, BOULDERCOMBE, 4702",,,,,,,
QLD,152.969681,Kallangur,,State School,,Government School,TRUE,"{""coffee"":false,""vego_sausages"":false,""halal"":false,""bacon_egg"":false,""other"":""""}",@rayseewriter,-27.254861,Kurwongbah,FALSE,FALSE,"Eacham Street, PETRIE, 4502",,,,,,,
QLD,147.538164,Gregory,,Community Hall,,Hall,FALSE,,,-23.737665,Willows Gemfields,FALSE,FALSE,"Willows Road, WILLOWS GEMFIELDS, 4702",,,,,,,
QLD,153.342765,"Gaven, Mudgeeraba",,State School,,Government School,FALSE,,,-28.022562,Worongary,FALSE,FALSE,"Delta Cove Drive, WORONGARY, 4213",,,,,,,
QLD,153.030124,Murrumba,,State High School,,Government School,FALSE,,,-27.200946,Deception Bay South,FALSE,FALSE,"Government Street, DECEPTION BAY, 4508",,,,,,,
QLD,149.119706,Mirani,,BSES Conference Room,,Other,FALSE,,,-21.164703,Racecourse,FALSE,FALSE,"26135 Peak Downs Highway, TE KOWAI, 4740",,,,,,,
QLD,151.251424,"Condamine, Warrego",,Church of Christ Hall,,Church,FALSE,"{""coffee"":false,""vego_sausages"":false,""halal"":false,""bacon_egg"":false,""other"":""""}",Twitter,-27.184835,Dalby West,FALSE,FALSE,"Cnr Nicholson & Moreton Street, DALBY, 4405",,,,,,,
QLD,152.953247,Moggill,,Uniting Church Hall,,Church,TRUE,"{""coffee"":false,""vego_sausages"":false,""halal"":false,""bacon_egg"":false,""other"":""Cold drinks""}",http://www.chapelhilluc.org.au/calendar/,-27.507734,Chapel Hill South,FALSE,TRUE,"Cnr Moggill & Chapel Hill Roads, CHAPEL HILL, 4069","Trash and treasure, jams, chutneys, books, kids toys, games, jewellery, china, plants",,,,,,
QLD,151.906216,Condamine,,State School,,Government School,FALSE,,,-27.852393,Nobby,FALSE,FALSE,"7 Davenport Street, NOBBY, 4360",,,,,,,
QLD,149.148948,Mirani,,State School,,Government School,FALSE,,,-21.201682,Dundula,FALSE,FALSE,"1 Main Street, BAKERS CREEK, 4740",,,,,,,
QLD,153.029391,Yeerongpilly,,St Aidan's Hall,,Church,FALSE,"{""coffee"":false,""vego_sausages"":false,""halal"":false,""bacon_egg"":false,""other"":""""}",http://www.stlukesekibin.org.au/notices.htm,-27.523458,Clifton Hill,FALSE,TRUE,"15 Eric Crescent, ANNERLEY, 4103",Craft stall,,,,,,
QLD,152.279157,Burnett,,Moore Park Beach Community Hall,,Hall,FALSE,,,-24.718824,Moore Park,FALSE,FALSE,"1 Club Avenue, , MOORE PARK BEACH, 4670",,,,,,,
QLD,152.103578,Nanango,,State School,,Government School,FALSE,,,-26.890316,Blackbutt,FALSE,FALSE,"Crofton Street, BLACKBUTT, 4306",,,,,,,
QLD,149.183407,Mackay,,State School,,Government School,FALSE,,,-21.122108,Mackay North,FALSE,FALSE,"Cnr Evans Ave & Harvey Street, NORTH MACKAY, 4740",,,,,,,
QLD,145.742807,"Barron River, Cairns",,State School,,Government School,FALSE,"{""coffee"":false,""vego_sausages"":false,""halal"":false,""bacon_egg"":false,""other"":""""}",@ittykat,-16.906409,Edge Hill,TRUE,FALSE,"254 Pease Street, EDGE HILL, 4870",,,,,,,
QLD,152.314836,"Bundaberg, Burnett",,Church of Christ,,Church,TRUE,"{""coffee"":true,""vego_sausages"":false,""halal"":false,""bacon_egg"":false,""other"":""Icey poles""}",@sausagesizzles,-24.888591,Avoca,FALSE,TRUE,"76 Twyford Street, AVOCA, 4670",Craft stalls,,,,,,
QLD,152.794032,"Gympie, Nicklin",,State School,,Government School,FALSE,,,-26.393033,Federal,FALSE,FALSE,"40 Middle Creek Road, FEDERAL, 4568",,,,,,,
QLD,145.924664,Hinchinbrook,,Red Cross Centre,,Hospital,FALSE,,,-17.926282,Tully Red Cross Centre,FALSE,FALSE,"Bryant Street, TULLY, 4854",,,,,,,
QLD,146.030563,Hinchinbrook,,State School,,Government School,FALSE,,,-18.268661,Cardwell,FALSE,FALSE,"43 Victoria Street, CARDWELL, 4816",,,,,,,
QLD,152.976259,Ashgrove,,State School Hall,,Government School,TRUE,"{""coffee"":false,""vego_sausages"":false,""halal"":false,""bacon_egg"":false,""other"":""""}",@lifeasinzy,-27.448,Ashgrove West,FALSE,FALSE,"31 Glory Street, ASHGROVE, 4060",,,,,,,
QLD,153.011546,Yeerongpilly,,Rocklea State School,,Government School,FALSE,,,-27.546818,Rocklea,FALSE,FALSE,"19 Elmes Road, ROCKLEA, 4106",,,,,,,
QLD,145.955526,Hinchinbrook,,State School,,Government School,FALSE,,,-17.654491,Mena Creek,FALSE,FALSE,"Mena Creek Road, MENA CREEK, 4871",,,,,,,
QLD,153.129394,"Springwood, Woodridge",,State School,,Government School,FALSE,,,-27.607377,Springwood Road,FALSE,FALSE,"Springwood Road, SPRINGWOOD, 4127",,,,,,,
QLD,153.375455,Coomera,,Banksia Park Hall,,Hall,FALSE,"{""coffee"":false,""vego_sausages"":false,""halal"":false,""bacon_egg"":false,""other"":""""}",@DarrenCurtis9,-27.873869,Hope Island,TRUE,FALSE,"27 Crescent Avenue, HOPE ISLAND, 4212",,,,,,,
QLD,153.176907,Springwood,,State School,,Government School,FALSE,,,-27.647553,Kimberley Park,FALSE,FALSE,"Floret Street, SHAILER PARK, 4128",,,,,,,
QLD,151.585584,Condamine,,State School,,Government School,FALSE,,,-27.372958,Jondaryan,FALSE,FALSE,"Scott Road, JONDARYAN, 4403",,,,,,,
QLD,148.862375,Mirani,,State School,,Government School,FALSE,,,-21.161521,Mirani,FALSE,FALSE,"Maud Street, MIRANI, 4754",,,,,,,
QLD,145.995641,Mulgrave,,Progress Hall,,Hall,FALSE,,,-17.461716,Garradunga,FALSE,FALSE,"Garradunga Road, GARRADUNGA, 4860",,,,,,,
QLD,152.973842,Everton,,State School,,Government School,TRUE,"{""coffee"":false,""vego_sausages"":false,""halal"":false,""bacon_egg"":false,""other"":""""}",@sausagesizzles,-27.359801,Albany Hills,FALSE,TRUE,"Keong Road, ALBANY CREEK, 4035",,,,,,,
QLD,147.745355,Gregory,,State School,,Government School,FALSE,,,-23.554126,Anakie,FALSE,FALSE,"Cook Street, ANAKIE, 4702",,,,,,,
QLD,149.218784,Mirani,,Presbyterian Church Hall,,Church,FALSE,,,-21.415407,Sarina East,FALSE,FALSE,"23 Sarina Beach Road, SARINA, 4737",,,,,,,
QLD,153.446204,Burleigh,,RSL Hall,,Hall,FALSE,,,-28.076849,Burleigh North,FALSE,FALSE,"Sixth Avenue, BURLEIGH HEADS, 4220",,,,,,,
QLD,153.045557,Brisbane Central,,Holy Spirit Convent Hall,,Church,TRUE,"{""coffee"":true,""vego_sausages"":false,""halal"":false,""bacon_egg"":false,""other"":""""}",@sausagesizzles,-27.464774,New Farm,FALSE,TRUE,"36 Villiers Street, NEW FARM, 4005",,,,,,,
QLD,146.201785,Hinchinbrook,,State School,,Government School,FALSE,,,-18.647475,Victoria Estate,FALSE,FALSE,"244 Forrest Beach Road, VICTORIA ESTATE, 4850",,,,,,,
QLD,151.124631,Callide,,Court House,,Courthouse,TRUE,"{""coffee"":false,""vego_sausages"":false,""halal"":false,""bacon_egg"":false,""other"":""""}",Twitter,-24.864824,Monto,FALSE,TRUE,"53 Newton Street, MONTO, 4630",,,,,,,
QLD,152.8925,Glass House,,St Mary's Hall,,Hall,FALSE,,,-26.688056,Montville,FALSE,FALSE,"Memorial Close, MONTVILLE, 4560",,,,,,,
QLD,153.064455,Greenslopes,,Koala Lou Child Care,,Kindergarten,TRUE,"{""coffee"":false,""vego_sausages"":false,""halal"":false,""bacon_egg"":false,""other"":""""}",@sausagesizzles,-27.507977,South Coorparoo,FALSE,FALSE,"402 Cavendish Road, COORPAROO, 4151",,,,,,,
QLD,152.277069,Lockyer,,Gatton Shire Hall,,Hall,FALSE,,,-27.557324,Gatton,FALSE,FALSE,"52 North Street, GATTON, 4343",,,,,,,
QLD,151.838152,Nanango,,State School,,Government School,TRUE,"{""coffee"":false,""vego_sausages"":false,""halal"":false,""bacon_egg"":false,""other"":""""}",@sausagesizzles,-26.556113,Taabinga,FALSE,FALSE,"Railway Terrace, KINGAROY, 4610",,,,,,,
QLD,150.075737,Callide,,State School,,Government School,FALSE,,,-24.945606,Theodore,FALSE,FALSE,"The Boulevard, THEODORE, 4719",,,,,,,
QLD,153.264722,Coomera,,State High School,,Government School,FALSE,,,-27.771389,Ormeau Woods,FALSE,FALSE,"148 Goldmine Road, ORMEAU, 4208",,,,,,,
QLD,153.520208,Cleveland,,Community Hall,,Hall,FALSE,,,-27.426604,Point Lookout,FALSE,FALSE,"East Coast Road, POINT LOOKOUT, 4183",,,,,,,
QLD,153.204167,"Capalaba, Mansfield, Redlands",,State School,,Government School,FALSE,,,-27.547222,Coolnwynpin,FALSE,FALSE,"Callaghan Way, CAPALABA, 4157",,,,,,,
QLD,152.98264,"Indooroopilly, Mount Ommaney",,St Joseph's Community Centre,,Church,TRUE,"{""coffee"":false,""vego_sausages"":false,""halal"":false,""bacon_egg"":false,""other"":""""}",@sausagesizzles,-27.537697,Corinda,FALSE,TRUE,"28 Clewley Street, CORINDA, 4075",,,,,,,
QLD,153.030238,"Algester, Stretton",,State School,,Government School,FALSE,,,-27.61484,Algester,FALSE,FALSE,"Endiandra (access via Ridgewood Road) Street, ALGESTER, 4115",,,,,,,
QLD,153.069978,Stretton,,State School,,Government School,TRUE,"{""coffee"":false,""vego_sausages"":false,""halal"":false,""bacon_egg"":false,""other"":""""}",http://www.couriermail.com.au/questnews/east/schools-in-a-rush-to-organise-food-stalls-in-time-for-election-day-on-january-31/story-fni9r0lo-1227200790821,-27.605124,Runcorn Heights,FALSE,FALSE,"200 Nemies Road, RUNCORN HEIGHTS, 4113",,,,,,,
QLD,151.852813,Nanango,,State School,,Government School,FALSE,,,-27.302141,Goombungee,FALSE,FALSE,"52 Mocatta Street, GOOMBUNGEE, 4354",,,,,,,
QLD,153.12492,Clayfield,,Brisbane Athletic Football Club,,Other,FALSE,,,-27.416224,Pinkenba,FALSE,FALSE,"339 Main Myrtletown Road, PINKENBA, 4008",,,,,,,
QLD,152.951628,Nicklin,,Sunshine Coast PCYC,,Other,TRUE,"{""coffee"":false,""vego_sausages"":false,""halal"":false,""bacon_egg"":false,""other"":""""}",@TheKateWall,-26.63504,Burnside,FALSE,FALSE,"10 Youth Avenue, BURNSIDE, 4560",,,,,,,
QLD,153.092897,Chatsworth,,Salvation Army Hall,,Hall,FALSE,,,-27.505652,Carina Heights,FALSE,FALSE,"Cnr Gallipoli Road & Chataway Streets, CARINA HEIGHTS, 4152",,,,,,,
QLD,153.319042,Coomera,,State School,,Government School,FALSE,,,-27.744539,Woongoolba,FALSE,FALSE,"Stapylton-Jacobs Well Road, WOONGOOLBA, 4207",,,,,,,
QLD,143.827053,Warrego,,State School,,Government School,FALSE,,,-27.995472,Thargomindah,FALSE,FALSE,"1 Dowling Street, THARGOMINDAH, 4492",,,,,,,
QLD,153.073392,Bulimba,,State High School,,Government School,FALSE,,,-27.455835,Balmoral,FALSE,FALSE,"259 Thynne Road, MORNINGSIDE, 4170",,,,,,,
QLD,153.063597,Buderim,,Lakeshore Community Church of Christ,,Church,FALSE,"{""coffee"":false,""vego_sausages"":false,""halal"":false,""bacon_egg"":false,""other"":""""}",Twitter,-26.666564,Buderim North,FALSE,FALSE,"1 Lakeshore Avenue, BUDERIM, 4556",,,,,,,
QLD,152.858609,Glass House,,State High School,,Government School,FALSE,,,-26.76624,Maleny,FALSE,FALSE,"50 Bunya Street, MALENY, 4552",,,,,,,
QLD,153.104128,Caloundra,,Caloundra City School,,Private School,FALSE,,,-26.824372,Pelican Waters,FALSE,FALSE,"200 Pelican Waters Boulevard, PELICAN WATERS, 4551",,,,,,,
QLD,153.169899,Waterford,,State School,,Government School,FALSE,,,-27.705783,Edens Landing,FALSE,FALSE,"Jamie Nicolson Avenue, EDENS LANDING, 4207",,,,,,,
QLD,153.206003,"Albert, Waterford",,State School,,Government School,FALSE,,,-27.726838,Mt Warren Park,FALSE,FALSE,"125 Mt Warren Boulevard, MT WARREN PARK, 4207",,,,,,,
QLD,152.667255,Maryborough,,Community Hall,,Hall,FALSE,,,-25.260066,Toogoom,FALSE,FALSE,"108 Toogoom Road, TOOGOOM, 4655",,,,,,,
QLD,151.258207,Gladstone,,Central State School,,Government School,TRUE,"{""coffee"":false,""vego_sausages"":false,""halal"":false,""bacon_egg"":false,""other"":""""}",@sausagesizzles,-23.841663,Gladstone Central,FALSE,FALSE,"74 Auckland Street, GLADSTONE, 4680",,,,,,,
QLD,139.509984,Mount Isa,,State School,,Government School,FALSE,,,-20.709245,Sunset,FALSE,FALSE,"Abel Smith Parade, MOUNT ISA, 4825",,,,,,,
QLD,152.995219,Gympie,,State School,,Government School,FALSE,,,-25.92476,Tin Can Bay,FALSE,FALSE,"2 Snapper Creek Road, TIN CAN BAY, 4580",,,,,,,
QLD,152.065313,Callide,,State School,,Government School,FALSE,,,-26.179886,Goomeri,FALSE,FALSE,"5 Munro Street, GOOMERI, 4601",,,,,,,
QLD,152.807124,Moggill,,State School,,Government School,TRUE,"{""coffee"":false,""vego_sausages"":false,""halal"":false,""bacon_egg"":false,""other"":""""}",@sausagesizzles,-27.550849,Mount Crosby,FALSE,TRUE,"Mount Crosby Road, MOUNT CROSBY, 4306",,,,,,,
QLD,150.527691,Rockhampton,,St Stephen's Church Hall,,Church,FALSE,"{""coffee"":false,""vego_sausages"":false,""halal"":false,""bacon_egg"":false,""other"":""""}",Twitter,-23.364851,Burnett Street,FALSE,FALSE,"Burnett Street, BERSERKER, 4701",,,,,,,
QLD,151.836521,Nanango,,Uniting Church Hall,,Church,FALSE,"{""coffee"":false,""vego_sausages"":false,""halal"":false,""bacon_egg"":false,""other"":""""}",Twitter,-26.54033,Kingaroy,FALSE,FALSE,"Alford Street, KINGAROY, 4610",,,,,,,
QLD,153.091725,Pumicestone,,Community Hall,,Hall,FALSE,,,-27.027735,Toorbul,FALSE,FALSE,"158 Esplanade, TOORBUL, 4510",,,,,,,
QLD,152.93995,Nicklin,,Nambour Heights Bowls Club,,Other,FALSE,"{""coffee"":false,""vego_sausages"":false,""halal"":false,""bacon_egg"":false,""other"":""""}",@TheKateWall,-26.624225,Nambour West,TRUE,FALSE,"54 Isabella Avenue, NAMBOUR, 4560",,,,,,,
QLD,151.965804,"Toowoomba North, Toowoomba South",,State School,,Government School,FALSE,,,-27.56051,Toowoomba East,FALSE,FALSE,"Cnr Arthur & Mary Streets, TOOWOOMBA, 4350",,,,,,,
QLD,149.187539,Mackay,,State School,,Government School,FALSE,,,-21.085967,Andergrove,FALSE,FALSE,"Fernleigh Avenue, ANDERGROVE, 4740",,,,,,,
QLD,147.280526,Burdekin,,State School,,Government School,FALSE,,,-20.05837,Millaroo,FALSE,FALSE,"Cunningham Street, MILLAROO, 4807",,,,,,,
QLD,149.170518,"Mackay, Whitsunday",,State School,,Government School,FALSE,,,-21.093358,Beaconsfield,FALSE,FALSE,"1 Nadina Street, BEACONSFIELD, 4740",,,,,,,
QLD,153.008058,"Buderim, Glass House",,Sunshine Coast Grammar School,,Private School,FALSE,,,-26.684372,Forest Glen,FALSE,FALSE,"372 Mons Road, FOREST GLEN, 4556",,,,,,,
QLD,148.580732,Warrego,,State School Hall,,Government School,FALSE,,,-28.037753,St George,FALSE,FALSE,"20 - 40 Grey Street, ST GEORGE, 4487",,,,,,,
QLD,151.219125,Gladstone,,St Peters Anglican Church,,Church,FALSE,"{""coffee"":false,""vego_sausages"":false,""halal"":false,""bacon_egg"":false,""other"":""""}",Twitter,-23.879326,Seaview,FALSE,FALSE,"50 J Hickey Avenue, SEAVIEW HEIGHTS, 4680",,,,,,,
QLD,152.631866,Ipswich West,,State School,,Government School,FALSE,,,-27.515008,Glamorgan Vale,FALSE,FALSE,"Glamorgan Vale Road, GLAMORGAN VALE, 4306",,,,,,,
QLD,141.72919,Cook,,Aurukun Campus Western Cape College,,Government School,FALSE,,,-13.353817,Aurukun,FALSE,FALSE,"Wuungkam Street, AURUKUN, 4871",,,,,,,
QLD,139.494427,Mount Isa,,Hospital,,Hospital,FALSE,,,-20.73073,Mt Isa Hospital,FALSE,FALSE,"30 Camooweal Street, MOUNT ISA, 4825",,,,,,,
QLD,153.038274,Sandgate,,Uniting Church,,Church,TRUE,"{""coffee"":false,""vego_sausages"":false,""halal"":false,""bacon_egg"":false,""other"":""""}",http://www.couriermail.com.au/questnews/east/schools-in-a-rush-to-organise-food-stalls-in-time-for-election-day-on-january-31/story-fni9r0lo-1227200790821,-27.316655,Bracken Ridge Central,FALSE,TRUE,"Pellinore Road, BRACKEN RIDGE, 4017",,,,,,,
QLD,145.373903,Cook,,State School,,Government School,FALSE,,,-16.46218,Mossman,FALSE,FALSE,"30 - 34 Front Street, MOSSMAN, 4873",,,,,,,
QLD,151.970627,"Toowoomba North, Toowoomba South",,St Josephs College MacKillop Centre,,Private School,FALSE,,,-27.571801,St Josephs,FALSE,FALSE,"Coronet Street, TOOWOOMBA, 4350",,,,,,,
QLD,148.158517,Gregory,,Denison State School - Pre-School,,Kindergarten,FALSE,"{""coffee"":false,""vego_sausages"":false,""halal"":false,""bacon_egg"":false,""other"":""""}",Twitter,-23.53597,Emerald South,FALSE,FALSE,"16 Gray Street, EMERALD, 4720",,,,,,,
QLD,149.155625,"Mackay, Mirani",,,,Other,FALSE,,,-21.166355,Nebo Road,FALSE,FALSE,Shop 1317 Nebo RoadWEST MACKAY4740,,,,,,,
QLD,151.890439,Callide,,State School,,Government School,FALSE,,,-25.612245,Coalstoun Lakes,FALSE,FALSE,"3 Main Street, COALSTOUN LAKES, 4621",,,,,,,
QLD,153.003301,Algester,,State School,,Government School,FALSE,,,-27.615758,Pallara,FALSE,FALSE,"282 Ritchie Road, PALLARA, 4110",,,,,,,
QLD,152.850477,Hervey Bay,,State School,,Government School,FALSE,,,-25.298377,Kawungan,FALSE,FALSE,"Grevillea Street, KAWUNGAN, 4655",,,,,,,
QLD,145.42652,"Cook, Cook",,Returning Officer Cook Pre-Poll,,Other,FALSE,,,-16.990916,Mobile Team 4,FALSE,FALSE,"Remote Area Mobile Polling Team, 14 Sutherland Street, Mareeba, 4880",,,,,,,
QLD,150.386701,Mirani,,School of Arts Hall,,Hall,FALSE,,,-23.645045,Mt Morgan,FALSE,FALSE,"Morgan Street, MOUNT MORGAN, 4714",,,,,,,
QLD,142.654129,Gregory,,State School,,Government School,FALSE,,,-25.419604,Windorah,FALSE,FALSE,"8 Victoria Street, WINDORAH, 4481",,,,,,,
QLD,151.937724,Southern Downs,,St Paul's Anglican Hall,,Church,TRUE,"{""coffee"":false,""vego_sausages"":false,""halal"":false,""bacon_egg"":false,""other"":""""}",@scottemerson,-28.652691,Stanthorpe,FALSE,FALSE,"2 Corundum Street, STANTHORPE, 4380",,,,,,,
QLD,148.581151,Whitsunday,,Court House,,Courthouse,FALSE,,,-20.401327,Proserpine,FALSE,FALSE,"17 Main Street, PROSERPINE, 4800",,,,,,,
QLD,145.320744,Cook,,State School,,Government School,FALSE,,,-16.249795,Daintree,FALSE,FALSE,"Osborne Street, DAINTREE, 4873",,,,,,,
QLD,152.378654,Burnett,,Alloway State School,,Government School,FALSE,,,-24.952075,Elliott,FALSE,FALSE,"4334 Goodwood Road, ALLOWAY, 4670",,,,,,,
QLD,153.131304,Beaudesert,,Middle Park,,Other,TRUE,"{""coffee"":false,""vego_sausages"":false,""halal"":false,""bacon_egg"":false,""other"":""""}",@sausagesizzles,-27.880527,Tamborine,FALSE,FALSE,"2205 Beenleigh-Beaudesert Road, TAMBORINE, 4270",,,,,,,
QLD,146.799762,Townsville,,Corcoran Park Netball Association,,Other,FALSE,,,-19.286841,Rosslea,FALSE,FALSE,"111 Queens Road, HERMIT PARK, 4812",,,,,,,
QLD,151.979085,Nanango,,Booie Hall,,Hall,FALSE,,,-26.530639,Booie,FALSE,FALSE,"Booie Road, BOOIE, 4610",,,,,,,
QLD,153.058407,Greenslopes,,State School,,Government School,TRUE,"{""coffee"":false,""vego_sausages"":false,""halal"":false,""bacon_egg"":false,""other"":""""}",@Matt_Layton13,-27.525568,Marshall Road,FALSE,TRUE,"Kurts Street, HOLLAND PARK WEST, 4121",,,,,,,
QLD,152.869332,Bundamba,,State High School,,Government School,FALSE,,,-27.652388,Redbank Plains High,FALSE,FALSE,"Willow Road, REDBANK PLAINS, 4301",,,,,,,
QLD,152.864722,Glass House,,Community Hall,,Hall,FALSE,,,-27.040027,Wamuran,FALSE,FALSE,"D'Aguilar Highway, WAMURAN, 4512",,,,,,,
QLD,146.749905,"Mundingburra, Thuringowa, Townsville",,State School,,Government School,TRUE,"{""coffee"":false,""vego_sausages"":false,""halal"":false,""bacon_egg"":false,""other"":""""}",@sausagesizzles,-19.293726,Heatley,FALSE,TRUE,"Cnr Mill Drive & Fullham Road, HEATLEY, 4814",,,,,,,
QLD,153.12978,Springwood,,State School,,Government School,FALSE,,,-27.61861,Springwood Central,FALSE,FALSE,"Dennis Road, SPRINGWOOD, 4127",,,,,,,
QLD,145.425721,Cook,,State School,,Government School,FALSE,,,-16.998125,Mareeba,FALSE,FALSE,"Constance Street, MAREEBA, 4880",,,,,,,
QLD,149.217719,Mirani,,St Lukes Anglican Hall,,Church,FALSE,"{""coffee"":false,""vego_sausages"":false,""halal"":false,""bacon_egg"":false,""other"":""""}",Twitter,-21.421761,Sarina,TRUE,FALSE,"Broad Street, SARINA, 4737",Selling furniture?,,,,,,
QLD,151.270369,Condamine,,State School,,Government School,FALSE,,,-27.195731,Dalby South,FALSE,FALSE,"Cnr Bunya & Hogan Streets, DALBY, 4405",,,,,,,
QLD,151.298136,Callide,,CWA Hall,,Hall,FALSE,,,-25.590627,Mundubbera,FALSE,FALSE,"79 Lyons Street, MUNDUBBERA, 4626",,,,,,,
QLD,153.009814,Mount Coot-tha,,State School,,Government School,TRUE,"{""coffee"":false,""vego_sausages"":false,""halal"":false,""bacon_egg"":false,""other"":""""}",@JonathanLea10,-27.460222,Petrie Terrace,FALSE,FALSE,"40 Moreton Street, PADDINGTON, 4064",,,,,,,
QLD,149.974923,Callide,,Kianga Memorial Hall,,Hall,FALSE,,,-24.572358,Moura,FALSE,FALSE,"McArthur Street, MOURA, 4718",,,,,,,
QLD,153.036138,Beaudesert,,Emmaus College,,Private School,FALSE,,,-27.833589,Jimboomba Central,FALSE,FALSE,"48 East Street, JIMBOOMBA, 4280",,,,,,,
QLD,146.782204,Townsville,,Marian School,,Private School,FALSE,,,-19.276912,Currajong North,FALSE,FALSE,"Cnr Hugh & Corcoran Streets, CURRAJONG, 4812",,,,,,,
QLD,153.077526,"Bulimba, Chatsworth, Greenslopes",,School of Arts Hall,,Hall,FALSE,,,-27.49295,Camp Hill,FALSE,FALSE,"cnr Old Cleveland Rd and Wiles Street, CAMP HILL, 4152",,,,,,,
QLD,152.700952,Maryborough,,Guides Hall,,Hall,FALSE,,,-25.52863,North Street,FALSE,FALSE,"73 North Street, NEWTOWN, 4650",,,,,,,
QLD,141.744722,Cook,,State School Library,,Government School,FALSE,,,-15.471667,Kowanyama,FALSE,FALSE,"Kowanyama Street, KOWANYAMA, 4892",,,,,,,
QLD,152.844785,Hervey Bay,,Baycrest RSL Care,,Other,FALSE,,,-25.307306,Baycrest,FALSE,FALSE,"99 Doolong Road, Kawungan, 4655",,,,,,,
QLD,153.106499,Woodridge,,Woodridge North State School,,Government School,FALSE,,,-27.6264,Woodridge North,FALSE,FALSE,"Arthur Street, WOODRIDGE, 4114",,,,,,,
QLD,153.401994,"Broadwater, Southport",,State School,,Government School,FALSE,"{""coffee"":false,""vego_sausages"":false,""halal"":false,""bacon_egg"":false,""other"":""""}",http://www.goldcoastbulletin.com.au/rolling-coverage-locals-have-started-voting-at-the-citys-polling-booths-for-the-qld-election/story-fnj94hf2-1227203016628,-27.942504,Labrador,TRUE,FALSE,"Imperial Parade, LABRADOR, 4215",,,,,,,
QLD,150.306578,Southern Downs,,St Mary's Primary School,,Private School,FALSE,,,-28.54471,Goondiwindi,FALSE,FALSE,"Brisbane Street, GOONDIWINDI, 4390",,,,,,,
QLD,153.353849,Mudgeeraba,,State School,,Government School,FALSE,,,-28.074148,Mudgeeraba School,FALSE,FALSE,"Old Coach Road, MUDGEERABA, 4213",,,,,,,
QLD,151.884388,Southern Downs,,State School,,Government School,FALSE,,,-28.524652,Pozieres,FALSE,FALSE,"Pozieres School Road, POZIERES, 4352",,,,,,,
QLD,152.921137,"Bundamba, Inala",,Woodcrest College Auditorium,,Government School,FALSE,,,-27.659128,Springfield,FALSE,FALSE,"38 Nev Smith Drive, SPRINGFIELD, 4300",,,,,,,
QLD,150.134858,Warrego,,State School,,Government School,FALSE,,,-26.925141,Condamine,FALSE,FALSE,"Kennedy Street, CONDAMINE, 4416",,,,,,,
QLD,153.046392,Clayfield,,Presbyterian Church Hall,,Church,TRUE,"{""coffee"":false,""vego_sausages"":false,""halal"":false,""bacon_egg"":false,""other"":""""}",http://www.couriermail.com.au/questnews/east/schools-in-a-rush-to-organise-food-stalls-in-time-for-election-day-on-january-31/story-fni9r0lo-1227200790821,-27.392364,Wavell Heights East,FALSE,TRUE,"68 Spence Road, WAVELL HEIGHTS, 4012",,,,,,,
QLD,149.470236,Southern Downs,,State School,,Government School,FALSE,,,-28.487065,Talwood,FALSE,FALSE,"17 Recreation Street, TALWOOD, 4496",,,,,,,
QLD,152.887901,Bundamba,,St Augustine's College,,Private School,TRUE,"{""coffee"":false,""vego_sausages"":false,""halal"":false,""bacon_egg"":false,""other"":""""}",@gvandersee,-27.658676,Augustine Heights,FALSE,FALSE,"St Augustines Drive, AUGUSTINE HEIGHTS, 4300",,,,,,,
QLD,152.965778,Indooroopilly,,State School,,Government School,TRUE,"{""coffee"":false,""vego_sausages"":false,""halal"":false,""bacon_egg"":false,""other"":""""}",@sausagesizzles,-27.52648,Fig Tree Pocket,FALSE,FALSE,"Cubberla Street, FIG TREE POCKET, 4069",,,,,,,
QLD,153.055167,Sandgate,,Sandgate State High School Assembly Hall,,Government School,TRUE,"{""coffee"":false,""vego_sausages"":false,""halal"":false,""bacon_egg"":false,""other"":""Chocolate""}",@sausagesizzles,-27.330163,Deagon,FALSE,FALSE,"41 Braun Street, DEAGON, 4017",,,,,,,
QLD,153.311495,Mudgeeraba,,State School,,Government School,FALSE,,,-28.039595,Gilston,FALSE,FALSE,"588 Worongary Road, GILSTON, 4211",,,,,,,
QLD,148.249722,Burdekin,,PCYC,,Hall,FALSE,,,-20.008333,Bowen,FALSE,FALSE,"Cnr Hay Street and Queens Road, BOWEN, 4805",,,,,,,
QLD,152.990016,Murrumba,,Community Complex,,Other,FALSE,,,-27.15778,Burpengary East,FALSE,FALSE,"Cnr Old Bay & Maitland Roads, BURPENGARY, 4505",,,,,,,
QLD,153.438648,"Burleigh, Mermaid Beach",,Miami State High School,,Government School,FALSE,,,-28.062523,Miami East,FALSE,FALSE,"Gold Coast Highway, MIAMI EAST, 4220",,,,,,,
QLD,147.22641,Burdekin,,State School,,Government School,FALSE,,,-19.783463,Clare,FALSE,FALSE,"Larkin Street, CLAREDALE, 4807",,,,,,,
QLD,151.244026,Callide,,Durong Community Hall,,Hall,FALSE,,,-26.394897,Durong,FALSE,FALSE,"8940 Chinchilla Wondai Road, DURONG SOUTH, 4610",,,,,,,
QLD,153.152257,"Chatsworth, Lytton",,State School,,Government School,TRUE,"{""coffee"":false,""vego_sausages"":false,""halal"":false,""bacon_egg"":true,""other"":""Chicken kebabs""}",@sausagesizzles,-27.491617,Gumdale,FALSE,TRUE,"Access Via Tilley Road, GUMDALE, 4154",,,,,,,
QLD,150.320692,Mirani,,State School,,Government School,FALSE,,,-23.484844,Stanwell,FALSE,FALSE,"10 Teakle Street, STANWELL, 4702",,,,,,,
QLD,152.360856,Bundaberg,,State School,,Government School,FALSE,,,-24.870659,Bundaberg South,FALSE,FALSE,"Walla Street, BUNDABERG, 4670",,,,,,,
QLD,148.98705,Warrego,,Hospital,,Hospital,FALSE,,,-28.971207,Mungindi,FALSE,FALSE,"86-89 Barwon Street, MUNGINDI, 2406",,,,,,,
QLD,153.144283,Pumicestone,,Bribie Island Volunteer Marine Rescue,,Other,FALSE,,,-27.062992,Bellara,FALSE,FALSE,"4 Marine Parade, BELLARA, 4507",,,,,,,
QLD,152.967153,Morayfield,,State School,,Government School,TRUE,"{""coffee"":false,""vego_sausages"":false,""halal"":false,""bacon_egg"":false,""other"":""""}",Twitter,-27.11745,Morayfield East,FALSE,FALSE,"107 Graham Road, MORAYFIELD, 4506",,,,,,,
QLD,146.264241,Dalrymple,,Richmond Hill State School,,Government School,FALSE,,,-20.061888,Charters Towers North,FALSE,FALSE,"Baker Street, CHARTERS TOWERS, 4820",,,,,,,
QLD,145.386141,Dalrymple,,QCWA Hall,,Hall,FALSE,,,-17.382152,Herberton,FALSE,FALSE,"16 William Street, Herberton, 4887",,,,,,,
QLD,151.812279,Southern Downs,,State School,,Government School,FALSE,,,-28.594661,Amiens,FALSE,FALSE,"1337 Amiens Road, AMIENS, 4352",,,,,,,
QLD,151.02349,Warrego,,State School,,Government School,FALSE,,,-26.509204,Burra Burri,FALSE,FALSE,"3173 Burra Burri Creek Road, BURRA BURRI, 4410",,,,,,,
QLD,152.95909,"Kallangur, Morayfield, Murrumba",,State School,,Government School,TRUE,"{""coffee"":false,""vego_sausages"":false,""halal"":false,""bacon_egg"":false,""other"":""""}",Twitter,-27.158061,Burpengary,FALSE,FALSE,"35 Station Road, BURPENGARY, 4505",,,,,,,
QLD,146.285008,Hinchinbrook,,State School,,Government School,FALSE,,,-18.583888,Halifax,FALSE,FALSE,"17 Victoria Terrace, HALIFAX, 4850",,,,,,,
QLD,149.384324,Warrego,,Memorial Hall,,Hall,FALSE,,,-26.612141,Yuleba,FALSE,FALSE,"14 Garden Street, YULEBA, 4427",,,,,,,
QLD,153.128722,Kawana,,Hope Church,,Church,FALSE,"{""coffee"":false,""vego_sausages"":false,""halal"":false,""bacon_egg"":false,""other"":""""}",Twitter,-26.720711,Warana,FALSE,FALSE,"6 Kawana Island Boulevard, WARANA, 4575",,,,,,,
QLD,152.953611,"Inala, Mount Ommaney",,State School,,Government School,FALSE,,,-27.570833,Darra,FALSE,FALSE,"Scotts Road, DARRA, 4076",,,,,,,
QLD,152.700976,Maryborough,,St Pauls Memorial Hall,,Church,FALSE,,,-25.538919,Maryborough,FALSE,FALSE,"Cnr Adelaide & Ellena Streets, MARYBOROUGH, 4650",,,,,,,
QLD,153.103565,"Caloundra, Kawana",,Meridan State College - Senior Learning Precinct,,Government School,FALSE,,,-26.772226,Meridan Plains,FALSE,FALSE,"214 Parklands Boulevard, MERIDAN PLAINS, 4551",,,,,,,
QLD,151.718268,Nanango,,Farmers Hall,,Hall,FALSE,,,-26.594336,Inverlaw,FALSE,FALSE,"1136 Kingaroy-Burrandown Road, INVERLAW, 4610",,,,,,,
QLD,148.595281,Whitsunday,,State School,,Government School,FALSE,,,-20.702671,Bloomsbury,FALSE,FALSE,"8545 Bruce Highway, BLOOMSBURY, 4799",,,,,,,
QLD,152.964224,"Kallangur, Morayfield",,Baptist Church,,Church,FALSE,"{""coffee"":false,""vego_sausages"":false,""halal"":false,""bacon_egg"":false,""other"":""""}",,-27.168905,Burpengary South,FALSE,FALSE,"72 Pitt Road, BURPENGARY, 4505",,,,,,,
QLD,151.784481,Southern Downs,,Public Hall,,Hall,FALSE,,,-28.086459,Pratten,FALSE,FALSE,"101 White Street, PRATTEN, 4370",,,,,,,
QLD,153.045579,Brisbane Central,,State School,,Government School,TRUE,"{""coffee"":true,""vego_sausages"":false,""halal"":false,""bacon_egg"":false,""other"":""""}",@sausagesizzles,-27.460645,New Farm School,FALSE,TRUE,"Cnr James & Heal Streets, NEW FARM, 4005","Gluten free sausages, raffle",,,,,,
QLD,152.977235,"Lockyer, Logan",,State School Assembly Hall,,Government School,FALSE,,,-27.71093,Greenbank,FALSE,FALSE,"24 Goodna Road, GREENBANK, 4124",,,,,,,
QLD,153.008357,Stafford,,Queen Of Apostle School Hall,,Private School,TRUE,"{""coffee"":false,""vego_sausages"":false,""halal"":false,""bacon_egg"":false,""other"":""""}",http://www.couriermail.com.au/questnews/north/queensland-election-2015-polling-booths-in-brisbanes-northwest/story-fni9r1kg-1227200826424,-27.405352,Stafford West,FALSE,TRUE,"70 Appleby Road, STAFFORD, 4053",,,,,,,
QLD,153.204657,Pumicestone,,Bribie Island Surf Lifesaving Clubhouse,,Other,FALSE,,,-27.069776,Woorim,FALSE,FALSE,"2 First Avenue, WOORIM, 4507",,,,,,,
QLD,146.60146,"Dalrymple, Thuringowa",,Progress Hall,,Hall,FALSE,,,-19.328478,Rupertswood,FALSE,FALSE,"Progress Road, RUPERTSWOOD, 4817",,,,,,,
QLD,151.268786,Condamine,,Our Lady of the Southern Cross College,,Private School,FALSE,,,-27.170421,Dalby North,FALSE,FALSE,"2 Nicholson Street, DALBY, 4405",,,,,,,
QLD,145.737365,"Cairns, Mulgrave",,Our Lady Help of Christians School,,Private School,FALSE,,,-16.94276,Earlville,FALSE,FALSE,"18 Balaclava Road, EARLVILLE, 4870",,,,,,,
QLD,151.855079,Condamine,,State School,,Government School,FALSE,,,-27.658638,Wyreema,FALSE,FALSE,"12 High Street, WYREEMA, 4352",,,,,,,
QLD,151.946347,Toowoomba North,,Holy Name School,,Private School,FALSE,,,-27.550818,Holy Name,FALSE,FALSE,"188 Bridge Street, TOOWOOMBA, 4350",,,,,,,
QLD,153.474997,"Burleigh, Currumbin",,State High School,,Government School,FALSE,,,-28.131959,Palm Beach-Currumbin,FALSE,FALSE,"Thrower Drive, PALM BEACH, 4221",,,,,,,
QLD,153.071451,Noosa,,Noosa Baptist Church Hall,,Church,FALSE,"{""coffee"":false,""vego_sausages"":false,""halal"":false,""bacon_egg"":false,""other"":""""}",@YaThinkN,-26.403735,Noosaville,TRUE,FALSE,"213 Weyba Road, NOOSAVILLE, 4566",,,,,,,
QLD,150.453987,"Mirani, Rockhampton",,Gracemere Community Hall,,Hall,FALSE,,,-23.437577,Gracemere East,FALSE,FALSE,"Barry Street, Gracemere, 4702",,,,,,,
QLD,152.347778,"Bundaberg, Burnett",,Anglican Parish Hall,,Church,FALSE,"{""coffee"":false,""vego_sausages"":false,""halal"":false,""bacon_egg"":false,""other"":""""}",Twitter,-24.867222,Bundaberg,FALSE,FALSE,"Woongarra Street, BUNDABERG CENTRAL, 4670",,,,,,,
QLD,153.376555,"Mermaid Beach, Mudgeeraba",,State School,,Government School,FALSE,,,-28.040569,Merrimac,FALSE,FALSE,"Boowaggan Road, MERRIMAC, 4226",,,,,,,
QLD,153.066547,"Stretton, Sunnybank",,State School,,Government School,FALSE,,,-27.571744,Macgregor Central,FALSE,FALSE,"370 McCullough Street, MACGREGOR, 4109",,,,,,,
QLD,148.496565,Whitsunday,,Dingo Beach Community Centre,,Other,FALSE,,,-20.093398,Dingo Beach,FALSE,FALSE,"Dingo Beach Road, DINGO BEACH, 4800",,,,,,,
QLD,152.935041,Mount Ommaney,,State School,,Government School,TRUE,"{""coffee"":false,""vego_sausages"":false,""halal"":false,""bacon_egg"":false,""other"":""""}",@willaonthego,-27.530346,Jindalee,FALSE,TRUE,"114 Burrendah Road, JINDALEE, 4074",,,,,,,
QLD,149.066883,Warrego,,State School,,Government School,FALSE,,,-27.154591,Surat,FALSE,FALSE,"55 Robert Street, SURAT, 4417",,,,,,,
QLD,152.971878,Mount Coot-tha,,Bardon State School,,Kindergarten,TRUE,"{""coffee"":false,""vego_sausages"":false,""halal"":false,""bacon_egg"":false,""other"":""""}",@sausagesizzles,-27.460099,Bardon West,FALSE,TRUE,"330 Simpsons Road, BARDON, 4065",,,,,,,
QLD,152.962512,"Everton, Ferny Grove",,Hills District PCYC,,Other,TRUE,"{""coffee"":false,""vego_sausages"":false,""halal"":false,""bacon_egg"":false,""other"":""""}",http://www.couriermail.com.au/questnews/north/queensland-election-2015-polling-booths-in-brisbanes-northwest/story-fni9r1kg-1227200826424,-27.395851,Arana,FALSE,FALSE,"135a Olearia Street West, EVERTON HILLS, 4053",,,,,,,
