ec_id,name,premises,address,lat,lon,state,wheelchair_access,entrance_desc,opening_hours,divisions
,Acacia Ridge,Acacia Ridge State School - Sports Hall,"Nyngam Street, ACACIA RIDGE, QLD Australia 4110",-27.579189400000001,153.01408588999999,QLD,Full,,08:00 AM - 06:00 PM,Algester
,Acacia Ridge South,Watson Road State School,"210 Watson Road, ACACIA RIDGE, QLD Australia 4110",-27.593082249999998,153.01820040000001,QLD,Full,,08:00 AM - 06:00 PM,Algester
,Algester,Algester State School,"Endiandra Street, ALGESTER, QLD Australia 4115",-27.615903,153.0321271,QLD,Full,,08:00 AM - 06:00 PM,Algester
,Algester South,St Stephen's Catholic Primary School,"156 Ridgewood Road, Algester, QLD Australia 4115",-27.619104,153.029539,QLD,Full,Entry via Ackama Street,08:00 AM - 06:00 PM,Algester
,Brisbane CBD,Brisbane City Hall.,"64 Adelaide Street, BRISBANE, QLD Australia 4000",-27.46870501779985,153.0238493466965,QLD,Full,Entry via Main Entrance in King George Square,08:00 AM - 06:00 PM,Algester
,Browns Plains,Browns Plains State School,"1-29 Mayfair Drive, BROWNS PLAINS, QLD Australia 4118",-27.668313999999999,153.053888,QLD,Full,,08:00 AM - 06:00 PM,Algester
,Calamvale,Calamvale Community College,"11 Hamish Street, CALAMVALE, QLD Australia 4116",-27.627030999999999,153.043004,QLD,Full,,08:00 AM - 06:00 PM,Algester
,Forest Lake East,Forest Lake State High School,"High Street, FOREST LAKE, QLD Australia 4078",-27.623892999999999,152.97201899999999,QLD,Full,,08:00 AM - 06:00 PM,Algester
,Heritage Park,Yugumbir State School,"163-189 Vansittart Road, REGENTS PARK, QLD Australia 4118",-27.676679999999998,153.04957899999999,QLD,Full,"Redgum Drive, Regents Park QLD 4118",08:00 AM - 06:00 PM,Algester
,Hillcrest,Life & Legacy Church,"Unit 13/98 Anzac Avenue, Hillcrest, QLD Australia 4118",-27.6656858,153.0325871,QLD,Assisted,,08:00 AM - 06:00 PM,Algester
,Pallara,Pallara State School,"39 Ritchie Road, PALLARA, QLD Australia 4110",-27.629868519999999,152.99401201000001,QLD,Full,,08:00 AM - 06:00 PM,Algester
,Regents Park,Regents Park State School,"42-60 Emerald Drive, REGENTS PARK, QLD Australia 4118",-27.68224,153.03429800000001,QLD,Full,,08:00 AM - 06:00 PM,Algester
,Aspley,Aspley Special School Hall,"751 Zillmere Road, Aspley, QLD Australia 4034",-27.356769750000002,153.02166581,QLD,Full,,08:00 AM - 06:00 PM,Aspley
,Aspley East,Aspley East State School - Multi Purpose Activity Centre,"31 Helena Street, Aspley, QLD Australia 4034",-27.3619034,153.0241169,QLD,Full,Access via Clorane Street,08:00 AM - 06:00 PM,Aspley
,Aspley West,Aspley State School Hall,"316 Maundrell Terrace, Aspley, QLD Australia 4034",-27.3690725,153.0140991,QLD,Assisted,Horn Rd Carpark to be used and main hall front entry to gain access,08:00 AM - 06:00 PM,Aspley
,Bald Hills,Bald Hills State School Hall,"2156 Gympie Road, BALD HILLS, QLD Australia 4036",-27.320000969999999,153.00654888,QLD,Full,,08:00 AM - 06:00 PM,Aspley
,Bridgeman Downs,Church of the Resurrection Hall,"30 Ridley Road, BRIDGEMAN DOWNS, QLD Australia 4035",-27.352311999999998,153.003794,QLD,Assisted,,08:00 AM - 06:00 PM,Aspley
,Brisbane CBD,Brisbane City Hall.,"64 Adelaide Street, BRISBANE, QLD Australia 4000",-27.46870501779985,153.0238493466965,QLD,Full,Entry via Main Entrance in King George Square,08:00 AM - 06:00 PM,Aspley
,Chermside West,Craigslea State High School Auditorium,"685 Hamilton Road, CHERMSIDE WEST, QLD Australia 4035",-27.3834922,153.0180464,QLD,Full,,08:00 AM - 06:00 PM,Aspley
,Geebung,Geebung State School - Activities Hall,"250 Newman Road, Geebung, QLD Australia 4034",-27.375104999999998,153.04594600000001,QLD,Assisted,,08:00 AM - 06:00 PM,Aspley
,McDowall,McDowall State School,"1018 Rode Road, MCDOWALL, QLD Australia 4053",-27.388201290000001,152.98951149000001,QLD,Full,,08:00 AM - 06:00 PM,Aspley
,Zillmere,St Matthias Anglican Church,"74 Murphy Road, Zillmere, QLD Australia 4034",-27.3651568,153.037432,QLD,Assisted,,08:00 AM - 06:00 PM,Aspley
,Brisbane CBD,Brisbane City Hall.,"64 Adelaide Street, BRISBANE, QLD Australia 4000",-27.46870501779985,153.0238493466965,QLD,Full,Entry via Main Entrance in King George Square,08:00 AM - 06:00 PM,Bancroft
,Burpengary East,The Artisans' Guild,"Cnr Old Bay & Maitland Roads, BURPENGARY EAST, QLD Australia 4505",-27.157779600000001,152.99001575,QLD,Full,,08:00 AM - 06:00 PM,Bancroft
,Deception Bay North,Deception Bay Community Hall,"Cnr Bayview Terrace & Ewart Street, DECEPTION BAY, QLD Australia 4508",-27.18439072,153.02537262000001,QLD,Assisted,,08:00 AM - 06:00 PM,Bancroft
,Deception Bay South,Deception Bay State High School,"Government Street, DECEPTION BAY, QLD Australia 4508",-27.200945999999998,153.030124,QLD,Assisted,,08:00 AM - 06:00 PM,Bancroft
,Deception Bay West,Deception Bay North State School,"33-49 Old Bay Road, DECEPTION BAY, QLD Australia 4508",-27.1820707,153.0151112,QLD,Full,Gate 2 or 3 front.,08:00 AM - 06:00 PM,Bancroft
,Mango Hill,Mango Hill Community Centre,"Chermside Road, MANGO HILL, QLD Australia 4509",-27.218385099999999,153.02905798,QLD,Assisted,,08:00 AM - 06:00 PM,Bancroft
,Moreton Downs,Moreton Downs State School,"Parsons Boulevard, DECEPTION BAY, QLD Australia 4508",-27.1975745,153.0183169,QLD,Full,Gate 1 and 3,08:00 AM - 06:00 PM,Bancroft
,North Lakes,North Lakes State College - Senior Campus Sports Hall,"1 The Corso, NORTH LAKES, QLD Australia 4509",-27.2398104,153.0174791,QLD,None,,08:00 AM - 06:00 PM,Bancroft
,North Lakes North,Bounty Boulevard State School,"195 Bounty Boulevard, NORTH LAKES, QLD Australia 4509",-27.215627770000001,153.00750375000001,QLD,Assisted,,08:00 AM - 06:00 PM,Bancroft
,Brisbane CBD,Brisbane City Hall.,"64 Adelaide Street, BRISBANE, QLD Australia 4000",-27.46870501779985,153.0238493466965,QLD,Full,Entry via Main Entrance in King George Square,08:00 AM - 06:00 PM,Barron River
,Caravonica,Caravonica State School,"Lot 3 1115R Kamerunga Road, CARAVONICA, QLD Australia 4878",-16.852578650000002,145.69534868,QLD,Full,,08:00 AM - 06:00 PM,Barron River
,Clifton Beach,Clifton Beach Tennis Club,"Edward Mann Park 13 Clifton Beach Road, CLIFTON BEACH, QLD Australia 4879",-16.768818282868082,145.6757587387619,QLD,Full,,08:00 AM - 06:00 PM,Barron River
,Freshwater,Freshwater State School,"10 Corkill Street, FRESHWATER, QLD Australia 4870",-16.880306839999999,145.71424751999999,QLD,Full,,08:00 AM - 06:00 PM,Barron River
,Holloways Beach,Holloways Beach Community Hall,"65 Oleander Street, HOLLOWAYS BEACH, QLD Australia 4878",-16.84291872,145.73882460999999,QLD,Full,,08:00 AM - 06:00 PM,Barron River
,Kewarra Beach,Generations Church Beaches,"1-3 Moore Rd, Kewarra Beach, QLD Australia 4879",-16.7958655,145.6811854,QLD,Full,,08:00 AM - 06:00 PM,Barron River
,Kuranda,Kuranda QCWA Hall,"20 Thongon Street, KURANDA, QLD Australia 4881",-16.820477575714342,145.63668079895018,QLD,Full,,08:00 AM - 06:00 PM,Barron River
,Machans Beach,Machans Beach State School,"61 Machan Street, MACHANS BEACH, QLD Australia 4878",-16.852629990000001,145.74526592999999,QLD,Assisted,,08:00 AM - 06:00 PM,Barron River
,Redlynch,Redlynch State College,"Jungara Road, REDLYNCH, QLD Australia 4870",-16.908885510000001,145.69607823999999,QLD,Full,,08:00 AM - 06:00 PM,Barron River
,Smithfield,Smithfield State High School,"O'Brien Road, SMITHFIELD, QLD Australia 4878",-16.812151499999999,145.69537550000001,QLD,Full,,08:00 AM - 06:00 PM,Barron River
,Stratford,Stratford Community Hall,"15 Kamerunga Road, STRATFORD, QLD Australia 4870",-16.87570736,145.73242619999999,QLD,Full,,08:00 AM - 06:00 PM,Barron River
,Trinity Beach,Tropical North Learning Academy - Trinity Beach State School,"Wewak Street, TRINITY BEACH, QLD Australia 4879",-16.794639879999998,145.69006204999999,QLD,Assisted,Gate access via Madang Street,08:00 AM - 06:00 PM,Barron River
,Yorkeys Knob,Yorkeys Knob State School,"26-38 Clinton Street, YORKEYS KNOB, QLD Australia 4878",-16.81438013,145.72317122999999,QLD,Assisted,,08:00 AM - 06:00 PM,Barron River
,Arundel,Arundel State School,"185 Napper Road, ARUNDEL, QLD Australia 4214",-27.944857880000001,153.36605607999999,QLD,Full,,08:00 AM - 06:00 PM,Bonney
,Arundel East,Arundel Presbyterian Church,"132 Allied Drive, Arundel, QLD Australia 4214",-27.938692999999997,153.386011,QLD,Full,,08:00 AM - 06:00 PM,Bonney
,Biggera Waters,Biggera Waters State School Hall,"Coombabah Road, BIGGERA WATERS, QLD Australia 4216",-27.927596999999999,153.39677499999999,QLD,Full,entry via Morala Ave,08:00 AM - 06:00 PM,Bonney
,Brisbane CBD,Brisbane City Hall.,"64 Adelaide Street, BRISBANE, QLD Australia 4000",-27.46870501779985,153.0238493466965,QLD,Full,Entry via Main Entrance in King George Square,08:00 AM - 06:00 PM,Bonney
,Coombabah South,Coombabah State High School,"550 Pine Ridge Road, COOMBABAH, QLD Australia 4216",-27.923665999999997,153.378244,QLD,Full,,08:00 AM - 06:00 PM,Bonney
,Harley Park,Labrador Senior Citizens Hall,"370 Marine Parade, LABRADOR, QLD Australia 4215",-27.940671999999999,153.40748300000001,QLD,Full,via Broad Street,08:00 AM - 06:00 PM,Bonney
,Labrador,Labrador State School,"Imperial Parade, LABRADOR, QLD Australia 4215",-27.942504,153.401994,QLD,Full,No gate. Direct entry to hall,08:00 AM - 06:00 PM,Bonney
,Southport North,Southport State High School,"Brooke Avenue, SOUTHPORT, QLD Australia 4215",-27.962475749999999,153.40266287,QLD,Full,,08:00 AM - 06:00 PM,Bonney
,Biggera Waters,Biggera Waters State School Hall,"Coombabah Road, BIGGERA WATERS, QLD Australia 4216",-27.927596999999999,153.39677499999999,QLD,Full,entry via Morala Ave,08:00 AM - 06:00 PM,Broadwater
,Brisbane CBD,Brisbane City Hall.,"64 Adelaide Street, BRISBANE, QLD Australia 4000",-27.46870501779985,153.0238493466965,QLD,Full,Entry via Main Entrance in King George Square,08:00 AM - 06:00 PM,Broadwater
,Coombabah,Coombabah State School,"164-172 Oxley Drive, COOMBABAH, QLD Australia 4216",-27.89437659931857,153.388410832016,QLD,Full,,08:00 AM - 06:00 PM,Broadwater
,Helensvale North,Helensvale State High School,"243 Discovery Drive, HELENSVALE, QLD Australia 4210",-27.896901999999997,153.32679300000001,QLD,Assisted,,08:00 AM - 06:00 PM,Broadwater
,Hope Island,Banksia Park Hall,"27 Crescent Avenue, HOPE ISLAND, QLD Australia 4212",-27.87386923,153.37545455,QLD,Full,,08:00 AM - 06:00 PM,Broadwater
,Paradise Lakes,Marj Shipman Community Centre,"91 Hansford Road, COOMBABAH, QLD Australia 4216",-27.898966999999999,153.37892399999998,QLD,Assisted,,08:00 AM - 06:00 PM,Broadwater
,Paradise Point,Paradise Point Community Centre,"Community Lane, PARADISE POINT, QLD Australia 4216",-27.88553810817467,153.39374163439328,QLD,Assisted,,08:00 AM - 06:00 PM,Broadwater
,Runaway Bay,Runaway Bay Community Centre,"Lae Drive, Runaway Bay, QLD Australia 4216",-27.9121901,153.3935371,QLD,Full,,08:00 AM - 06:00 PM,Broadwater
,Brisbane CBD,Brisbane City Hall.,"64 Adelaide Street, BRISBANE, QLD Australia 4000",-27.46870501779985,153.0238493466965,QLD,Full,Entry via Main Entrance in King George Square,08:00 AM - 06:00 PM,Buderim
,Buderim,St Mark's Anglican Church Hall,"7-17 Main Street, Buderim, QLD Australia 4556",-26.6849373,153.0541747,QLD,Full,,08:00 AM - 06:00 PM,Buderim
,Buderim East,Sparrow Early Learning Buderim,"58-60 Buderim Pines Drive, BUDERIM, QLD Australia 4556",-26.688862,153.08542399999999,QLD,Assisted,,08:00 AM - 06:00 PM,Buderim
,Buderim South,Fusion Alcooringa Centre,"176 Ballinger Road, BUDERIM, QLD Australia 4556",-26.701391999999998,153.06645,QLD,Full,,08:00 AM - 06:00 PM,Buderim
,Mountain Creek,Mountain Creek State School,"51 Lady Musgrave Drive, MOUNTAIN CREEK, QLD Australia 4557",-26.691071870000002,153.10371995,QLD,Full,,08:00 AM - 06:00 PM,Buderim
,Mountain Creek South,Brightwater State School,"20 Dianella Drive, Mountain Creek, QLD Australia 4557",-26.710452279999998,153.11135888000001,QLD,Full,,08:00 AM - 06:00 PM,Buderim
,Sippy Downs,Chancellor State College - Primary Campus,"8 Scholars Drive, Sippy Downs, QLD Australia 4556",-26.7204548,153.0594186,QLD,Full,,08:00 AM - 06:00 PM,Buderim
,Balmoral,Balmoral State High School,"259 Thynne Road, MORNINGSIDE, QLD Australia 4170",-27.455835,153.07339200000001,QLD,None,,08:00 AM - 06:00 PM,Bulimba
,Brisbane CBD,Brisbane City Hall.,"64 Adelaide Street, BRISBANE, QLD Australia 4000",-27.46870501779985,153.0238493466965,QLD,Full,Entry via Main Entrance in King George Square,08:00 AM - 06:00 PM,Bulimba
,Bulimba,St John the Baptist Anglican Church Hall,"171 Oxford Street, Bulimba, QLD Australia 4171",-27.451693760383694,153.05993611045076,QLD,Assisted,,08:00 AM - 06:00 PM,Bulimba
,Bulimba Heights,Bulimba State School,"271 Oxford Street, BULIMBA, QLD Australia 4171",-27.452767959999999,153.06478769,QLD,Assisted,,08:00 AM - 06:00 PM,Bulimba
,Cannon Hill,St Oliver Plunkett Church,"21 Beauvardia Street, CANNON HILL, QLD Australia 4170",-27.469905999999998,153.08448799999999,QLD,Full,,08:00 AM - 06:00 PM,Bulimba
,Carindale,Carina State School,"1413 Creek Road, Carindale, QLD Australia 4152",-27.4934316,153.1022024,QLD,Full,Cuthred Street,08:00 AM - 06:00 PM,Bulimba
,Morningside,Church of the Ascension Morningside,"706 Wynnum Road, Morningside, QLD Australia 4170",-27.466564418839187,153.07440491897964,QLD,Full,,08:00 AM - 06:00 PM,Bulimba
,Morningside West,Morningside State School,"67 Pashen Street, MORNINGSIDE, QLD Australia 4171",-27.464323999999998,153.0659,QLD,Assisted,,08:00 AM - 06:00 PM,Bulimba
,Murarrie,Murarrie Progress Hall,"10 Queensport Road, MURARRIE, QLD Australia 4172",-27.464085999999998,153.10458599999998,QLD,Full,,08:00 AM - 06:00 PM,Bulimba
,Norman Park,Norman Park State School,"53 Hipwood Street, NORMAN PARK, QLD Australia 4170",-27.474354999999999,153.062884,QLD,Assisted,,08:00 AM - 06:00 PM,Bulimba
,Norman Park South,Faith Works Uniting Church Hall,"177 Bennetts Road, Norman Park, QLD Australia 4170",-27.4838838,153.0644364,QLD,Full,Mcllwraith Avenue,08:00 AM - 06:00 PM,Bulimba
,Seven Hills,Seven Hills State School,"152 D'Arcy Road, SEVEN HILLS, QLD Australia 4170",-27.47869923,153.07563454000001,QLD,Full,,08:00 AM - 06:00 PM,Bulimba
,Avoca,Bundaberg Church of Christ,"76 Twyford Street, AVOCA, QLD Australia 4670",-24.888591300000002,152.3148363,QLD,Assisted,,08:00 AM - 06:00 PM,Bundaberg
,Branyan,Branyan Road State School,"430 Branyan Drive, BUNDABERG, QLD Australia 4670",-24.892631130000002,152.29396105000001,QLD,Assisted,,08:00 AM - 06:00 PM,Bundaberg
,Brisbane CBD,Brisbane City Hall.,"64 Adelaide Street, BRISBANE, QLD Australia 4000",-27.46870501779985,153.0238493466965,QLD,Full,Entry via Main Entrance in King George Square,08:00 AM - 06:00 PM,Bundaberg
,Bundaberg,Bundaberg Uniting Church Hall,"11 Electra Street, BUNDABERG CENTRAL, QLD Australia 4670",-24.8701867,152.3507033,QLD,Assisted,,08:00 AM - 06:00 PM,Bundaberg
,Bundaberg East,Bundaberg East State School,"33 Scotland Street, BUNDABERG EAST, QLD Australia 4670",-24.861659,152.37305499999999,QLD,Full,,08:00 AM - 06:00 PM,Bundaberg
,Bundaberg North,Bundaberg North State School,"Mt Perry Road, BUNDABERG NORTH, QLD Australia 4670",-24.852012370000001,152.34030962,QLD,Assisted,,08:00 AM - 06:00 PM,Bundaberg
,Bundaberg South,Bundaberg South State School,"Walla Street, BUNDABERG, QLD Australia 4670",-24.870659,152.36085600000001,QLD,Full,,08:00 AM - 06:00 PM,Bundaberg
,Bundaberg West,Bundaberg West State School,"Steffensen Street, BUNDABERG WEST, QLD Australia 4670",-24.875833333333002,152.332999999999,QLD,Assisted,,08:00 AM - 06:00 PM,Bundaberg
,Kepnock,Kepnock State High School,"43 Kepnock Road, BUNDABERG, QLD Australia 4670",-24.875530999999999,152.37749199999999,QLD,Assisted,,08:00 AM - 06:00 PM,Bundaberg
,Norville,Norville State School,"9 Dr Mays Road, BUNDABERG, QLD Australia 4670",-24.887112999999999,152.337198,QLD,Full,,08:00 AM - 06:00 PM,Bundaberg
,Thabeban,Thabeban State School,"270 Goodwood Road, THABEBAN, QLD Australia 4670",-24.898377809999999,152.36392914999999,QLD,Full,,08:00 AM - 06:00 PM,Bundaberg
,Walkervale,Walkervale State School,"7 Brillante Crescent, Bundaberg, QLD Australia 4670",-24.8861514,152.3603226,QLD,Full,,08:00 AM - 06:00 PM,Bundaberg
,Bellbird Park,Bellbird Park State Secondary College,"2 Alesana Drive, Bellbird Park, QLD Australia 4300",-27.640487999999998,152.88406000000001,QLD,Full,,08:00 AM - 06:00 PM,Bundamba
,Brisbane CBD,Brisbane City Hall.,"64 Adelaide Street, BRISBANE, QLD Australia 4000",-27.46870501779985,153.0238493466965,QLD,Full,Entry via Main Entrance in King George Square,08:00 AM - 06:00 PM,Bundamba
,Bundamba,Oasis Church of Christ Bundamba,"25 Byrne Street, Bundamba, QLD Australia 4304",-27.6049899,152.81268069999999,QLD,Full,,08:00 AM - 06:00 PM,Bundamba
,Bundamba South,Bundamba State School,"221 Brisbane Road, BUNDAMBA, QLD Australia 4304",-27.612138999999999,152.80503299999998,QLD,Assisted,,08:00 AM - 06:00 PM,Bundamba
,Collingwood Park,Collingwood Park State School Hall,"12-16 Burrel Street, COLLINGWOOD PARK, QLD Australia 4301",-27.615192109999999,152.86330283000001,QLD,Full,,08:00 AM - 06:00 PM,Bundamba
,Collingwood Park South,Woodlinks State School,"Woodlinks Way, Collingwood Park, QLD Australia 4301",-27.630445641677124,152.85269127368014,QLD,Full,Multi-purpose hall,08:00 AM - 06:00 PM,Bundamba
,Goodna,St Francis Xavier Primary School Hall,"6 Church Street, GOODNA, QLD Australia 4300",-27.61139416,152.89954484,QLD,Full,,08:00 AM - 06:00 PM,Bundamba
,Redbank,Redbank State School,"9 Brisbane Road, REDBANK, QLD Australia 4301",-27.603496,152.86478099999999,QLD,Assisted,"Prep building, 19 Brisbane Road, Redbank",08:00 AM - 06:00 PM,Bundamba
,Redbank Plains,Redbank Plains State School Hall,"39 - 53 School Road, REDBANK PLAINS, QLD Australia 4301",-27.64818,152.850312,QLD,Full,,08:00 AM - 06:00 PM,Bundamba
,Redbank Plains East,Redbank Plains State High School - Performing Arts Hall,"136 Willow Road, REDBANK PLAINS, QLD Australia 4301",-27.652387999999998,152.86933199999999,QLD,Full,,08:00 AM - 06:00 PM,Bundamba
,Redbank Plains South,Redbank Plains Community Centre,"180 School Road, Redbank Plains, QLD Australia 4301",-27.6630453,152.8503428,QLD,Full,,08:00 AM - 06:00 PM,Bundamba
,Ripley Valley,Ripley Valley State Secondary College - Raptor Dome,"18 Parkway Avenue, South Ripley, QLD Australia 4306",-27.6951481,152.8102252,QLD,Full,,08:00 AM - 06:00 PM,Bundamba
,Riverview,Riverview Community Centre,"138 Old Ipswich Road, RIVERVIEW, QLD Australia 4303",-27.603141820000001,152.84841657000001,QLD,Assisted,,08:00 AM - 06:00 PM,Bundamba
,Ayr,PCYC Burdekin,"164 MacMillan Street, AYR, QLD Australia 4807",-19.582476,147.40139600000001,QLD,Full,,08:00 AM - 06:00 PM,Burdekin
,Ayr East,East Ayr State School,"43 Ross Street, AYR, QLD Australia 4807",-19.563531999999999,147.41606400000001,QLD,Assisted,,08:00 AM - 06:00 PM,Burdekin
,Bowen,Bowen PCYC,"Cnr Queens Road & Hays Street, Bowen, QLD Australia 4805",-20.0088697,148.2497437,QLD,Full,,08:00 AM - 06:00 PM,Burdekin
,Brisbane CBD,Brisbane City Hall.,"64 Adelaide Street, BRISBANE, QLD Australia 4000",-27.46870501779985,153.0238493466965,QLD,Full,Entry via Main Entrance in King George Square,08:00 AM - 06:00 PM,Burdekin
,Clare,Clare State School,"Larkin Street, CLAREDALE, QLD Australia 4807",-19.783463139999999,147.22640991,QLD,Assisted,,08:00 AM - 06:00 PM,Burdekin
,Clermont,Blair Athol Hall,"93 Rubyvale Road, Clermont, QLD Australia 4721",-22.832607,147.6252018,QLD,Full,,08:00 AM - 06:00 PM,Burdekin
,Collinsville,QCWA Collinsville,"33 Conway Street, Collinsville, QLD Australia 4804",-20.5537898,147.8457461,QLD,Full,,08:00 AM - 06:00 PM,Burdekin
,Cungulla,Cungulla Community Hall,"15A Frank Randall Drive, CUNGULLA, QLD Australia 4816",-19.3960507,147.1072976,QLD,Full,,08:00 AM - 06:00 PM,Burdekin
,Dysart,Dysart Civic Centre,"16 Queen Elizabeth Drive, Dysart, QLD Australia 4745",-22.588178,148.3489788,QLD,Assisted,,08:00 AM - 06:00 PM,Burdekin
,Giru,Giru CWA Hall,"9 Carey Street, GIRU, QLD Australia 4809",-19.515093999999998,147.10454643,QLD,Full,,08:00 AM - 06:00 PM,Burdekin
,Glenden,Glenden State School,"48 Gillham Terrace, GLENDEN, QLD Australia 4743",-21.353978720000001,148.11663508000001,QLD,Full,,08:00 AM - 06:00 PM,Burdekin
,Home Hill,St Colman's School,"94 - 100 Eleventh Avenue, HOME HILL, QLD Australia 4806",-19.659189999999999,147.41553999999999,QLD,Full,,08:00 AM - 06:00 PM,Burdekin
,Middlemount,Middlemount Community School,"James Randell Drive, MIDDLEMOUNT, QLD Australia 4746",-22.811413129999998,148.70093822000001,QLD,Full,,08:00 AM - 06:00 PM,Burdekin
,Moranbah Central,Moranbah Arts Centre - Darts Hall,"38A Bacon Street, Moranbah, QLD Australia 4744",-21.9999344,148.0402545,QLD,Assisted,,08:00 AM - 06:00 PM,Burdekin
,Nebo,Nebo State School,"34 Oxford Street, NEBO, QLD Australia 4742",-21.68950779,148.68972123,QLD,Full,,08:00 AM - 06:00 PM,Burdekin
,Nome,Nome District Rural Fire Brigade Hall,"2 Alligator Creek Road, NOME, QLD Australia 4816",-19.38838033,146.95301234999999,QLD,Assisted,,08:00 AM - 06:00 PM,Burdekin
,Queens Beach,Queens Beach State School,"39 Tracey Street, QUEENS BEACH, QLD Australia 4805",-19.976308270000001,148.22682559,QLD,Full,,08:00 AM - 06:00 PM,Burdekin
,Woodstock,Woodstock State School,"54 Woodstock Avenue, WOODSTOCK, QLD Australia 4816",-19.597717280000001,146.83493614,QLD,Full,,08:00 AM - 06:00 PM,Burdekin
,Brisbane CBD,Brisbane City Hall.,"64 Adelaide Street, BRISBANE, QLD Australia 4000",-27.46870501779985,153.0238493466965,QLD,Full,Entry via Main Entrance in King George Square,08:00 AM - 06:00 PM,Burleigh
,Burleigh Heads,Burleigh Heads State School,"1750 Lower Gold Coast Highway, BURLEIGH HEADS, QLD Australia 4220",-28.087239480000001,153.44902217000001,QLD,Full,,08:00 AM - 06:00 PM,Burleigh
,Burleigh North,Burleigh Heads RSL Hall,"8 Sixth Avenue, BURLEIGH HEADS, QLD Australia 4220",-28.076848999999999,153.44620399999999,QLD,Full,,08:00 AM - 06:00 PM,Burleigh
,Burleigh Waters,Caningeraba State School,"4-20 Whistler Drive, BURLEIGH WATERS, QLD Australia 4220",-28.0844624,153.4312367,QLD,Full,Via Council carpark Whistler Drive Burleigh Waters,08:00 AM - 06:00 PM,Burleigh
,Palm Beach,Palm Beach Share-N-Care,"31 Tenth Avenue, PALM BEACH, QLD Australia 4221",-28.118153,153.467972,QLD,Full,,08:00 AM - 06:00 PM,Burleigh
,Palm Beach North,Palm Beach State School,"13-19 Nineteenth Avenue, PALM BEACH, QLD Australia 4221",-28.1094663,153.4631978,QLD,Full,access via Townsend Avenue,08:00 AM - 06:00 PM,Burleigh
,Palm Beach South,Palm Beach Currumbin State High School,"Thrower Drive, PALM BEACH, QLD Australia 4221",-28.131958529999999,153.47499669000001,QLD,Full,,08:00 AM - 06:00 PM,Burleigh
,Varsity Lakes Central,Varsity College (Primary Campus),"Christine Avenue, VARSITY LAKES, QLD Australia 4227",-28.088522999999999,153.40954600000001,QLD,Full,,08:00 AM - 06:00 PM,Burleigh
,Varsity Lakes South,Varsity Lakes Community Resource Centre,"20 Mattocks Road, VARSITY LAKES, QLD Australia 4227",-28.0979826,153.4193768,QLD,Full,off Lyn Muller Lane just off Mattocks Road,08:00 AM - 06:00 PM,Burleigh
,Agnes Water,Agnes Water Community Centre,"71 Springs Road, Agnes Water, QLD Australia 4677",-24.211360089999999,151.90994237999999,QLD,Full,,08:00 AM - 06:00 PM,Burnett
,Alloway,Alloway State School,"4334 Goodwood Road, ALLOWAY, QLD Australia 4670",-24.95207512,152.37865447999999,QLD,Full,,08:00 AM - 06:00 PM,Burnett
,Apple Tree Creek,Apple Tree Community Hall,"29394 Bruce Highway, APPLE TREE CREEK, QLD Australia 4660",-25.21668648,152.23748445999999,QLD,Full,,08:00 AM - 06:00 PM,Burnett
,Baffle Creek,Wartburg State School,"585 Coast Road, BAFFLE CREEK, QLD Australia 4674",-24.5022928,151.9311339,QLD,Full,,08:00 AM - 06:00 PM,Burnett
,Bargara,Bargara Cultural and Community Centre.,"180 Hughes Road, Bargara, QLD Australia 4670",-24.8337355,152.4606685,QLD,Full,,08:00 AM - 06:00 PM,Burnett
,Brisbane CBD,Brisbane City Hall.,"64 Adelaide Street, BRISBANE, QLD Australia 4000",-27.46870501779985,153.0238493466965,QLD,Full,Entry via Main Entrance in King George Square,08:00 AM - 06:00 PM,Burnett
,Burnett Heads,Burnett Heads State School,"52 Burnett Heads Road, BURNETT HEADS, QLD Australia 4670",-24.771821039999999,152.41497158999999,QLD,Full,,08:00 AM - 06:00 PM,Burnett
,Childers,Isis Cultural Centre,"49 Churchill Street, Childers, QLD Australia 4660",-25.2358128,152.2799587,QLD,Full,,08:00 AM - 06:00 PM,Burnett
,Cordalba,Cordalba State School,"1A Cemetery Road, CORDALBA, QLD Australia 4660",-25.159172120000001,152.21210002999999,QLD,Assisted,,08:00 AM - 06:00 PM,Burnett
,Elliott Heads,Elliott Heads State School,"143 Breusch Road, ELLIOTT HEADS, QLD Australia 4670",-24.907593339999998,152.47560024000001,QLD,Full,,08:00 AM - 06:00 PM,Burnett
,Givelda,Pine Creek Hall,"1 Haylocks Road, Pine Creek, QLD Australia 4670",-25.003443,152.1612817,QLD,Full,,08:00 AM - 06:00 PM,Burnett
,Gooburrum,Gooburrum State School,"14 Gooburrum Road, GOOBURRUM, QLD Australia 4670",-24.823041580000002,152.3059988,QLD,Full,,08:00 AM - 06:00 PM,Burnett
,Goodwood,Goodwood State School,"1802 Goodwood Road, GOODWOOD, QLD Australia 4660",-25.145697370000001,152.38492547999999,QLD,Assisted,Woodgate Road entry near car park,08:00 AM - 06:00 PM,Burnett
,Innes Park,Coral Coast Christian Church,"596 Windermere Road, INNES PARK NORTH, QLD Australia 4670",-24.849155029999999,152.46181369000001,QLD,Full,,08:00 AM - 06:00 PM,Burnett
,Miriam Vale,Miriam Vale Community Centre,"41 Blomfield Street, Miriam Vale, QLD Australia 4677",-24.3278428,151.5602939,QLD,Full,Council admin building car park - Community centre is to the left.,08:00 AM - 06:00 PM,Burnett
,Moore Park,Moore Park Beach Community Hall,"1 Club Avenue, Moore Park Beach, QLD Australia 4670",-24.7178,152.27700000000002,QLD,Full,,08:00 AM - 06:00 PM,Burnett
,Rosedale,Rosedale Memorial Hall,"77 James Street, Rosedale, QLD Australia 4674",-24.6293823,151.9147546,QLD,Full,Main hall entrance centrally located from pathway of street curb. Front facing of James Street.,08:00 AM - 06:00 PM,Burnett
,Sharon,Sharon State School,"18 Sharon School Road, SHARON, QLD Australia 4670",-24.872508360000001,152.26362526,QLD,Full,,08:00 AM - 06:00 PM,Burnett
,South Kolan,Kolan South State School,"2297 Gin Gin Road, SOUTH KOLAN, QLD Australia 4670",-24.934403999999997,152.17584729000001,QLD,Assisted,Entry via St George Hall carpark,08:00 AM - 06:00 PM,Burnett
,Woodgate,Woodgate Community Hall,"2 Kangaroo Court, Woodgate, QLD Australia 4660",-25.1162116,152.5704246,QLD,Full,entry via 7th Avenue,08:00 AM - 06:00 PM,Burnett
,Woongarra,Woongarra State School,"468 Elliott Heads Road, BUNDABERG, QLD Australia 4670",-24.878455500000001,152.40589499000001,QLD,Full,,08:00 AM - 06:00 PM,Burnett
,Yandaran,Yandaran State School,"School Lane, YANDARAN, QLD Australia 4673",-24.724599359999999,152.11221993000001,QLD,Full,,08:00 AM - 06:00 PM,Burnett
,Brinsmead,Brinsmead Community Hall,"85 Loridan Drive, BRINSMEAD, QLD Australia 4870",-16.898107464287744,145.71412231282807,QLD,Assisted,,08:00 AM - 06:00 PM,Cairns
,Brisbane CBD,Brisbane City Hall.,"64 Adelaide Street, BRISBANE, QLD Australia 4000",-27.46870501779985,153.0238493466965,QLD,Full,Entry via Main Entrance in King George Square,08:00 AM - 06:00 PM,Cairns
,Cairns City,Cairns State High School,"Cnr Sheridan & Upward Streets, Cairns North, QLD Australia 4870",-16.916422309180845,145.76805229695896,QLD,Full,Sports Stadium - access via Sheridan Street.,08:00 AM - 06:00 PM,Cairns
,Cairns West,Emmanuel Uniting Church Hall,"327 Brown Street, Manunda, QLD Australia 4870",-16.9279454,145.749273,QLD,Full,,08:00 AM - 06:00 PM,Cairns
,Earlville,Our Lady Help of Christians School,"18 Balaclava Road, EARLVILLE, QLD Australia 4870",-16.94275957,145.73736547999999,QLD,Assisted,,08:00 AM - 06:00 PM,Cairns
,Edge Hill,Cairns PCYC,"91-97 Macnamara Street, Manunda, QLD Australia 4870",-16.9051954,145.7482023,QLD,Full,,08:00 AM - 06:00 PM,Cairns
,Manunda,Cairns School of Distance Education,"26-62 Hoare Street, Manunda, QLD Australia 4870",-16.9215154,145.7518798,QLD,Full,,08:00 AM - 06:00 PM,Cairns
,Mooroobool,Balaclava State School,"418 Mulgrave Road, Mooroobool, QLD Australia 4870",-16.9378097,145.7452568,QLD,Full,McCoombe Street gate,08:00 AM - 06:00 PM,Cairns
,Parramatta Park,Parramatta State School,"Minnie Street, PARRAMATTA PARK, QLD Australia 4870",-16.9242901,145.76248168999999,QLD,Full,,08:00 AM - 06:00 PM,Cairns
,Whitfield,Whitfield State School,"42 McManus Street, WHITFIELD, QLD Australia 4870",-16.91136706,145.7288307,QLD,Assisted,,08:00 AM - 06:00 PM,Cairns
,Banana,Banana State School,"32 Bramston Street, BANANA, QLD Australia 4702",-24.470187549999192,150.13025691454163,QLD,Assisted,Herbert Street,08:00 AM - 06:00 PM,Callide
,Baralaba,Baralaba State School,"1 Power Street, BARALABA, QLD Australia 4702",-24.181312999999999,149.80884800000001,QLD,Full,Main front gate (gate is at front of school),08:00 AM - 06:00 PM,Callide
,Bell,Bell State School,"90 Dennis Street, BELL, QLD Australia 4408",-26.939648609999999,151.45267010000001,QLD,Full,,08:00 AM - 06:00 PM,Callide
,Biggenden,Biggenden State School,"3-9 Frederick Street, BIGGENDEN, QLD Australia 4621",-25.5097448,152.047069,QLD,Assisted,,08:00 AM - 06:00 PM,Callide
,Biloela,Biloela State School,"48 Rainbow Street, Biloela, QLD Australia 4715",-24.3983158,150.5169024,QLD,Full,,08:00 AM - 06:00 PM,Callide
,Brigalow,Brigalow Public Hall,"47-49 Campbell Street, Brigalow, QLD Australia 4412",-26.8435741,150.7893316,QLD,Assisted,,08:00 AM - 06:00 PM,Callide
,Brisbane CBD,Brisbane City Hall.,"64 Adelaide Street, BRISBANE, QLD Australia 4000",-27.46870501779985,153.0238493466965,QLD,Full,Entry via Main Entrance in King George Square,08:00 AM - 06:00 PM,Callide
,Bullyard,Bullyard State School,"2359 Bucca Road, BULLYARD, QLD Australia 4671",-24.949964250000001,152.06083416999999,QLD,Full,,08:00 AM - 06:00 PM,Callide
,Calliope,Calliope State School,"Dawson Highway, CALLIOPE, QLD Australia 4680",-24.004638999999997,151.20263299999999,QLD,Full,,08:00 AM - 06:00 PM,Callide
,Chinchilla,Our Lady Help of Christians Church Hall,"8 Villiers Street, Chinchilla, QLD Australia 4413",-26.7422329,150.626983,QLD,Assisted,Entry via Middle Street,08:00 AM - 06:00 PM,Callide
,Eidsvold,Eidsvold Community Hall,"54 Moreton Street, EIDSVOLD, QLD Australia 4627",-25.370018819999999,151.12241506999999,QLD,Assisted,,08:00 AM - 06:00 PM,Callide
,Gayndah,QCWA Gayndah Branch,"5 Pineapple Street, Gayndah, QLD Australia 4625",-25.6258351,151.6101636,QLD,Full,,08:00 AM - 06:00 PM,Callide
,Gin Gin,Gin Gin State School,"13 May Street, GIN GIN, QLD Australia 4671",-24.992536950000002,151.9550854,QLD,Full,,08:00 AM - 06:00 PM,Callide
,Jambin,Jambin State School,"Cnr Burnett Highway & Threeways Road, JAMBIN, QLD Australia 4702",-24.17384964,150.37509799,QLD,Full,,08:00 AM - 06:00 PM,Callide
,Jandowae,Jandowae Memorial Hall,"38 George Street, JANDOWAE, QLD Australia 4410",-26.77979023,151.11213684000001,QLD,Assisted,,08:00 AM - 06:00 PM,Callide
,Miles,Miles State High School,"17 Pine Street, Miles, QLD Australia 4415",-26.6561043,150.1846511,QLD,Full,,08:00 AM - 06:00 PM,Callide
,Monto,Monto State High School,"1 Mouatt Street, Monto, QLD Australia 4630",-24.8704362,151.1183647,QLD,Full,,08:00 AM - 06:00 PM,Callide
,Mount Perry,Mount Perry Community Hall,"62 Heusman Street, MOUNT PERRY, QLD Australia 4671",-25.17499861696236,151.64114519695892,QLD,None,Main front hall entry. Side hall entry to be used for accessibility ramp access.,08:00 AM - 06:00 PM,Callide
,Moura,Moura Tennis Club,"12 Nott Street, MOURA, QLD Australia 4718",-24.574023400000002,149.97548829999999,QLD,Assisted,,08:00 AM - 06:00 PM,Callide
,Mulgildie,Mulgildie State School,"2 Brigalow Street, MULGILDIE, QLD Australia 4630",-24.963368129999999,151.13450915000001,QLD,Full,,08:00 AM - 06:00 PM,Callide
,Mundubbera,Mundubbera CWA Hall,"79 Lyons Street, Mundubbera, QLD Australia 4626",-25.59058548543849,151.29779346990586,QLD,Assisted,,08:00 AM - 06:00 PM,Callide
,Taroom,Taroom State School,"5 Wolsey Street, Taroom, QLD Australia 4420",-25.6354432,149.7990161,QLD,Full,Taroom Street,08:00 AM - 06:00 PM,Callide
,Thangool,Thangool State School,"2 Aerodrome Road, THANGOOL, QLD Australia 4716",-24.491112609999998,150.57232618,QLD,Full,,08:00 AM - 06:00 PM,Callide
,Theodore,Theodore Memorial RSL Hall,"55 The Boulevard, Theodore, QLD Australia 4719",-24.9470562,150.0754359,QLD,Full,,08:00 AM - 06:00 PM,Callide
,Ubobo,Ubobo Memorial Hall,"Cnr Railway Terrace and Cedarvale Road, Ubobo, QLD Australia 4680",-24.406433133315865,151.32206386270445,QLD,Full,,08:00 AM - 06:00 PM,Callide
,Wallaville,Wallaville State School,"7 Grey Street, WALLAVILLE, QLD Australia 4671",-25.073425520000001,151.99735433000001,QLD,Full,,08:00 AM - 06:00 PM,Callide
,Wandoan,Wandoan State School,"49 North Street, WANDOAN, QLD Australia 4419",-26.118803679999999,149.96154428,QLD,Full,,08:00 AM - 06:00 PM,Callide
,Wowan,Wowan State School,"Don Street, WOWAN, QLD Australia 4702",-23.910482859999998,150.19373238,QLD,Full,,08:00 AM - 06:00 PM,Callide
,Baringa,Baringa State Primary School,"30 Baringa Drive, Bells Creek, QLD Australia 4551",-26.8081022,153.0825217,QLD,Full,,08:00 AM - 06:00 PM,Caloundra
,Beerwah,Beerwah & District Community Hall,"25 Peachester Road, BEERWAH, QLD Australia 4519",-26.8576862,152.9552865,QLD,Full,,08:00 AM - 06:00 PM,Caloundra
,Brisbane CBD,Brisbane City Hall.,"64 Adelaide Street, BRISBANE, QLD Australia 4000",-27.46870501779985,153.0238493466965,QLD,Full,Entry via Main Entrance in King George Square,08:00 AM - 06:00 PM,Caloundra
,Caloundra,CCSA Hall,"1 Nutley Street, CALOUNDRA, QLD Australia 4551",-26.802833,153.129637,QLD,Full,,08:00 AM - 06:00 PM,Caloundra
,Caloundra North,Caloundra State School,"56A Queen Street, Caloundra, QLD Australia 4551",-26.797156,153.1348509,QLD,Full,Regent Street,08:00 AM - 06:00 PM,Caloundra
,Caloundra West,Unity College,"47 Lomond Crescent, CALOUNDRA WEST, QLD Australia 4551",-26.802789999999998,153.088843,QLD,Full,,08:00 AM - 06:00 PM,Caloundra
,Currimundi,Currimundi State School,"17 Buderim Street, CURRIMUNDI, QLD Australia 4551",-26.7764823,153.1352652,QLD,Assisted,,08:00 AM - 06:00 PM,Caloundra
,Glenview,Glenview State School,"6 Leeding Road, GLENVIEW, QLD Australia 4551",-26.765889999999999,153.014205,QLD,Assisted,,08:00 AM - 06:00 PM,Caloundra
,Golden Beach,Golden Beach State School,"34 Gregory Street, GOLDEN BEACH, QLD Australia 4551",-26.813940639999998,153.11611176,QLD,Full,,08:00 AM - 06:00 PM,Caloundra
,Landsborough,Landsborough State School,"41 Gympie Street North, LANDSBOROUGH, QLD Australia 4551",-26.8040996,152.9641981,QLD,Assisted,,08:00 AM - 06:00 PM,Caloundra
,Pelican Waters,Caloundra City Private School,"200 Pelican Waters Boulevard, PELICAN WATERS, QLD Australia 4551",-26.824372369999999,153.10412765000001,QLD,Full,,08:00 AM - 06:00 PM,Caloundra
,Alexandra Hills,Alexandra Hills State School,"12 Princeton Avenue, ALEXANDRA HILLS, QLD Australia 4161",-27.518457689999998,153.22097271999999,QLD,Assisted,,08:00 AM - 06:00 PM,Capalaba
,Alexandra Park,Alexandra Hills State High School,"Windemere Road, ALEXANDRA HILLS, QLD Australia 4161",-27.523135999999997,153.21432899999999,QLD,Assisted,,08:00 AM - 06:00 PM,Capalaba
,Birkdale,Birkdale State School,"74 Agnes Street, BIRKDALE, QLD Australia 4159",-27.491515999999997,153.216328,QLD,Full,,08:00 AM - 06:00 PM,Capalaba
,Birkdale South,Birkdale School of Arts Hall,"101 Birkdale Road, Birkdale, QLD Australia 4159",-27.4960599,153.2131118,QLD,Assisted,,08:00 AM - 06:00 PM,Capalaba
,Brisbane CBD,Brisbane City Hall.,"64 Adelaide Street, BRISBANE, QLD Australia 4000",-27.46870501779985,153.0238493466965,QLD,Full,Entry via Main Entrance in King George Square,08:00 AM - 06:00 PM,Capalaba
,Capalaba,Capalaba State College - Multipurpose Hall,"School Road, Capalaba, QLD Australia 4157",-27.535390639770082,153.19110291716612,QLD,Full,,08:00 AM - 06:00 PM,Capalaba
,Coolnwynpin,Coolnwynpin State School,"Callaghan Way, CAPALABA, QLD Australia 4157",-27.547222222222,153.204166666666,QLD,Full,,08:00 AM - 06:00 PM,Capalaba
,Hilliard,Hilliard State School Hall,"106-110 Hanover Drive, ALEXANDRA HILLS, QLD Australia 4161",-27.542218999999999,153.23076800000001,QLD,Assisted,,08:00 AM - 06:00 PM,Capalaba
,Thorneside,Thorneside Community Hall,"200-204 Mooroondu Road, Thorneside, QLD Australia 4158",-27.486748,153.2065382,QLD,Full,,08:00 AM - 06:00 PM,Capalaba
,Vienna Woods,Vienna Woods State School,"12 Heffernan Road, ALEXANDRA HILLS, QLD Australia 4161",-27.527408999999999,153.22969699999999,QLD,Full,,08:00 AM - 06:00 PM,Capalaba
,Belmont,Belmont State School Hall,"1275 Old Cleveland Road, CARINDALE, QLD Australia 4152",-27.503955999999999,153.113823,QLD,Assisted,,08:00 AM - 06:00 PM,Chatsworth
,Brisbane CBD,Brisbane City Hall.,"64 Adelaide Street, BRISBANE, QLD Australia 4000",-27.46870501779985,153.0238493466965,QLD,Full,Entry via Main Entrance in King George Square,08:00 AM - 06:00 PM,Chatsworth
,Camp Hill,Carina Community Centre,"1 Edmond Street, Carina, QLD Australia 4152",-27.4929819,153.0917146,QLD,Full,,08:00 AM - 06:00 PM,Chatsworth
,Carina,Mayfield State School,"37 Paget Street, CARINA, QLD Australia 4152",-27.484369690000001,153.09210329999999,QLD,Assisted,,08:00 AM - 06:00 PM,Chatsworth
,Carindale,Carina State School,"1413 Creek Road, Carindale, QLD Australia 4152",-27.4934316,153.1022024,QLD,Full,Cuthred Street,08:00 AM - 06:00 PM,Chatsworth
,Greenmeadows,Living Faith Uniting Church,"330 Pine Mountain Road, Carina Heights, QLD Australia 4152",-27.5173860625461,153.09609576984641,QLD,Assisted,,08:00 AM - 06:00 PM,Chatsworth
,Gumdale,Gumdale State School,"677 New Cleveland Road, GUMDALE, QLD Australia 4154",-27.4917866,153.1516209,QLD,Full,access via Tilley Road and New Cleveland Road,08:00 AM - 06:00 PM,Chatsworth
,Tingalpa,Tingalpa State School,"1546 Wynnum Road, TINGALPA, QLD Australia 4173",-27.4734052,153.1267231,QLD,Full,Access via Tenbar Street,08:00 AM - 06:00 PM,Chatsworth
,Whites Hill,Regina Caeli Catholic Church Hall,"81 Waverley Road, Camp Hill, QLD Australia 4151",-27.4997932,153.073122,QLD,Assisted,"via 86 Greens Road, Coorparoo",08:00 AM - 06:00 PM,Chatsworth
,Ascot,Ascot State School,"Massey Street, ASCOT, QLD Australia 4007",-27.432955,153.05640700000001,QLD,None,,08:00 AM - 06:00 PM,Clayfield
,Brisbane CBD,Brisbane City Hall.,"64 Adelaide Street, BRISBANE, QLD Australia 4000",-27.46870501779985,153.0238493466965,QLD,Full,Entry via Main Entrance in King George Square,08:00 AM - 06:00 PM,Clayfield
,Clayfield East,Bar-Jai Community Centre,"178 Alexandra Road, CLAYFIELD, QLD Australia 4011",-27.418962000000001,153.05826200000001,QLD,Full,,08:00 AM - 06:00 PM,Clayfield
,Clayfield West,Clayfield Uniting Church Hall,"170 Bonney Avenue, CLAYFIELD, QLD Australia 4011",-27.418285999999998,153.047417,QLD,Assisted,,08:00 AM - 06:00 PM,Clayfield
,Gordon Park,St Carthage's Church Hall,"Cnr Aberdeen Terrace & Beaconsfield Street, GORDON PARK, QLD Australia 4031",-27.417633460000001,153.02505611999999,QLD,Assisted,,08:00 AM - 06:00 PM,Clayfield
,Hamilton,St Augustine's Anglican Church Hall,"56 Racecourse Road, HAMILTON, QLD Australia 4007",-27.43651259,153.06447922999999,QLD,Assisted,,08:00 AM - 06:00 PM,Clayfield
,Hendra,St John's Anglican Church Hall,"12 Burilda Street, HENDRA, QLD Australia 4011",-27.42196904,153.06778774,QLD,Full,,08:00 AM - 06:00 PM,Clayfield
,Hendra East,Hendra State School,"309 Nudgee Road, HENDRA, QLD Australia 4011",-27.421486999999999,153.07403600000001,QLD,Full,,08:00 AM - 06:00 PM,Clayfield
,Kalinga,St Anne's Catholic Church,"127 Nelson Street, Wooloowin, QLD Australia 4030",-27.408876060000001,153.0442822,QLD,Assisted,,08:00 AM - 06:00 PM,Clayfield
,Lutwyche,Holy Cross Catholic Primary School - Foster Pavilion,"40 Morris Street, WOOLOOWIN, QLD Australia 4030",-27.423936999999999,153.03968499999999,QLD,Full,,08:00 AM - 06:00 PM,Clayfield
,Windsor,Windsor State School,"Harris Street, WINDSOR, QLD Australia 4030",-27.43078015,153.02963733999999,QLD,Full,,08:00 AM - 06:00 PM,Clayfield
,Wooloowin,Wooloowin State School,"663 Lutwyche Road, Wooloowin, QLD Australia 4030",-27.4176714,153.0366271,QLD,None,,08:00 AM - 06:00 PM,Clayfield
,Biddeston,Biddeston State School,"2425 Toowoomba-Cecil Plains Road, BIDDESTON, QLD Australia 4401",-27.555045,151.69752599999998,QLD,Full,,08:00 AM - 06:00 PM,Condamine
,Bowenville,Bowenville State School,"2 Irvingdale Road, BOWENVILLE, QLD Australia 4404",-27.304300000000001,151.49428,QLD,Full,,08:00 AM - 06:00 PM,Condamine
,Brisbane CBD,Brisbane City Hall.,"64 Adelaide Street, BRISBANE, QLD Australia 4000",-27.46870501779985,153.0238493466965,QLD,Full,Entry via Main Entrance in King George Square,08:00 AM - 06:00 PM,Condamine
,Cambooya,Cambooya State School,"6 Harrow Street, CAMBOOYA, QLD Australia 4358",-27.709065290000002,151.8669802,QLD,Assisted,,08:00 AM - 06:00 PM,Condamine
,Clifton,Clifton State School,"1 Tooth Street, CLIFTON, QLD Australia 4361",-27.930915070000001,151.90465986999999,QLD,Assisted,,08:00 AM - 06:00 PM,Condamine
,Crows Nest,Crows Nest State School,"1 Littleton Street, Crows Nest, QLD Australia 4355",-27.2652918,152.05102160000001,QLD,Full,,08:00 AM - 06:00 PM,Condamine
,Drayton,Drayton State School,"55 Brisbane Street, Drayton, QLD Australia 4350",-27.6023348,151.9113937,QLD,Assisted,Darling Street,08:00 AM - 06:00 PM,Condamine
,Emu Creek,Emu Creek State School,"14534 New England Highway, GREENMOUNT EAST, QLD Australia 4359",-27.783714190000001,151.94476961999999,QLD,None,,08:00 AM - 06:00 PM,Condamine
,Geham,Geham State School,"9625 New England Highway, GEHAM, QLD Australia 4352",-27.406914010000001,151.99644506000001,QLD,Full,,08:00 AM - 06:00 PM,Condamine
,Glenvale,Glenvale State School,"224 Glenvale Road, TOOWOOMBA, QLD Australia 4350",-27.56304068,151.90300762999999,QLD,Assisted,,08:00 AM - 06:00 PM,Condamine
,Goombungee,Goombungee State School,"52 Mocatta Street, GOOMBUNGEE, QLD Australia 4354",-27.302141120000002,151.85281277000001,QLD,Assisted,,08:00 AM - 06:00 PM,Condamine
,Gowrie,Gowrie State School,"22 Old Homebush Road, GOWRIE, QLD Australia 4352",-27.4918114,151.892346,QLD,Full,,08:00 AM - 06:00 PM,Condamine
,Haden,Haden State School,"1520 Haden-Crows Nest Road, HADEN, QLD Australia 4352",-27.223737379999999,151.88940346000001,QLD,Full,,08:00 AM - 06:00 PM,Condamine
,Jondaryan,Jondaryan State School,"10 Scott Road, JONDARYAN, QLD Australia 4403",-27.37295825,151.58558428000001,QLD,Full,,08:00 AM - 06:00 PM,Condamine
,Kingsthorpe,Kingsthorpe State School,"50 Goombungee Road, KINGSTHORPE, QLD Australia 4400",-27.47179577,151.81450545999999,QLD,Assisted,,08:00 AM - 06:00 PM,Condamine
,Kulpi,Kulpi Hall,"1 Beckman Street, Kulpi, QLD Australia 4352",-27.1874258,151.7003367,QLD,Full,,08:00 AM - 06:00 PM,Condamine
,Meringandan,Meringandan State School,"10 School Road, MERINGANDAN, QLD Australia 4352",-27.43095659702319,151.90447307221373,QLD,Assisted,,08:00 AM - 06:00 PM,Condamine
,Middle Ridge,Middle Ridge State School,"203 Spring Street, TOOWOOMBA, QLD Australia 4350",-27.60136387,151.95607781000001,QLD,Full,,08:00 AM - 06:00 PM,Condamine
,Mount Tyson,Mount Tyson State School,"Main Street, MOUNT TYSON, QLD Australia 4356",-27.574386879999999,151.57019912999999,QLD,Full,,08:00 AM - 06:00 PM,Condamine
,Nobby,Nobby State School,"4 Davenport Street, NOBBY, QLD Australia 4360",-27.85231422333328,151.90580865767214,QLD,Full,,08:00 AM - 06:00 PM,Condamine
,Oakey,Oakey State High School,"1 Campbell Street, OAKEY, QLD Australia 4401",-27.444507999999999,151.718706,QLD,Full,,08:00 AM - 06:00 PM,Condamine
,Perseverance,Perseverance Hall,"10 Perseverance Hall Road, PERSEVERANCE, QLD Australia 4352",-27.3844937,152.1172583,QLD,Assisted,,08:00 AM - 06:00 PM,Condamine
,Pilton,Pilton State School,"24 Pilton Valley Road, PILTON, QLD Australia 4361",-27.868216579999999,152.04966544999999,QLD,Full,,08:00 AM - 06:00 PM,Condamine
,Pittsworth,St Andrew's Anglican Church Hall,"18 Murray Street, Pittsworth, QLD Australia 4356",-27.7180174,151.6371182,QLD,Full,,08:00 AM - 06:00 PM,Condamine
,Quinalow,Quinalow State School,"7 Progress Street, Quinalow, QLD Australia 4403",-27.1103952,151.6226586,QLD,Full,,08:00 AM - 06:00 PM,Condamine
,Southbrook,Southbrook Central State School,"1 School Road, SOUTHBROOK, QLD Australia 4352",-27.678036550000002,151.70361757000001,QLD,Full,,08:00 AM - 06:00 PM,Condamine
,Wellcamp,Wellcamp State School Community Hall,"609 Drayton-Wellcamp Road, WELLCAMP, QLD Australia 4350",-27.554034999999999,151.85081299999999,QLD,Full,,08:00 AM - 06:00 PM,Condamine
,Westbrook,Bunkers Hill State School,"315 Bunkers Hill School Road, WESTBROOK, QLD Australia 4350",-27.60627217,151.83375298999999,QLD,Full,,08:00 AM - 06:00 PM,Condamine
,Wyreema,Wyreema State School,"12 High Street, WYREEMA, QLD Australia 4352",-27.658638230000001,151.85507923,QLD,Full,,08:00 AM - 06:00 PM,Condamine
,Aurukun,Wo'uw Ko'alam Community Centre,"Cnr Tal Tal Street and MacKenzie Drive, AURUKUN, QLD Australia 4892",-13.362643986109187,141.72690409999998,QLD,Full,,08:00 AM - 06:00 PM,Cook
,Bamaga,NPA State College - Bamaga Junior Campus,"Anu Crescent, Bamaga, QLD Australia 4876",-10.8894495,142.3896011,QLD,Assisted,,08:00 AM - 06:00 PM,Cook
,Biboohra,Biboohra State School,"2 Petersen Street, BIBOOHRA, QLD Australia 4880",-16.916204999999998,145.41871499999999,QLD,Assisted,"Gate: Petersen street, Gleddon Street",08:00 AM - 06:00 PM,Cook
,Brisbane CBD,Brisbane City Hall.,"64 Adelaide Street, BRISBANE, QLD Australia 4000",-27.46870501779985,153.0238493466965,QLD,Full,Entry via Main Entrance in King George Square,08:00 AM - 06:00 PM,Cook
,Chillagoe,Chillagoe State School,"9 Cathedral Street, CHILLAGOE, QLD Australia 4871",-17.155497999999998,144.52092199999998,QLD,Assisted,,08:00 AM - 06:00 PM,Cook
,Coen,JS Love Hall,"56 Taylor Street, Coen, QLD Australia 4892",-13.9450907,143.2033336,QLD,Full,,08:00 AM - 06:00 PM,Cook
,Cooktown,Cooktown Shire Hall,"42 Helen Street, Cooktown, QLD Australia 4895",-15.4705536,145.2501345,QLD,Assisted,,08:00 AM - 06:00 PM,Cook
,Daintree,Daintree State School,"3-7 Osborne Street, DAINTREE, QLD Australia 4873",-16.249794902800001,145.3207441328,QLD,Full,,08:00 AM - 06:00 PM,Cook
,Diwan,Alexandra Bay State School,"1630 Cape Tribulation Road, DIWAN, QLD Australia 4873",-16.21416464,145.4225117,QLD,Full,,08:00 AM - 06:00 PM,Cook
,Hope Vale,The Meeting Room - Hope Vale Aboriginal Shire Council,"33 Muni Street, Hope Vale, QLD Australia 4895",-15.2948309,145.1102769,QLD,Full,,08:00 AM - 06:00 PM,Cook
,Horn Island,Horn Island Sports Complex,"43 Nawie Street, Horn Island, QLD Australia 4875",-10.59240395,142.25174903999999,QLD,Assisted,,08:00 AM - 06:00 PM,Cook
,Julatten,Julatten State School,"1141 Euluma Creek Road, JULATTEN, QLD Australia 4871",-16.607581209999999,145.34271061000001,QLD,Full,,08:00 AM - 06:00 PM,Cook
,Kowanyama,Kowanyama State School,"345 Kowanyama Street, KOWANYAMA, QLD Australia 4892",-15.471666666666,141.74472222222198,QLD,Full,,08:00 AM - 06:00 PM,Cook
,Lockhart River,Lockhart State School,"Puchewoo Street, LOCKHART RIVER, QLD Australia 4892",-12.94091025949683,143.3906198264022,QLD,Assisted,,08:00 AM - 06:00 PM,Cook
,Mareeba,Mareeba State School,"3/37 Constance Street, MAREEBA, QLD Australia 4880",-16.99197907563088,145.42488415078736,QLD,Full,,08:00 AM - 06:00 PM,Cook
,Miallo,Miallo State School,"138 Miallo Bamboo Creek Road, MIALLO, QLD Australia 4873",-16.388678,145.3774004,QLD,Assisted,,08:00 AM - 06:00 PM,Cook
,Mobile Team 1,Remote Area Mobile Polling Team 1,"Mobile Polling, Cook, QLD Australia 4895",-15.9452239,145.3186989,QLD,None,,08:00 AM - 06:00 PM,Cook
,Mobile Team 4,Remote Area Mobile Polling Team 4,"Mobile Polling (Mapoon), COOK, QLD Australia 4874",-11.8631882,142.1830689,QLD,None,,08:00 AM - 06:00 PM,Cook
,Mossman,Mossman State School,"30 - 34 Front Street, MOSSMAN, QLD Australia 4873",-16.46218,145.37390299999998,QLD,Assisted,,08:00 AM - 06:00 PM,Cook
,Napranum,Suzie Madua Conference Hall,"320 Wa-Tyne Street, NAPRANUM, QLD Australia 4874",-12.683293409999999,141.88752650999999,QLD,Assisted,,08:00 AM - 06:00 PM,Cook
,Pormpuraaw,Pormpuraaw Justice Building,"24 Yalu Street, PORMPURAAW, QLD Australia 4892",-14.8989859,141.62005662999999,QLD,Full,,08:00 AM - 06:00 PM,Cook
,Port Douglas,Port Douglas Community Hall,"13 - 29 Mowbray Street, Port Douglas, QLD Australia 4877",-16.4855574,145.4633861,QLD,Full,,08:00 AM - 06:00 PM,Cook
,Port Kennedy,Port Kennedy Hall,"64-66 Douglas Street, THURSDAY ISLAND, QLD Australia 4875",-10.58369809,142.22005068999999,QLD,Assisted,,08:00 AM - 06:00 PM,Cook
,Tamwoy Town,Tamwoy Town Hall,"Olandi Street, Thursday Island, QLD Australia 4875",-10.5792277,142.2104282,QLD,Full,,08:00 AM - 06:00 PM,Cook
,Weipa North,Weipa Storm Surge Shelter.,"6 Hibberd Drive, Rocky Point, QLD Australia 4874",-12.621401,141.8777316,QLD,Assisted,,08:00 AM - 06:00 PM,Cook
,Wonga,Wonga Beach State School,"48 Snapper Island Drive, WONGA BEACH, QLD Australia 4873",-16.341974,145.412993,QLD,Full,,08:00 AM - 06:00 PM,Cook
,Wujal Wujal,Wujal Wujal Aboriginal Shire Council - Training Room,"1 Hartwig Street, WUJAL WUJAL, QLD Australia 4895",-15.9434787,145.3187296,QLD,Full,,08:00 AM - 06:00 PM,Cook
,Alberton,St Peter's Lutheran Church Hall,"187 Alberton Road, ALBERTON, QLD Australia 4207",-27.703204589999999,153.25669169,QLD,Full,,08:00 AM - 06:00 PM,Coomera
,Brisbane CBD,Brisbane City Hall.,"64 Adelaide Street, BRISBANE, QLD Australia 4000",-27.46870501779985,153.0238493466965,QLD,Full,Entry via Main Entrance in King George Square,08:00 AM - 06:00 PM,Coomera
,Cedar Creek,Cedar Creek State School,"1a Chardon Bridge Road, CEDAR CREEK, QLD Australia 4207",-27.8280975,153.1783142,QLD,Full,,08:00 AM - 06:00 PM,Coomera
,Coomera,Coomera State School,"Beattie Road, COOMERA, QLD Australia 4209",-27.867715999999998,153.31643400000002,QLD,Full,,08:00 AM - 06:00 PM,Coomera
,Coomera North,Coomera Rivers State School,"81 - 87 Finnegan Way, COOMERA, QLD Australia 4209",-27.845122,153.326235,QLD,Full,,08:00 AM - 06:00 PM,Coomera
,Coomera Springs,Coomera Springs State School,"225 Old Coach Road, UPPER COOMERA, QLD Australia 4209",-27.847071999999997,153.299609,QLD,Full,,08:00 AM - 06:00 PM,Coomera
,Jacobs Well,Jacobs Well Community Centre,"27 Bay Street, JACOBS WELL, QLD Australia 4208",-27.779830999999998,153.36505599999998,QLD,Assisted,,08:00 AM - 06:00 PM,Coomera
,Norfolk Village,Norfolk Village State School,"83 Halfway Drive, ORMEAU, QLD Australia 4208",-27.773025730000001,153.24486852000001,QLD,Full,,08:00 AM - 06:00 PM,Coomera
,Ormeau,Ormeau State School,"29 Mirambeena Drive, PIMPAMA, QLD Australia 4209",-27.800366999999998,153.27657500000001,QLD,Full,,08:00 AM - 06:00 PM,Coomera
,Ormeau Woods,Ormeau Woods State High School,"148 Goldmine Road, ORMEAU, QLD Australia 4208",-27.771388888888001,153.26472222222199,QLD,Full,,08:00 AM - 06:00 PM,Coomera
,Pimpama,Pimpama State School,"9 Hotham Creek Road, PIMPAMA, QLD Australia 4209",-27.817025810000001,153.27816010000001,QLD,Full,,08:00 AM - 06:00 PM,Coomera
,Pimpama East,Pimpama State Primary College,"Cnr Dixon Drive & Cunningham Drive North, PIMPAMA, QLD Australia 4209",-27.834254640000001,153.32297449000001,QLD,Full,Dixon Drive,08:00 AM - 06:00 PM,Coomera
,Upper Coomera North,Upper Coomera State College,"137 Reserve Road, UPPER COOMERA, QLD Australia 4209",-27.86973884,153.29806209,QLD,Full,,08:00 AM - 06:00 PM,Coomera
,Woongoolba,Woongoolba State School,"1219 Stapylton-Jacobs Well Road, WOONGOOLBA, QLD Australia 4207",-27.74453862,153.31904233,QLD,Full,,08:00 AM - 06:00 PM,Coomera
,Ashgrove,St Finbarr's Hall,"Beth Eden Terrace, ASHGROVE, QLD Australia 4060",-27.445933,152.99412899999999,QLD,Assisted,,08:00 AM - 06:00 PM,Cooper
,Ashgrove West,Ashgrove State School Hall,"31 Glory Street, ASHGROVE, QLD Australia 4060",-27.44800038,152.97625869999999,QLD,Full,,08:00 AM - 06:00 PM,Cooper
,Bardon,St Joseph's Church Hall,"41 The Drive, BARDON, QLD Australia 4065",-27.458586,152.980265,QLD,Full,Access via Cecil Road,08:00 AM - 06:00 PM,Cooper
,Brisbane CBD,Brisbane City Hall.,"64 Adelaide Street, BRISBANE, QLD Australia 4000",-27.46870501779985,153.0238493466965,QLD,Full,Entry via Main Entrance in King George Square,08:00 AM - 06:00 PM,Cooper
,Ithaca Creek,Ithaca Creek State School,"Dacca Street, BARDON, QLD Australia 4065",-27.4512018,152.99228489000001,QLD,Full,,08:00 AM - 06:00 PM,Cooper
,Kelvin Grove,Kelvin Grove State College Junior School Hall,"L'Estrange Terrace, KELVIN GROVE, QLD Australia 4059",-27.4486647,153.0132739,QLD,Full,Access via gates 4 & 5,08:00 AM - 06:00 PM,Cooper
,Milton,Lavalla Centre,"58 Fernberg Road, PADDINGTON, QLD Australia 4064",-27.4638578,152.99931340000001,QLD,Full,,08:00 AM - 06:00 PM,Cooper
,Newmarket South,St Ambrose's School - Bolton Centre,"23 Davidson Street, NEWMARKET, QLD Australia 4051",-27.4403488,153.0059739,QLD,Full,,08:00 AM - 06:00 PM,Cooper
,Paddington,Brisbane West Senior Citizens Club,"132 Latrobe Terrace, PADDINGTON, QLD Australia 4064",-27.458798999999999,152.996061,QLD,Full,,08:00 AM - 06:00 PM,Cooper
,Petrie Terrace,Petrie Terrace State School,"40 Moreton Street, PADDINGTON, QLD Australia 4064",-27.460221999999998,153.00981400000001,QLD,Full,,08:00 AM - 06:00 PM,Cooper
,Red Hill,Ithaca Presbyterian Church Hall,"100 Enoggera Terrace, Paddington, QLD Australia 4064",-27.4568827,153.0016281,QLD,Assisted,Driveway from Enoggera Terrace. Walk down driveway to hall entrance on left hand side.,08:00 AM - 06:00 PM,Cooper
,The Gap,The Gap State School,"Cnr Waterworks & Settlement Roads, THE GAP, QLD Australia 4061",-27.442987410000001,152.94486076000001,QLD,Assisted,,08:00 AM - 06:00 PM,Cooper
,The Gap East,Payne Road State School,"171 Payne Road, THE GAP, QLD Australia 4061",-27.44826935,152.95109689,QLD,Full,,08:00 AM - 06:00 PM,Cooper
,The Gap West,Hilder Road State School,"Kaloma Road, THE GAP, QLD Australia 4061",-27.43698869,152.93716817999999,QLD,Full,,08:00 AM - 06:00 PM,Cooper
,Brisbane CBD,Brisbane City Hall.,"64 Adelaide Street, BRISBANE, QLD Australia 4000",-27.46870501779985,153.0238493466965,QLD,Full,Entry via Main Entrance in King George Square,08:00 AM - 06:00 PM,Currumbin
,Coolangatta,Coolangatta Senior Citizens Centre,"2 Gerrard Street, COOLANGATTA, QLD Australia 4225",-28.169646,153.540108,QLD,Full,,08:00 AM - 06:00 PM,Currumbin
,Currumbin,Currumbin State School,"6 Philip Street, CURRUMBIN, QLD Australia 4223",-28.138477219999999,153.47778618000001,QLD,Assisted,,08:00 AM - 06:00 PM,Currumbin
,Currumbin Valley,Currumbin Valley State School,"1223 Currumbin Creek Road, CURRUMBIN VALLEY, QLD Australia 4223",-28.206630029999999,153.3944875,QLD,Assisted,,08:00 AM - 06:00 PM,Currumbin
,Currumbin Waters,Elanora Community Centre,"26 Galleon Way, CURRUMBIN WATERS, QLD Australia 4223",-28.142781800000002,153.46044838,QLD,Assisted,,08:00 AM - 06:00 PM,Currumbin
,Elanora,Elanora State School,"K P McGrath Drive, ELANORA, QLD Australia 4221",-28.129640999999999,153.46534700000001,QLD,Assisted,,08:00 AM - 06:00 PM,Currumbin
,Elanora West,Elanora State High School,"Cnr Avocado Street and Nineteenth Avenue, ELANORA, QLD Australia 4221",-28.129157930000002,153.45013261,QLD,Assisted,,08:00 AM - 06:00 PM,Currumbin
,Kirra,Coolangatta State School,"Stapylton Street, KIRRA, QLD Australia 4225",-28.171535240000001,153.52912903000001,QLD,Full,,08:00 AM - 06:00 PM,Currumbin
,Palm Beach South,Palm Beach Currumbin State High School,"Thrower Drive, PALM BEACH, QLD Australia 4221",-28.131958529999999,153.47499669000001,QLD,Full,,08:00 AM - 06:00 PM,Currumbin
,Tallebudgera,Tallebudgera State School,"492 Guineas Creek Road, TALLEBUDGERA, QLD Australia 4228",-28.141262999999999,153.42941200000001,QLD,Full,School hall is located on Guineas Creek road. Car park for the Hall is directly in front of the hall,08:00 AM - 06:00 PM,Currumbin
,Tallebudgera Valley,Tallebudgera Valley Community Centre,"611 Tallebudgera Creek Road, TALLEBUDGERA VALLEY, QLD Australia 4228",-28.152121189999999,153.40235709999999,QLD,Full,,08:00 AM - 06:00 PM,Currumbin
,Tugun,Tugun Village Community Centre,"414 Coolangatta Road, Tugun, QLD Australia 4224",-28.150237234849286,153.49961839615628,QLD,Full,,08:00 AM - 06:00 PM,Currumbin
,Albany Creek North,Albany Creek State School,"696 Albany Creek Road, ALBANY CREEK, QLD Australia 4035",-27.346206410000001,152.97049999000001,QLD,Full,,08:00 AM - 06:00 PM,Everton
,Albany Creek South,Albany Creek State High School,"2-14 Albany Forest Drive, ALBANY CREEK, QLD Australia 4035",-27.357458999999999,152.96919800000001,QLD,Full,Gate 1 - Accessed via bus bay from Albany Forest Drive,08:00 AM - 06:00 PM,Everton
,Albany Hills,Albany Hills State School,"Cnr Keong & Old Northern Roads, ALBANY CREEK, QLD Australia 4035",-27.359800999999997,152.97384199999999,QLD,Full,,08:00 AM - 06:00 PM,Everton
,Arana,Hills District PCYC,"135a Olearia Street West, Everton Hills, QLD Australia 4053",-27.395853,152.9627227,QLD,Full,,08:00 AM - 06:00 PM,Everton
,Brisbane CBD,Brisbane City Hall.,"64 Adelaide Street, BRISBANE, QLD Australia 4000",-27.46870501779985,153.0238493466965,QLD,Full,Entry via Main Entrance in King George Square,08:00 AM - 06:00 PM,Everton
,Bunya,Kakowan Community Centre,"2 Pine Hills Drive, Bunya, QLD Australia 4055",-27.3798535,152.9480302,QLD,Full,,08:00 AM - 06:00 PM,Everton
,Eatons Hill,Eatons Hill State School,"9-21 Marylin Terrace, EATONS HILL, QLD Australia 4037",-27.3359618,152.9572896,QLD,Full,entry via Apex Grove,08:00 AM - 06:00 PM,Everton
,Enoggera,St John the Baptist Catholic Church Hall,"131 South Pine Road, Enoggera, QLD Australia 4051",-27.4195317,152.9993288,QLD,Full,,08:00 AM - 06:00 PM,Everton
,Everton Hills,Hills Church,"79 Queens Road, EVERTON HILLS, QLD Australia 4053",-27.385349189999999,152.98154771,QLD,Full,,08:00 AM - 06:00 PM,Everton
,Everton Park North,Everton Park State School,"15 Deakin Street, EVERTON PARK, QLD Australia 4053",-27.398270069999999,152.98582612999999,QLD,Full,,08:00 AM - 06:00 PM,Everton
,McDowall,McDowall State School,"1018 Rode Road, MCDOWALL, QLD Australia 4053",-27.388201290000001,152.98951149000001,QLD,Full,,08:00 AM - 06:00 PM,Everton
,Oxford Park,Grovely Scout Hall,"170 Blaker Road, OXFORD PARK, QLD Australia 4053",-27.404192309999999,152.96539842999999,QLD,Assisted,,08:00 AM - 06:00 PM,Everton
,South Pine,The Crossing Church,"12 Eatons Crossing Road, Warner, QLD Australia 4500",-27.3361168,152.9603432,QLD,Full,,08:00 AM - 06:00 PM,Everton
,Brisbane CBD,Brisbane City Hall.,"64 Adelaide Street, BRISBANE, QLD Australia 4000",-27.46870501779985,153.0238493466965,QLD,Full,Entry via Main Entrance in King George Square,08:00 AM - 06:00 PM,Ferny Grove
,Bunya,Kakowan Community Centre,"2 Pine Hills Drive, Bunya, QLD Australia 4055",-27.3798535,152.9480302,QLD,Full,,08:00 AM - 06:00 PM,Ferny Grove
,Dorrington,Oakleigh State School,"Buxton Street, ASHGROVE, QLD Australia 4060",-27.435917,152.985657,QLD,Full,,08:00 AM - 06:00 PM,Ferny Grove
,Enoggera South,St John's Anglican Church Hall,"187 Wardell Street, ENOGGERA, QLD Australia 4051",-27.429501999999999,152.98975899999999,QLD,Full,,08:00 AM - 06:00 PM,Ferny Grove
,Ferny Grove,Ferny Grove State School Hall,"Finvoy Street, FERNY GROVE, QLD Australia 4055",-27.403813,152.92981,QLD,Full,,08:00 AM - 06:00 PM,Ferny Grove
,Ferny Grove West,St Andrew's Primary School,"89 Hogarth Road, FERNY GROVE, QLD Australia 4055",-27.408942740000001,152.92596996,QLD,Full,,08:00 AM - 06:00 PM,Ferny Grove
,Ferny Hills,Ferny Hills State School,"Illuta Avenue, FERNY HILLS, QLD Australia 4055",-27.401391999999998,152.944254,QLD,Full,Access via Ferny Way,08:00 AM - 06:00 PM,Ferny Grove
,Ferny Hills North,Patricks Road State School,"238-256 Patricks Road, FERNY HILLS, QLD Australia 4055",-27.393333333333,152.93388888888802,QLD,Full,,08:00 AM - 06:00 PM,Ferny Grove
,Gaythorne,Mitchelton & District Senior Citizens Centre,"30 Tel-El-Kebir Street, Mitchelton, QLD Australia 4053",-27.416651399999999,152.97833589999999,QLD,Full,,08:00 AM - 06:00 PM,Ferny Grove
,Grovely,Grovely State School,"200 Dawson Parade, GROVELY, QLD Australia 4054",-27.401602999999998,152.96112399999998,QLD,Assisted,,08:00 AM - 06:00 PM,Ferny Grove
,Keperra,Keperra Baptist Church Hall,"980 Samford Road, KEPERRA, QLD Australia 4054",-27.414921549999999,152.95546888999999,QLD,Full,,08:00 AM - 06:00 PM,Ferny Grove
,Mitchelton South,Mitchelton State School,"47 Glen Retreat Road, MITCHELTON, QLD Australia 4053",-27.412778639999999,152.96948879999999,QLD,Assisted,,08:00 AM - 06:00 PM,Ferny Grove
,Newmarket,Newmarket State School,"15 Banks Street, NEWMARKET, QLD Australia 4051",-27.431915709999998,153.00404638000001,QLD,Assisted,,08:00 AM - 06:00 PM,Ferny Grove
,Oxford Park,Grovely Scout Hall,"170 Blaker Road, OXFORD PARK, QLD Australia 4053",-27.404192309999999,152.96539842999999,QLD,Assisted,,08:00 AM - 06:00 PM,Ferny Grove
,Brisbane CBD,Brisbane City Hall.,"64 Adelaide Street, BRISBANE, QLD Australia 4000",-27.46870501779985,153.0238493466965,QLD,Full,Entry via Main Entrance in King George Square,08:00 AM - 06:00 PM,Gaven
,Carrara,Emmanuel College,"17 Birmingham Road, CARRARA, QLD Australia 4211",-28.01690571,153.37041736,QLD,Full,,08:00 AM - 06:00 PM,Gaven
,Highland Park,William Duncan State School,"Explorers Way, HIGHLAND PARK, QLD Australia 4211",-28.013261,153.3339,QLD,Full,,08:00 AM - 06:00 PM,Gaven
,Nerang,Nerang Bicentennial Community Centre,"833 Southport-Nerang Road, NERANG, QLD Australia 4211",-27.984088,153.33937599999999,QLD,Full,,08:00 AM - 06:00 PM,Gaven
,Nerang South,PCYC Nerang,"33 Cayuga Road, NERANG, QLD Australia 4211",-28.004253389999999,153.33923935999999,QLD,Full,,08:00 AM - 06:00 PM,Gaven
,Nerang West,Nerang State High School,"1-35 Weedons Road, NERANG, QLD Australia 4211",-28.000059999999998,153.32888500000001,QLD,Full,,08:00 AM - 06:00 PM,Gaven
,Pacific Pines,Pacific Pines Primary School,"47-67 Santa Isobel Boulevard, PACIFIC PINES, QLD Australia 4211",-27.9394369,153.3200657,QLD,Full,,08:00 AM - 06:00 PM,Gaven
,Pacific Pines North,Jubilee Primary School,"34 Manra Way, PACIFIC PINES, QLD Australia 4211",-27.927349999999997,153.31565999999998,QLD,Full,,08:00 AM - 06:00 PM,Gaven
,Worongary,Worongary State School,"2 Delta Cove Drive, WORONGARY, QLD Australia 4213",-28.022561999999997,153.34276499999999,QLD,Full,,08:00 AM - 06:00 PM,Gaven
,Benaraby,Benaraby State School,"17 O'Connor Road, BENARABY, QLD Australia 4680",-24.003949479999999,151.32391870000001,QLD,Full,,08:00 AM - 06:00 PM,Gladstone
,Boyne Island,Boyne Island Community Centre,"Cnr Wyndham and Hayes Avenues, BOYNE ISLAND, QLD Australia 4680",-23.945845980000001,151.35373414,QLD,Full,,08:00 AM - 06:00 PM,Gladstone
,Brisbane CBD,Brisbane City Hall.,"64 Adelaide Street, BRISBANE, QLD Australia 4000",-27.46870501779985,153.0238493466965,QLD,Full,Entry via Main Entrance in King George Square,08:00 AM - 06:00 PM,Gladstone
,Chanel,Chanel College Marian Centre,"11 Paterson Street, GLADSTONE, QLD Australia 4680",-23.86652046086485,151.24297499650817,QLD,Full,,08:00 AM - 06:00 PM,Gladstone
,Clinton,Clinton State School,"224 Harvey Road, CLINTON, QLD Australia 4680",-23.879669,151.22187,QLD,Assisted,,08:00 AM - 06:00 PM,Gladstone
,Gladstone Central,Gladstone Central State School,"74 Auckland Street, GLADSTONE, QLD Australia 4680",-23.8416633,151.25820726000001,QLD,Full,,08:00 AM - 06:00 PM,Gladstone
,Gladstone South,Gladstone South State School,"153 Toolooa Street, GLADSTONE, QLD Australia 4680",-23.861806999999999,151.269633,QLD,Assisted,,08:00 AM - 06:00 PM,Gladstone
,Gladstone West,Gladstone West State School,"Cnr Boles & Breslin Streets, GLADSTONE WEST, QLD Australia 4680",-23.859306999999998,151.25157400000001,QLD,Full,,08:00 AM - 06:00 PM,Gladstone
,Kin Kora,Gladstone Uniting Church,"1 Uniting Place, Telina, QLD Australia 4680",-23.887844164254187,151.25920286508182,QLD,Full,Dixon Drive,08:00 AM - 06:00 PM,Gladstone
,Mount Larcom,Mount Larcom State School,"Raglan Street, MOUNT LARCOM, QLD Australia 4695",-23.807368636488857,150.97447246046963,QLD,Assisted,,08:00 AM - 06:00 PM,Gladstone
,Seaview,St Peter's Anglican Church,"50 J Hickey Avenue, CLINTON, QLD Australia 4680",-23.8793694,151.2191235,QLD,Full,,08:00 AM - 06:00 PM,Gladstone
,Tannum Sands,Tannum Sands State High School,"65 Coronation Drive, TANNUM SANDS, QLD Australia 4680",-23.95945025,151.36520863000001,QLD,Full,Front gate,08:00 AM - 06:00 PM,Gladstone
,Yarwun,Yarwun State School,"35 Butler Street, YARWUN, QLD Australia 4694",-23.84705314,151.12590194000001,QLD,Full,,08:00 AM - 06:00 PM,Gladstone
,Beerburrum,Beerburrum School of Arts Hall,"7 Anzac Avenue, BEERBURRUM, QLD Australia 4517",-26.959229000000001,152.95707199999998,QLD,Full,,08:00 AM - 06:00 PM,Glass House
,Beerwah,Beerwah & District Community Hall,"25 Peachester Road, BEERWAH, QLD Australia 4519",-26.8576862,152.9552865,QLD,Full,,08:00 AM - 06:00 PM,Glass House
,Brisbane CBD,Brisbane City Hall.,"64 Adelaide Street, BRISBANE, QLD Australia 4000",-27.46870501779985,153.0238493466965,QLD,Full,Entry via Main Entrance in King George Square,08:00 AM - 06:00 PM,Glass House
,Conondale,Conondale State School,"1700 Maleny-Kenilworth Road, CONONDALE, QLD Australia 4552",-26.729069989999999,152.71868885000001,QLD,Assisted,,08:00 AM - 06:00 PM,Glass House
,Delaneys Creek,Delaneys Creek Community Hall,"219 Mount Mee Road, Delaneys Creek, QLD Australia 4514",-27.0018784,152.7879144,QLD,Full,,08:00 AM - 06:00 PM,Glass House
,Elimbah,Elimbah State School,"10-20 School Road, ELIMBAH, QLD Australia 4516",-27.012826999999998,152.942193,QLD,Full,,08:00 AM - 06:00 PM,Glass House
,Eudlo,Eudlo Hall,"19 Rosebed Street, Eudlo, QLD Australia 4554",-26.7259233,152.9584508,QLD,Assisted,,08:00 AM - 06:00 PM,Glass House
,Glass House Mountains,Glass House Mountains State School Hall,"58 Coonowrin Road, Glass House Mountains, QLD Australia 4518",-26.905284399999999,152.94996140000001,QLD,Assisted,,08:00 AM - 06:00 PM,Glass House
,Maleny,Maleny State High School,"50 Bunya Street, MALENY, QLD Australia 4552",-26.76624,152.858609,QLD,Full,,08:00 AM - 06:00 PM,Glass House
,Montville,Montville Village Hall,"137 Memorial Close, Montville, QLD Australia 4560",-26.6880885,152.8928572,QLD,Full,,08:00 AM - 06:00 PM,Glass House
,Mooloolah,Mooloolah State School,"48 King Road, MOOLOOLAH VALLEY, QLD Australia 4553",-26.768507999999997,152.95724799999999,QLD,Full,Pedestrian gate - front of school (Kind road),08:00 AM - 06:00 PM,Glass House
,Morayfield West,Minimbah State School,"Cnr Walkers Road & Minimbah Drive, MORAYFIELD, QLD Australia 4506",-27.11005844,152.92466640000001,QLD,Full,,08:00 AM - 06:00 PM,Glass House
,Mount Mee,Mount Mee State School,"1368 Mount Mee Road, Mount Mee, QLD Australia 4521",-27.0804097,152.7710395,QLD,Full,Second gate next to E block,08:00 AM - 06:00 PM,Glass House
,Peachester,Peachester Community Hall,"960 Peachester Road, PEACHESTER, QLD Australia 4519",-26.843888889999999,152.88305556,QLD,Full,,08:00 AM - 06:00 PM,Glass House
,Upper Caboolture,Upper Caboolture Farmers Assembly Hall,"704 Caboolture River Road, UPPER CABOOLTURE, QLD Australia 4510",-27.117700639999999,152.88620889000001,QLD,Full,,08:00 AM - 06:00 PM,Glass House
,Wamuran,Wamuran Community Hall,"1046-1052 D'Aguilar Highway, WAMURAN, QLD Australia 4512",-27.040027240000001,152.86472172000001,QLD,Assisted,,08:00 AM - 06:00 PM,Glass House
,Witta,Witta Recreational Club,"351 Witta Road, Witta, QLD Australia 4552",-26.706368,152.8253868,QLD,Full,,08:00 AM - 06:00 PM,Glass House
,Woodford,Woodford Memorial Hall,"103 Archer Street, Woodford, QLD Australia 4514",-26.954366,152.77821799999998,QLD,Assisted,,08:00 AM - 06:00 PM,Glass House
,Brisbane CBD,Brisbane City Hall.,"64 Adelaide Street, BRISBANE, QLD Australia 4000",-27.46870501779985,153.0238493466965,QLD,Full,Entry via Main Entrance in King George Square,08:00 AM - 06:00 PM,Greenslopes
,Coorparoo,Coorparoo State School,"327 Old Cleveland Road, COORPAROO, QLD Australia 4151",-27.494315490000002,153.06074022999999,QLD,Full,"Access via Tarlina Lane, Cooparoo",08:00 AM - 06:00 PM,Greenslopes
,Coorparoo Central,Faith Works Uniting Community - Coorparoo,"260 Cavendish Road, Coorparoo, QLD Australia 4151",-27.4993316,153.0625608,QLD,Assisted,York Street,08:00 AM - 06:00 PM,Greenslopes
,Coorparoo South,St Stephen's Coorparoo Hall,"343 Cavendish Road, Coorparoo, QLD Australia 4151",-27.5049795,153.0610876,QLD,Assisted,Access via Chatsworth Road,08:00 AM - 06:00 PM,Greenslopes
,Greenslopes,Greenslopes Baptist Church Hall,"39 Dunellan Street, Greenslopes, QLD Australia 4120",-27.5067568,153.048172,QLD,Assisted,,08:00 AM - 06:00 PM,Greenslopes
,Holland Park,Holland Park State School,"59 Abbotsleigh Street, HOLLAND PARK, QLD Australia 4121",-27.51323,153.062037,QLD,Full,,08:00 AM - 06:00 PM,Greenslopes
,Holland Park East,Cavendish Road State High School,"Cnr Cavendish & Holland Roads, HOLLAND PARK, QLD Australia 4121",-27.51649981805794,153.07256830422972,QLD,Full,,08:00 AM - 06:00 PM,Greenslopes
,Holland Park South,Seville Road State School,"54-84 Oates Avenue, HOLLAND PARK, QLD Australia 4121",-27.5248354,153.0725322,QLD,Full,"Gate: Pedestrian access from Oates avenue, Halsey Street, Roscoe street, Digby street",08:00 AM - 06:00 PM,Greenslopes
,Holland Park West,Marshall Road State School,"20 Kurts Street, HOLLAND PARK WEST, QLD Australia 4121",-27.525567540000001,153.05840671000001,QLD,Full,,08:00 AM - 06:00 PM,Greenslopes
,Mount Gravatt,Nursery Road State Special School,"49 Nursery Road, HOLLAND PARK WEST, QLD Australia 4121",-27.5342167,153.0645275,QLD,Full,,08:00 AM - 06:00 PM,Greenslopes
,West Coorparoo,St James Hall,"165 Old Cleveland Road, COORPAROO, QLD Australia 4151",-27.4993314,153.0519795,QLD,Full,Access via Kirkland Avenue,08:00 AM - 06:00 PM,Greenslopes
,Whites Hill,Regina Caeli Catholic Church Hall,"81 Waverley Road, Camp Hill, QLD Australia 4151",-27.4997932,153.073122,QLD,Assisted,"via 86 Greens Road, Coorparoo",08:00 AM - 06:00 PM,Greenslopes
,Alpha,Alpha State School,"11 Milton Street, ALPHA, QLD Australia 4724",-23.650296999999998,146.642369,QLD,Assisted,,08:00 AM - 06:00 PM,Gregory
,Barcaldine,Barcaldine State School,"1-35 Gidyea Street, Barcaldine, QLD Australia 4725",-23.5607007,145.2947854,QLD,Assisted,,08:00 AM - 06:00 PM,Gregory
,Blackall,Blackall Memorial Hall,"12 Short Street, Blackall, QLD Australia 4472",-24.4250727,145.4643968,QLD,Full,,08:00 AM - 06:00 PM,Gregory
,Blackwater,Blackwater State School Hall,"11 Wey Street, BLACKWATER, QLD Australia 4717",-23.584173,148.8776735,QLD,Full,Car Park gate. Gate - Western side of car park off Wey street,08:00 AM - 06:00 PM,Gregory
,Bluff,Bluff State School,"32 Main Street, BLUFF, QLD Australia 4702",-23.582100480000001,149.06894267000001,QLD,Full,,08:00 AM - 06:00 PM,Gregory
,Boulia,Boulia State School,"Templeton Street, BOULIA, QLD Australia 4829",-22.908227999999998,139.91108800000001,QLD,Full,,08:00 AM - 06:00 PM,Gregory
,Brisbane CBD,Brisbane City Hall.,"64 Adelaide Street, BRISBANE, QLD Australia 4000",-27.46870501779985,153.0238493466965,QLD,Full,Entry via Main Entrance in King George Square,08:00 AM - 06:00 PM,Gregory
,Capella,Capella State High School,"35-45 Gordon Street, CAPELLA, QLD Australia 4702",-23.087509180000001,148.02987099000001,QLD,Assisted,,08:00 AM - 06:00 PM,Gregory
,Duaringa,Duaringa State School,"1 Charlotte Street, DUARINGA, QLD Australia 4702",-23.716161710000002,149.66825008000001,QLD,None,,08:00 AM - 06:00 PM,Gregory
,Emerald Christian College,Emerald Christian College,"6373 Gregory Highway, Emerald, QLD Australia 4720",-23.553169059999998,148.17081571,QLD,Full,,08:00 AM - 06:00 PM,Gregory
,Emerald North,Emerald North State School,"Campbell Street, EMERALD, QLD Australia 4720",-23.51219,148.164694,QLD,Full,entry via Borilla Street,08:00 AM - 06:00 PM,Gregory
,Longreach,Longreach Showgrounds - Arts & Crafts Pavilion,"Sandpiper Street, Longreach, QLD Australia 4730",-23.4391466,144.2492107,QLD,Assisted,Gates in Sandpiper and Kite Streets,08:00 AM - 06:00 PM,Gregory
,Rolleston,Rolleston State School,"16 Warrijo Street, ROLLESTON, QLD Australia 4702",-24.462599919999999,148.62448454,QLD,Assisted,,08:00 AM - 06:00 PM,Gregory
,Rubyvale,Rubyvale Hall,"7 Buridge Road, RUBYVALE, QLD Australia 4702",-23.41993344127262,147.69984535669175,QLD,Full,,08:00 AM - 06:00 PM,Gregory
,Springsure,Springsure State School,"55 Eclipse Street, SPRINGSURE, QLD Australia 4722",-24.11547049,148.08818221000001,QLD,Full,,08:00 AM - 06:00 PM,Gregory
,Tambo,Tambo State School,"16 Mitchell Street, TAMBO, QLD Australia 4478",-24.884769769999998,146.25358610999999,QLD,Full,,08:00 AM - 06:00 PM,Gregory
,Tieri,Tieri State School,"1 Bottlebrush Lane, TIERI, QLD Australia 4709",-23.0318785,148.3458751,QLD,Full,,08:00 AM - 06:00 PM,Gregory
,Winton,Winton Shire Hall Supper Room,"75 Vindex Street, Winton, QLD Australia 4735",-22.387624450000001,143.03763685000001,QLD,Full,,08:00 AM - 06:00 PM,Gregory
,Woorabinda,Opal Hall,"Munns Drive, Woorabinda, QLD Australia 4713",-24.1279508,149.4578391,QLD,Assisted,,08:00 AM - 06:00 PM,Gregory
,Amamoor,Amamoor Hall,"35 Busby Street, Amamoor, QLD Australia 4570",-26.3464028,152.6759753,QLD,Full,,08:00 AM - 06:00 PM,Gympie
,Bauple,Bauple Q150 Recreation Centre,"18 Forestry Road, Bauple, QLD Australia 4650",-25.8121828,152.6226764,QLD,Full,,08:00 AM - 06:00 PM,Gympie
,Brisbane CBD,Brisbane City Hall.,"64 Adelaide Street, BRISBANE, QLD Australia 4000",-27.46870501779985,153.0238493466965,QLD,Full,Entry via Main Entrance in King George Square,08:00 AM - 06:00 PM,Gympie
,Chatsworth,Chatsworth State School,"15 Rammutt Road, CHATSWORTH, QLD Australia 4570",-26.142619440000001,152.61505364999999,QLD,None,,08:00 AM - 06:00 PM,Gympie
,Cooloola Cove,Veterans Community Hall,"Cnr Nautilus Drive & Santa Maria Court, COOLOOLA COVE, QLD Australia 4580",-25.970907520000001,152.98491418,QLD,Full,,08:00 AM - 06:00 PM,Gympie
,Curra,Curra Community Hall,"10-22 David Drive, Curra, QLD Australia 4570",-26.0824206,152.5802449,QLD,Full,,08:00 AM - 06:00 PM,Gympie
,Glenwood,Glenwood Community Hall,"13 Pepper Road, Glenwood, QLD Australia 4570",-25.9350346,152.6170492,QLD,Full,,08:00 AM - 06:00 PM,Gympie
,Goomboorian,Goomboorian Memorial Hall,"5 Ross Road, GOOMBOORIAN, QLD Australia 4570",-26.077002400000001,152.77939259999999,QLD,Full,,08:00 AM - 06:00 PM,Gympie
,Gunalda,Gunalda State School,"King Street, GUNALDA, QLD Australia 4570",-25.992429260000002,152.56031512999999,QLD,Assisted,,08:00 AM - 06:00 PM,Gympie
,Gympie City,The Gympie Senior Citizens Centre,"40 Mellor Street, GYMPIE, QLD Australia 4570",-26.187824710000001,152.66732991000001,QLD,Full,,08:00 AM - 06:00 PM,Gympie
,Gympie East,Gympie East State School,"219 Cedar Pocket Road, GYMPIE, QLD Australia 4570",-26.179684340000001,152.73281335999999,QLD,Full,,08:00 AM - 06:00 PM,Gympie
,Gympie High,Gympie State High School,"Cootharaba Road, GYMPIE, QLD Australia 4570",-26.188444999999998,152.67917499999999,QLD,Full,,08:00 AM - 06:00 PM,Gympie
,Gympie North,James Nash State High School,"109 Myall Street, GYMPIE, QLD Australia 4570",-26.175159999999998,152.65669399999999,QLD,Full,,08:00 AM - 06:00 PM,Gympie
,Gympie South,Gympie South State School,"50 Exhibition Road, GYMPIE, QLD Australia 4570",-26.19907396,152.64570594,QLD,Assisted,,08:00 AM - 06:00 PM,Gympie
,Horseshoe Bend,Gympie Church Of Christ Hall,"57 Horseshoe Bend Road, Gympie, QLD Australia 4570",-26.1823862,152.6709937,QLD,Full,Tucker st & Bright st,08:00 AM - 06:00 PM,Gympie
,Imbil,Mary Valley State College,"15 Edward Street, IMBIL, QLD Australia 4570",-26.45992163,152.67936230000001,QLD,Full,,08:00 AM - 06:00 PM,Gympie
,Jones Hill,Jones Hill State School,"21 McIntosh Creek Road, Jones Hill, QLD Australia 4570",-26.2280725,152.6675574,QLD,Full,Heilbronn Road,08:00 AM - 06:00 PM,Gympie
,Kandanga,Kandanga State School,"84 Main Street, KANDANGA, QLD Australia 4570",-26.387043569999999,152.68038824000001,QLD,Full,,08:00 AM - 06:00 PM,Gympie
,Lower Wonga,Lower Wonga Hall,"7 Lower Wonga Road, LOWER WONGA, QLD Australia 4570",-26.090126819999998,152.48445153,QLD,Full,,08:00 AM - 06:00 PM,Gympie
,Pie Creek,Pie Creek Community Hall,"Herron Road, PIE CREEK, QLD Australia 4570",-26.241105789999999,152.61939882999999,QLD,Full,,08:00 AM - 06:00 PM,Gympie
,Rainbow Beach,Rainbow Beach State School,"1 Warooga Road, RAINBOW BEACH, QLD Australia 4581",-25.907208999999998,153.07909899999999,QLD,Assisted,,08:00 AM - 06:00 PM,Gympie
,Tin Can Bay,Tin Can Bay P-10 State School,"2 Snapper Creek Road, TIN CAN BAY, QLD Australia 4580",-25.924759699999999,152.99521923,QLD,Full,,08:00 AM - 06:00 PM,Gympie
,Traveston,Traveston Soldiers Memorial Hall,"Lot 7 Traveston Road, Traveston, QLD Australia 4570",-26.3372038,152.737585,QLD,Assisted,,08:00 AM - 06:00 PM,Gympie
,Veteran,Veteran Hall,"594 Sandy Creek Road, VETERAN, QLD Australia 4570",-26.13535723,152.70152271000001,QLD,Full,,08:00 AM - 06:00 PM,Gympie
,Widgee,Widgee State School,"2156 Gympie-Woolooga Road, WIDGEE, QLD Australia 4570",-26.203901600000002,152.4434191,QLD,Assisted,,08:00 AM - 06:00 PM,Gympie
,Brisbane CBD,Brisbane City Hall.,"64 Adelaide Street, BRISBANE, QLD Australia 4000",-27.46870501779985,153.0238493466965,QLD,Full,Entry via Main Entrance in King George Square,08:00 AM - 06:00 PM,Hervey Bay
,Kawungan,Kawungan State School,"Grevillea Street, KAWUNGAN, QLD Australia 4655",-25.298376999999999,152.85047700000001,QLD,Full,,08:00 AM - 06:00 PM,Hervey Bay
,Pialba,PCYC Hervey Bay,"9 O'Rourke Street, PIALBA, QLD Australia 4655",-25.28666896,152.83630371000001,QLD,Full,,08:00 AM - 06:00 PM,Hervey Bay
,Pialba North,Hervey Bay State High School,"58 Beach Road, PIALBA, QLD Australia 4655",-25.282919999999997,152.83243999999999,QLD,Full,,08:00 AM - 06:00 PM,Hervey Bay
,River Heads,River Heads Community Hall,"45 Ariadne Street, RIVER HEADS, QLD Australia 4655",-25.423072900000001,152.91843295000001,QLD,Full,,08:00 AM - 06:00 PM,Hervey Bay
,Torquay,Torquay State School,"Tavistock Street, Torquay, QLD Australia 4655",-25.287616209312652,152.86463263624572,QLD,Full,,08:00 AM - 06:00 PM,Hervey Bay
,Urangan,Urangan Point State School (Multipurpose Hall),"44/58 Miller Street, URANGAN, QLD Australia 4655",-25.2910973,152.9022257,QLD,Full,Stewart Street,08:00 AM - 06:00 PM,Hervey Bay
,Urangan West,Sandy Strait State School,"134 Robert Street, URANGAN, QLD Australia 4655",-25.300540340000001,152.87608624000001,QLD,Full,,08:00 AM - 06:00 PM,Hervey Bay
,Urraween,Fraser Coast Baptist Church,"171 Urraween Road, URRAWEEN, QLD Australia 4655",-25.299113999999999,152.81579299999999,QLD,Full,entry via Pantlins Lane,08:00 AM - 06:00 PM,Hervey Bay
,Atherton,Merriland Hall,"Robert Street, ATHERTON, QLD Australia 4883",-17.269615576513473,145.4837557817535,QLD,Full,,08:00 AM - 06:00 PM,Hill
,Atherton North,Atherton State High School,"30-90 Maunds Road, ATHERTON, QLD Australia 4883",-17.259996,145.4875436,QLD,Full,,08:00 AM - 06:00 PM,Hill
,Babinda,Babinda RSL Memorial Hall,"26 School Street, Babinda, QLD Australia 4861",-17.3433938,145.9211668,QLD,Full,,08:00 AM - 06:00 PM,Hill
,Brisbane CBD,Brisbane City Hall.,"64 Adelaide Street, BRISBANE, QLD Australia 4000",-27.46870501779985,153.0238493466965,QLD,Full,Entry via Main Entrance in King George Square,08:00 AM - 06:00 PM,Hill
,Dimbulah,Dimbulah State School,"48-50 Kennedy Street, Dimbulah, QLD Australia 4872",-17.148966420000001,145.11337638000001,QLD,Assisted,,08:00 AM - 06:00 PM,Hill
,East Palmerston,East Palmerston and Nerada Progress Association Hall,"Palmerston Highway, EAST PALMERSTON, QLD Australia 4860",-17.603727608700002,145.84717044730002,QLD,Assisted,,08:00 AM - 06:00 PM,Hill
,El Arish,El Arish State School,"28 Chauvel Street, EL ARISH, QLD Australia 4855",-17.80808524,146.0031563,QLD,Full,,08:00 AM - 06:00 PM,Hill
,Flying Fish Point,QCWA Hall,"2 Alice Street, Flying Fish Point, QLD Australia 4860",-17.5038351,146.0762453,QLD,Full,,08:00 AM - 06:00 PM,Hill
,Garradunga,Garradunga Community Hall,"197 Garradunga Road, GARRADUNGA, QLD Australia 4860",-17.4616879,145.995653,QLD,Assisted,,08:00 AM - 06:00 PM,Hill
,Goondi,Innisfail Tigers Soccer Club,"2 Leichhardt Street, GOONDI, QLD Australia 4860",-17.523526239999999,146.01410508000001,QLD,Assisted,,08:00 AM - 06:00 PM,Hill
,Herberton,Herberton Shire Hall,"Cnr Grace and William Streets, Herberton, QLD Australia 4887",-17.38317515,145.38560182000001,QLD,Full,,08:00 AM - 06:00 PM,Hill
,Innisfail East,Innisfail East State School,"92 Mourilyan Road, INNISFAIL, QLD Australia 4860",-17.53498965,146.03233874,QLD,Full,,08:00 AM - 06:00 PM,Hill
,Kairi,Kairi State School,"2 McGeehan Street, KAIRI, QLD Australia 4872",-17.215170000000001,145.54630299999999,QLD,Full,,08:00 AM - 06:00 PM,Hill
,Kurrimine Beach,Kurrimine Beach Community Hall,"919 Murdering Point Road, KURRIMINE BEACH, QLD Australia 4871",-17.773995280000001,146.10223174000001,QLD,Full,,08:00 AM - 06:00 PM,Hill
,Malanda,Malanda State School,"24 Mary Street, MALANDA, QLD Australia 4885",-17.349409489999999,145.59473634,QLD,Full,,08:00 AM - 06:00 PM,Hill
,Mena Creek,Mena Creek State School,"10 Mena Creek Road, MENA CREEK, QLD Australia 4871",-17.654491230000001,145.95552563999999,QLD,Assisted,,08:00 AM - 06:00 PM,Hill
,Millaa Millaa,Millaa Millaa State School,"1 Beech Street, MILLAA MILLAA, QLD Australia 4886",-17.512890859999999,145.61000347000001,QLD,Full,,08:00 AM - 06:00 PM,Hill
,Mirriwinni,Mirriwinni State School,"3 Whitman Street, MIRRIWINNI, QLD Australia 4871",-17.402392420000002,145.91009973999999,QLD,Full,Gate at Amenities Block and Multi-purpose Court,08:00 AM - 06:00 PM,Hill
,Mission Beach,Mission Beach State School,"21-101 Webb Road, WONGALING BEACH, QLD Australia 4852",-17.9043109,146.0953401,QLD,Full,"Double gate on Webb Road, beside the recycling enclosure",08:00 AM - 06:00 PM,Hill
,Mount Garnet,Mount Garnet QCWA Hall,"16 Garnet Street, MOUNT GARNET, QLD Australia 4872",-17.67698416,145.11575013000001,QLD,Full,,08:00 AM - 06:00 PM,Hill
,Mourilyan,Mourilyan State School,"34 Mourilyan Harbour Road, MOURILYAN, QLD Australia 4858",-17.584932210000002,146.04434967,QLD,Full,,08:00 AM - 06:00 PM,Hill
,Mutchilba,Mutchilba State School,"33 Marsterson Street, MUTCHILBA, QLD Australia 4872",-17.139620999999998,145.21110999999999,QLD,Assisted,,08:00 AM - 06:00 PM,Hill
,Ravenshoe,Ravenshoe State School F Block Hall Jr School Campus,"Ascham Street, RAVENSHOE, QLD Australia 4888",-17.6122987,145.4817383,QLD,Full,,08:00 AM - 06:00 PM,Hill
,Silkwood,Silkwood State School,"318 Silkwood Japoon Road, SILKWOOD, QLD Australia 4856",-17.7363889,146.0012485,QLD,Full,Access via Walter Lever Estate Road,08:00 AM - 06:00 PM,Hill
,South Johnstone,South Johnstone State School,"2 East Avenue, SOUTH JOHNSTONE, QLD Australia 4859",-17.593359459999999,145.99978209,QLD,Full,,08:00 AM - 06:00 PM,Hill
,Tolga,Tolga State Primary School,"Main Street, TOLGA, QLD Australia 4882",-17.2229877,145.4783887,QLD,Assisted,,08:00 AM - 06:00 PM,Hill
,Tully,Tully QCWA,"5 Plumb Street, Tully, QLD Australia 4854",-17.934302,145.9218167,QLD,Full,,08:00 AM - 06:00 PM,Hill
,Walkamin,Walkamin State School,"40 Wattle Street, WALKAMIN, QLD Australia 4872",-17.126980029999999,145.42647600000001,QLD,Full,,08:00 AM - 06:00 PM,Hill
,Yungaburra,Yungaburra State School,"4 Maple Street, YUNGABURRA, QLD Australia 4872",-17.27300554,145.58613181000001,QLD,Full,,08:00 AM - 06:00 PM,Hill
,Bluewater,Bluewater State School,"Buckby Street, BLUEWATER, QLD Australia 4818",-19.175134,146.555846,QLD,Full,,08:00 AM - 06:00 PM,Hinchinbrook
,Brisbane CBD,Brisbane City Hall.,"64 Adelaide Street, BRISBANE, QLD Australia 4000",-27.46870501779985,153.0238493466965,QLD,Full,Entry via Main Entrance in King George Square,08:00 AM - 06:00 PM,Hinchinbrook
,Burdell,St Clare's Catholic School - Recreation Hall,"39 Burdell Drive, Burdell, QLD Australia 4818",-19.2583326,146.7035364,QLD,Full,,08:00 AM - 06:00 PM,Hinchinbrook
,Burdell North,North Shore State School,"9 Langford Street, BURDELL, QLD Australia 4818",-19.23361431,146.69614902999999,QLD,Full,,08:00 AM - 06:00 PM,Hinchinbrook
,Cardwell,Cardwell State School,"37-43 Victoria Street, CARDWELL, QLD Australia 4816",-18.2686105,146.0300473,QLD,Full,via Clitheroe Street,08:00 AM - 06:00 PM,Hinchinbrook
,Deeragun,St. Anthony's Catholic College Assisi Campus,"Joanne Street, DEERAGUN, QLD Australia 4818",-19.243988999999999,146.654292,QLD,Full,,08:00 AM - 06:00 PM,Hinchinbrook
,Forrest Beach,Forrest Beach State School,"40 Pandanus Street, FORREST BEACH, QLD Australia 4850",-18.711746,146.2943741,QLD,Assisted,,08:00 AM - 06:00 PM,Hinchinbrook
,Halifax,Halifax State School,"17 Victoria Terrace, HALIFAX, QLD Australia 4850",-18.58388755,146.28500819000001,QLD,Full,"Victoria Terrace (walk in), Jessup Ave (drive in)",08:00 AM - 06:00 PM,Hinchinbrook
,Ingham,Conroy Hall,"39 Mcilwraith Street, Ingham, QLD Australia 4850",-18.6528454,146.1580749,QLD,Assisted,,08:00 AM - 06:00 PM,Hinchinbrook
,Kennedy,Kennedy State School,"161 Kennedy Creek Road, Kennedy, QLD Australia 4816",-18.209878,145.94196199999999,QLD,Full,,08:00 AM - 06:00 PM,Hinchinbrook
,Long Pocket,QCWA Abergowrie / Long Pocket Branch Hall,"2346 Abergowrie Road, LONG POCKET, QLD Australia 4850",-18.5214955,146.0033596,QLD,Assisted,,08:00 AM - 06:00 PM,Hinchinbrook
,Lower Tully,Lower Tully State School,"6 Collins Road, LOWER TULLY, QLD Australia 4854",-17.99546844,146.00091934,QLD,Assisted,,08:00 AM - 06:00 PM,Hinchinbrook
,Lucinda,Coast Guard Building,"19 Patterson Parade, LUCINDA, QLD Australia 4850",-18.53012356,146.33450031000001,QLD,Assisted,,08:00 AM - 06:00 PM,Hinchinbrook
,Macknade,Macknade State School,"79 Farrell Drive, MACKNADE, QLD Australia 4850",-18.57689594,146.25183462999999,QLD,Full,,08:00 AM - 06:00 PM,Hinchinbrook
,Murray Upper,Murray River Upper State School,"1 Middle Murray Road, Murray Upper, QLD Australia 4854",-18.090421580000001,145.85043669000001,QLD,Full,,08:00 AM - 06:00 PM,Hinchinbrook
,Northern Beaches,Northern Beaches State High School,"Meranti Street, Deeragun, QLD Australia 4818",-19.247091,146.6737583,QLD,Assisted,,08:00 AM - 06:00 PM,Hinchinbrook
,Rollingstone,Rollingstone State School,"Fred Williams Drive, ROLLINGSTONE, QLD Australia 4816",-19.043721959999999,146.39189959000001,QLD,None,,08:00 AM - 06:00 PM,Hinchinbrook
,Rupertswood,Alice River Community Centre,"Progress Road, RUPERTSWOOD, QLD Australia 4817",-19.330725539605552,146.6036057672119,QLD,Full,,08:00 AM - 06:00 PM,Hinchinbrook
,Toobanna,Toobanna State School,"49055 Bruce Highway, TOOBANNA, QLD Australia 4850",-18.7223006,146.1478478,QLD,Assisted,,08:00 AM - 06:00 PM,Hinchinbrook
,Trebonne,Trebonne State School,"11 Stone River Road, TREBONNE, QLD Australia 4850",-18.630589260000001,146.07430457999999,QLD,Full,,08:00 AM - 06:00 PM,Hinchinbrook
,Victoria Estate,Victoria Plantation State School,"244 Forrest Beach Road, VICTORIA ESTATE, QLD Australia 4850",-18.647475190000002,146.20178461,QLD,Full,,08:00 AM - 06:00 PM,Hinchinbrook
,Brisbane CBD,Brisbane City Hall.,"64 Adelaide Street, BRISBANE, QLD Australia 4000",-27.46870501779985,153.0238493466965,QLD,Full,Entry via Main Entrance in King George Square,08:00 AM - 06:00 PM,Inala
,Carole Park,Carole Park State School,"260 Waterford Road, WACOL, QLD Australia 4076",-27.6076151,152.9319809,QLD,Full,,08:00 AM - 06:00 PM,Inala
,Durack,Durack State School,"69 Inala Avenue, INALA, QLD Australia 4077",-27.597051990000001,152.98186183000001,QLD,Full,Avocet Street,08:00 AM - 06:00 PM,Inala
,Forest Lake,Forest Lake State School,"8 Kauri Place, FOREST LAKE, QLD Australia 4078",-27.613343999999998,152.95854800000001,QLD,Full,"Woogaroo Street, pedestrian gate",08:00 AM - 06:00 PM,Inala
,Forest Lake East,Forest Lake State High School,"High Street, FOREST LAKE, QLD Australia 4078",-27.623892999999999,152.97201899999999,QLD,Full,,08:00 AM - 06:00 PM,Inala
,Forest Lake South,Grand Avenue State School,"Cnr Grand Avenue & Centennial Way, FOREST LAKE, QLD Australia 4078",-27.626313,152.959315,QLD,Full,,08:00 AM - 06:00 PM,Inala
,Inala,Inala State School,"Cnr Rosemary Street & Glenala Road, Inala, QLD Australia 4077",-27.5871051,152.9760245,QLD,Full,,08:00 AM - 06:00 PM,Inala
,Richlands East,Richlands East State School,"99 Poinsettia Street, INALA, QLD Australia 4077",-27.597444199999998,152.96773732,QLD,Full,,08:00 AM - 06:00 PM,Inala
,Serviceton South,Serviceton South State School,"59 Lorikeet Street, INALA, QLD Australia 4077",-27.606326840000001,152.97681928,QLD,Full,,08:00 AM - 06:00 PM,Inala
,Brisbane CBD,Brisbane City Hall.,"64 Adelaide Street, BRISBANE, QLD Australia 4000",-27.46870501779985,153.0238493466965,QLD,Full,Entry via Main Entrance in King George Square,08:00 AM - 06:00 PM,Ipswich
,Bundamba South,Bundamba State School,"221 Brisbane Road, BUNDAMBA, QLD Australia 4304",-27.612138999999999,152.80503299999998,QLD,Assisted,,08:00 AM - 06:00 PM,Ipswich
,Churchill,Churchill State School Hall,"264A Warwick Road, Churchill, QLD Australia 4305",-27.6430416,152.7521486,QLD,Assisted,"via Brisbane Street, Council Car park outside of hall",08:00 AM - 06:00 PM,Ipswich
,Deebing Heights,Deebing Heights State School,"81 Rawlings Road, Deebing Heights, QLD Australia 4306",-27.6736255,152.7498643,QLD,Full,,08:00 AM - 06:00 PM,Ipswich
,East Ipswich,Ipswich East State School,"18 Jacaranda Street, EAST IPSWICH, QLD Australia 4305",-27.606735650000001,152.77682304000001,QLD,Full,,08:00 AM - 06:00 PM,Ipswich
,Flinders View,Ripley Central State School,"103 Binnies Road, Ripley, QLD Australia 4306",-27.6720927,152.7800661,QLD,Full,,08:00 AM - 06:00 PM,Ipswich
,Ipswich Central,Ipswich Central State School Hall,"2A Griffith Road, IPSWICH, QLD Australia 4305",-27.62163,152.76917700000001,QLD,Full,,08:00 AM - 06:00 PM,Ipswich
,Newtown Ipswich,Glebe Road Community Kindergarten & Pre-School,"52 Glebe Road, NEWTOWN, QLD Australia 4305",-27.615797999999998,152.777287,QLD,Assisted,,08:00 AM - 06:00 PM,Ipswich
,North Booval,Ipswich Uniting Church Hall,"114 Jacaranda Street, NORTH BOOVAL, QLD Australia 4304",-27.607824239999999,152.78523981999999,QLD,Full,Road on right of church to area behind,08:00 AM - 06:00 PM,Ipswich
,Raceview,Raceview State School Hall,"96 Wildey Street, RACEVIEW, QLD Australia 4305",-27.640557579999999,152.78304577,QLD,Full,,08:00 AM - 06:00 PM,Ipswich
,Raceview West,Whitehill Church of Christ,"219 Whitehill Road, Raceview, QLD Australia 4305",-27.639651138957525,152.7671684880829,QLD,Full,,08:00 AM - 06:00 PM,Ipswich
,Sadliers Crossing,Blair State School,"Cribb Street, SADLIERS CROSSING, QLD Australia 4305",-27.6122783,152.74867058000001,QLD,Full,,08:00 AM - 06:00 PM,Ipswich
,Silkstone,Silkstone State School,"Prospect Street, SILKSTONE, QLD Australia 4304",-27.618931999999997,152.78430800000001,QLD,Full,,08:00 AM - 06:00 PM,Ipswich
,West Ipswich,Ipswich West State School,"Corner Omar & Keogh Streets, WEST IPSWICH, QLD Australia 4305",-27.6212553,152.7503422,QLD,None,Kennedy Street,08:00 AM - 06:00 PM,Ipswich
,Yamanto,Amberley District State School Hall,"37 Deebing Creek Road, YAMANTO, QLD Australia 4305",-27.657407599999999,152.75003314,QLD,Full,,08:00 AM - 06:00 PM,Ipswich
,Brassall,Brassall Congregational Church Hall,"3 Jellicoe Street, BRASSALL, QLD Australia 4305",-27.594784270000002,152.74000168000001,QLD,Full,,08:00 AM - 06:00 PM,Ipswich West
,Brassall North,Ipswich State High School Hall,"1 Hunter Street, BRASSALL, QLD Australia 4305",-27.589229999999997,152.745293,QLD,Assisted,,08:00 AM - 06:00 PM,Ipswich West
,Brisbane CBD,Brisbane City Hall.,"64 Adelaide Street, BRISBANE, QLD Australia 4000",-27.46870501779985,153.0238493466965,QLD,Full,Entry via Main Entrance in King George Square,08:00 AM - 06:00 PM,Ipswich West
,Haigslea,Haigslea State School,"760 Thagoona Haigslea Road, HAIGSLEA, QLD Australia 4306",-27.5716717,152.62954295,QLD,Full,,08:00 AM - 06:00 PM,Ipswich West
,Karalee,Karalee State School Hall,"77 Arthur Summervilles Road, KARALEE, QLD Australia 4306",-27.562569880000002,152.82529593000001,QLD,Full,,08:00 AM - 06:00 PM,Ipswich West
,Leichhardt,Leichhardt State School Hall,"72 Samford Road, LEICHHARDT, QLD Australia 4305",-27.624284809999999,152.73680449,QLD,Full,,08:00 AM - 06:00 PM,Ipswich West
,Marburg,Marburg State School,"Louisa Street, MARBURG, QLD Australia 4346",-27.56186129,152.59268939,QLD,Full,,08:00 AM - 06:00 PM,Ipswich West
,North Ipswich,Ipswich North State School Hall,"Downs Street, NORTH IPSWICH, QLD Australia 4305",-27.6022796,152.7623744,QLD,Assisted,Lawrence Street,08:00 AM - 06:00 PM,Ipswich West
,One Mile,Immaculate Heart Primary School,"24 Old Toowoomba Road, One Mile, QLD Australia 4305",-27.629109,152.7385178,QLD,Full,Old Toowoomba Road and Chubb Street,08:00 AM - 06:00 PM,Ipswich West
,Pine Mountain,Pine Mountain Hall,"840 Pine Mountain Road, PINE MOUNTAIN, QLD Australia 4306",-27.543826500000002,152.71138250999999,QLD,None,,08:00 AM - 06:00 PM,Ipswich West
,Raymonds Hill,St Joseph's School Hall,"42 Pine Mountain Road, NORTH IPSWICH, QLD Australia 4305",-27.591227,152.75704899999999,QLD,Full,,08:00 AM - 06:00 PM,Ipswich West
,Rosewood,Rosewood State High School,"46 Lanefield Road, ROSEWOOD, QLD Australia 4340",-27.636803,152.58721,QLD,Full,,08:00 AM - 06:00 PM,Ipswich West
,Tivoli,Tivoli State School,"108 Mt Crosby Road, TIVOLI, QLD Australia 4305",-27.583354589999999,152.77714491,QLD,Full,,08:00 AM - 06:00 PM,Ipswich West
,Walloon,Walloon State School,"528 Karrabin-Rosewood Road, WALLOON, QLD Australia 4306",-27.606127180000001,152.66275406,QLD,Full,Access via Haigslea-Amberley Road,08:00 AM - 06:00 PM,Ipswich West
,Yamanto,Amberley District State School Hall,"37 Deebing Creek Road, YAMANTO, QLD Australia 4305",-27.657407599999999,152.75003314,QLD,Full,,08:00 AM - 06:00 PM,Ipswich West
,Augustine Heights,Augusta State School,"60-100 Brittains Road, Augustine Heights, QLD Australia 4300",-27.6554597,152.8778265,QLD,Full,Brittains Road and Cardena Drive,08:00 AM - 06:00 PM,Jordan
,Brisbane CBD,Brisbane City Hall.,"64 Adelaide Street, BRISBANE, QLD Australia 4000",-27.46870501779985,153.0238493466965,QLD,Full,Entry via Main Entrance in King George Square,08:00 AM - 06:00 PM,Jordan
,Camira,Camira State School Hall,"184-202 Old Logan Road, CAMIRA, QLD Australia 4300",-27.622889999999998,152.91512299999999,QLD,Full,Carpark under Energex Lines on Old Logan Road.  Disabled voters entry is via main school driveway.,08:00 AM - 06:00 PM,Jordan
,Flagstone,Flagstone State Community College,"Cnr Homestead & Poinciana Drives, FLAGSTONE, QLD Australia 4280",-27.807815999999999,152.957413,QLD,Full,,08:00 AM - 06:00 PM,Jordan
,Gailes,Shotokan Karate Budokai,"83 Old Logan Road, CAMIRA, QLD Australia 4300",-27.612922390000001,152.91582048000001,QLD,Assisted,,08:00 AM - 06:00 PM,Jordan
,Greenbank,Greenbank State School Assembly Hall,"24 Goodna Road, GREENBANK, QLD Australia 4124",-27.710929999999998,152.97723500000001,QLD,Full,,08:00 AM - 06:00 PM,Jordan
,Greenbank South,Everleigh State School,"46-76 Ivory Parkway, Greenbank, QLD Australia 4124",-27.738772,152.9952032,QLD,Full,,08:00 AM - 06:00 PM,Jordan
,Springfield,Woodcrest State College Auditorium,"38 Nev Smith Drive, SPRINGFIELD, QLD Australia 4300",-27.65912762,152.92113662,QLD,Full,,08:00 AM - 06:00 PM,Jordan
,Springfield Central,YMCA Springfield Central Community Centre,"134A Parkland Drive, Springfield Central, QLD Australia 4300",-27.6910766,152.9080879,QLD,Full,Entrance via the school drop off zone on the cnr of Parkland Dr and Wellness Way,08:00 AM - 06:00 PM,Jordan
,Springfield Lakes,Springfield Lakes State School Hall,"63 Springfield Lakes Boulevard, SPRINGFIELD LAKES, QLD Australia 4300",-27.669983999999999,152.92184399999999,QLD,Full,,08:00 AM - 06:00 PM,Jordan
,Bokarina,Uniting Church Kawana Waters,"3 Honeysuckle Drive, Bokarina, QLD Australia 4575",-26.7364494,153.1316407,QLD,Assisted,,08:00 AM - 06:00 PM,Kawana
,Brisbane CBD,Brisbane City Hall.,"64 Adelaide Street, BRISBANE, QLD Australia 4000",-27.46870501779985,153.0238493466965,QLD,Full,Entry via Main Entrance in King George Square,08:00 AM - 06:00 PM,Kawana
,Buddina,Kawana Tennis Club,"2 Nanyima Street, Buddina, QLD Australia 4575",-26.6995597,153.1344339,QLD,Full,"Corner Nanyima Street and Iluka Avenue, Buddina QLD 4575",08:00 AM - 06:00 PM,Kawana
,Currimundi,Currimundi State School,"17 Buderim Street, CURRIMUNDI, QLD Australia 4551",-26.7764823,153.1352652,QLD,Assisted,,08:00 AM - 06:00 PM,Kawana
,Currimundi West,Talara Primary College - Performance Centre,"24 Talara Street, CURRIMUNDI, QLD Australia 4551",-26.772416999999997,153.11692399999998,QLD,Full,,08:00 AM - 06:00 PM,Kawana
,Kawana Waters,Kawana Waters State College - Innovation Hall,"119 Sportsmans Parade, BOKARINA, QLD Australia 4575",-26.737063809999999,153.12574624999999,QLD,Full,,08:00 AM - 06:00 PM,Kawana
,Meridan Plains,Meridan State College - Senior Learning Precinct,"214 Parklands Boulevard, MERIDAN PLAINS, QLD Australia 4551",-26.772226,153.103565,QLD,Full,,08:00 AM - 06:00 PM,Kawana
,Brisbane CBD,Brisbane City Hall.,"64 Adelaide Street, BRISBANE, QLD Australia 4000",-27.46870501779985,153.0238493466965,QLD,Full,Entry via Main Entrance in King George Square,08:00 AM - 06:00 PM,Keppel
,Cawarral,Cawarral State School,"125 Annie Drive, CAWARRAL, QLD Australia 4702",-23.25327399,150.67551076000001,QLD,Assisted,,08:00 AM - 06:00 PM,Keppel
,Emu Park,Emu Park State School,"26 Fountain Street, EMU PARK, QLD Australia 4710",-23.258157999999998,150.82058599999999,QLD,Full,via Hill Street,08:00 AM - 06:00 PM,Keppel
,Farnborough,Farnborough State School Hall,"8 Hinz Avenue, FARNBOROUGH, QLD Australia 4703",-23.07663251,150.73774338000001,QLD,Full,,08:00 AM - 06:00 PM,Keppel
,Frenchville,Frenchville State School - Activities Centre,"225-237 Frenchville Road, FRENCHVILLE, QLD Australia 4701",-23.341944444444003,150.54500000000002,QLD,Full,,08:00 AM - 06:00 PM,Keppel
,Glenmore,Glenmore State High School,"Cnr Bruce Highway and Farm Street, KAWANA, QLD Australia 4701",-23.335868010779265,150.51655948371427,QLD,Full,,08:00 AM - 06:00 PM,Keppel
,Keppel Sands,Keppel Sands State School,"1325 Keppel Sands Road, KEPPEL SANDS, QLD Australia 4702",-23.327590999999998,150.78617,QLD,Full,,08:00 AM - 06:00 PM,Keppel
,Lakes Creek,Lakes Creek State School,"445 Paterson Street, LAKES CREEK, QLD Australia 4701",-23.37545849,150.56030989000001,QLD,Full,,08:00 AM - 06:00 PM,Keppel
,Mount Archer,Mount Archer State School,"242 Thozet Road, KOONGAL, QLD Australia 4701",-23.358951770000001,150.54583400000001,QLD,Full,,08:00 AM - 06:00 PM,Keppel
,Norman Gardens,Rockhampton Baptist Church,"650 Norman Road, NORTH ROCKHAMPTON, QLD Australia 4701",-23.329985999999998,150.53276199999999,QLD,Full,,08:00 AM - 06:00 PM,Keppel
,Parkhurst,Department of Agriculture and Fisheries Conference Centre,"25 Yeppoon Road, PARKHURST, QLD Australia 4702",-23.313098,150.518176,QLD,Full,,08:00 AM - 06:00 PM,Keppel
,Taranganba,Taranganba State School,"61-81 Taranganba Road, Taranganba, QLD Australia 4703",-23.1549875,150.7544114,QLD,Full,,08:00 AM - 06:00 PM,Keppel
,The Caves,The Caves State School,"1 Barmoya Road, The Caves, QLD Australia 4702",-23.1763512,150.4589637,QLD,Full,Main gate entry on Rossmoya Road. Pedestrian gate on Barmoya Road,08:00 AM - 06:00 PM,Keppel
,Yeppoon,Yeppoon Masonic Lodge,"133 Rockhampton Road, Yeppoon, QLD Australia 4703",-23.1351745,150.7256378,QLD,Full,,08:00 AM - 06:00 PM,Keppel
,Brisbane CBD,Brisbane City Hall.,"64 Adelaide Street, BRISBANE, QLD Australia 4000",-27.46870501779985,153.0238493466965,QLD,Full,Entry via Main Entrance in King George Square,08:00 AM - 06:00 PM,Kurwongbah
,Burpengary,Burpengary Community Complex,"101 Station Road, BURPENGARY, QLD Australia 4505",-27.1563104,152.96619,QLD,Assisted,,08:00 AM - 06:00 PM,Kurwongbah
,Burpengary South,Burpengary State Secondary College,"196 Pitt Road, BURPENGARY, QLD Australia 4505",-27.17060871,152.97736645000001,QLD,Full,,08:00 AM - 06:00 PM,Kurwongbah
,Burpengary West,Burpengary State School,"35 Station Road, BURPENGARY, QLD Australia 4505",-27.15806121,152.95908987999999,QLD,Full,,08:00 AM - 06:00 PM,Kurwongbah
