state,polling_place_name,premises,division,address,lon,lat
VIC,Balwyn,Balwyn Baptist Church,Box Hill District,"517 Whitehorse Road, Surrey Hills, 3127",145.0904466,-37.81372409
VIC,Apollo Bay,Apollo Bay Senior Citizens Centre,Polwarth District,"4 Whelan Street, Apollo Bay, 3233",143.666222,-38.754758
VIC,Eaglemont,Bellfield Community Centre,Ivanhoe District,"corner of Oriel Road and Banksia Street , Bellfield, 3081",145.0381928,-37.75625158
VIC,Spring Gully,Spring Gully Tennis Club,Bendigo East District,"Spring Gully Road, Spring Gully, 3550",144.2852629,-36.79164698
VIC,Darling,Caulfield Grammar School - Malvern,Malvern District,"Harold Avenue, Glen Iris, 3146",145.0524129,-37.86366614
VIC,Kooyong,H.A. Smith Reserve,"Malvern District, Hawthorn District","458 Glenferrie Road, Hawthorn, 3122",145.0333451,-37.83622348
VIC,Lyndhurst West,Lyndhurst Primary School,Cranbourne District,"70 Brookwater Parade, Lyndhurst, 3975",145.2541822,-38.07420318
VIC,Bass,Bass Valley Community Centre,Bass District,"2-4 Bass School Road, Bass, 3991",145.465275,-38.48451541
VIC,Red Cliffs,St Joseph's School Red Cliffs,Mildura District,"17 Fitzroy Avenue, Red Cliffs, 3496",142.188124,-34.302361
VIC,Yarrunga,Our Lady's Primary School,Ovens Valley District,"52-60 White Street, Wangaratta, 3677",146.3202943,-36.37259287
VIC,Newborough,Newborough Public Hall,Morwell District,"18 Balfour Street, Newborough, 3825",146.2917883,-38.18683726
VIC,Pakenham Lakeside,Pakenham Lakeside Primary School,Bass District,"23 Shearwater Drive, Pakenham, 3810",145.4392555,-38.06803892
VIC,Toorak,Toorak Uniting Church Hall,Malvern District,"603 Toorak Road, Toorak, 3142",145.019514,-37.841914
VIC,Edenhope,Senior Citizens Building,Lowan District,"54-56 Langford Street, Edenhope, 3318",141.299217,-37.036847
VIC,Sandringham,Sacred Heart Parish School,Sandringham District,"11 Fernhill Road (enter via Sandringham Road), Sandringham, 3191",145.0086266,-37.95148345
VIC,Blackburn South,St Luke's Roman Catholic School,Forest Hill District,"46 Orchard Grove, Blackburn South, 3130",145.1462147,-37.83548256
VIC,Rosebud,Rosebud Memorial Hall,Nepean District,"994 Point Nepean Road, Rosebud, 3939",144.9001599,-38.35633942
VIC,Findon,Findon Primary School,"Mill Park District, Bundoora District","5 Cuthbert Drive, Mill Park, 3082",145.0507609,-37.66649249
VIC,Preston South,Preston South Primary School,"Northcote District, Preston District","56b Hotham Street, Preston, 3072",145.0077637,-37.74796992
VIC,Eltham Woods,Eltham Woods Pre-School,Eltham District,"50a Frank Street, Eltham, 3095",145.167305,-37.707901
VIC,Balmoral,Balmoral Memorial Hall,Lowan District,"26 Glendinning Street, Balmoral, 3407",141.842177,-37.248662
VIC,Middlefield,Old Orchard Primary School,Box Hill District,"corner Adina and Lantana Streets, Blackburn North, 3130",145.1504114,-37.80690285
VIC,Golf Links,Rosanna Fire Station Community House,Ivanhoe District,"232 Lower Plenty Road, Rosanna, 3084",145.072474,-37.738852
VIC,Traralgon North,Traralgon Secondary College - West Campus,Morwell District,"Grey Street, Traralgon, 3844",146.51949,-38.19142
VIC,Hughesdale,Hughesdale Community Centre,Oakleigh District,"corner Poath and Kangaroo Roads, Hughesdale, 3166",145.0765888,-37.89799151
VIC,Brighton East,Melbourne Montessori School,Brighton District,"741 Hawthorn Road, Brighton East, 3187",145.017617,-37.911901
VIC,Ferny Creek,Ferny Creek Primary School,Monbulk District,"School Road, Ferny Creek, 3786",145.33472,-37.88421
VIC,Dargo,Dargo Public Hall,Gippsland East District,"177 Lind Avenue, Dargo, 3862",147.250882,-37.455491
VIC,Woodlands Primary,Woodlands Primary School,Hastings District,"10 Gum Nut Drive, Langwarrin, 3910",145.20502,-38.13568
VIC,Wantirna South,Wantirna South Primary School,Ferntree Gully District,"Tyner Road, Wantirna South, 3152",145.2369904,-37.87238984
VIC,Frankston Beach,St Pauls Anglican Church Hall,Frankston District,"corner Bay and High Streets, Frankston, 3199",145.1188454,-38.14743576
VIC,Bentleigh East,Bentleigh Secondary College,Bentleigh District,"Vivien Street, Bentleigh East, 3165",145.05991,-37.92767
VIC,Coburg North,Coburg Special Development School,Pascoe Vale District,"187-195 Gaffney Street, Coburg North, 3058",144.9520571,-37.73307769
VIC,Nambrok,Nambrok-Denison Primary School,Gippsland South District,"947 Sale-Cowwarr Road, Nambrok, 3847",146.8746959,-38.05440548
VIC,Fawkner Park,Christchurch Grammar School,Prahran District,"677 Punt Road, South Yarra, 3141",144.986152,-37.839108
VIC,Bayles,Bayles Hall,Bass District,"660 Koo Wee Rup-Longwarry Road, Bayles, 3981",145.56996,-38.178146
VIC,Ludstone,Ludstone Scout Hall,Brighton District,"corner Ludstone and Kingston Streets, Hampton, 3188",145.012856,-37.93393457
VIC,Lyndhurst,Lyndhurst Secondary College,Cranbourne District,"950 South Gippsland Highway, Cranbourne North, 3977",145.2693892,-38.07501789
VIC,Avondale Heights Central,St Martin De Porres Catholic Church Hall,Niddrie District,"158 Military Road, Avondale Heights, 3034",144.8609652,-37.7584061
VIC,Wendouree West,Yuille Park Community College,Wendouree District,"Violet Grove, Wendouree, 3355",143.820274,-37.52759556
VIC,Doreen,Ivanhoe Grammar School - Plenty Campus,Yan Yean District,"730 Bridge Inn Road, Doreen, 3754",145.1147372,-37.60414231
VIC,Canadian,Canadian Lead Primary School,Buninyong District,"301 Otway Street South, Canadian, 3350",143.87591,-37.57297
VIC,Orrvale,Orrvale Primary School,Shepparton District,"300 Channel Road, Orrvale, 3631",145.440001,-36.410348
VIC,Craigieburn West,Willmott Park Primary School,Yuroke District,"54-56 Dorchester Street, Craigieburn, 3064",144.92142,-37.59146
VIC,Ascot Vale East,Ascot Vale Uniting Church,Essendon District,"60 Maribyrnong Road, Moonee Ponds, 3039",144.922189,-37.772165
VIC,Hume Central,Hume Central Secondary College - Dimboola Campus,Broadmeadows District,"30-54 Dimboola Road ,  (access via Johnstone Street carpark) , Broadmeadows, 3047",144.9110889,-37.67988231
VIC,Collingwood,Collingwood Secondary College,Richmond District,"Corner Cromwell Street and McCutcheon Way, Collingwood, 3066",144.990441,-37.80304046
VIC,Croydon East,Ruskin Park Primary School,Croydon District,"18-20 Ruskin Avenue, Croydon, 3136",145.2975303,-37.79902531
VIC,Tanjil South,Tanjil South Centenary Hall,Narracan District,"383 Moe-Willow Grove Road, Tanjil South, 3825",146.2474809,-38.10958716
VIC,Manooka,Burwood East Special Developmental School,Forest Hill District,"18 Manooka Street, Burwood East, 3151",145.14212,-37.8572
VIC,Templestowe Heights,Templestowe Heights Primary School,Bulleen District,"276-300 High Street, Templestowe Lower, 3107",145.1204397,-37.76652292
VIC,Deans Marsh,Deans Marsh Public Hall,Polwarth District,"Pennyroyal Valley Road, Deans Marsh, 3235",143.8848397,-38.39904339
VIC,Berriwillock,Berriwillock Community Centre,Mildura District,"69 Taverner Street, Berriwillock, 3531",142.994677,-35.636033
VIC,Metung,Metung Primary School,Gippsland East District,"90 Stirling Road, Metung, 3904",147.8523783,-37.88318002
VIC,Doncaster East,East Doncaster Secondary College,Warrandyte District,"20 George Street, Doncaster East, 3109",145.1579076,-37.78225865
VIC,Geelong East,Geelong East Primary School,Geelong District,"184 Boundary Road, Geelong East, 3219",144.382723,-38.17540114
VIC,Croydon Central,Croydon Primary School,Croydon District,"corner Kent Avenue and Croydon Road, Croydon, 3136",145.2811541,-37.79330408
VIC,Walwa,Walwa Servicemen's Memorial Hall,Benambra District,"56 Main Street, Walwa, 3709",147.7372377,-35.96398185
VIC,Wodonga South,Wodonga Middle Years College - Huon Campus,Benambra District,"22-24 Mitchell Street, Wodonga, 3690",146.8906933,-36.13142627
VIC,St Andrews,St Andrews Primary School,Eildon District,"25 Caledonia Street, St Andrews, 3761",145.26983,-37.60232
VIC,Fairhills,Fairhills Primary School,"Ferntree Gully District, Bayswater District","Manuka Drive, Ferntree Gully, 3156",145.2651859,-37.86970804
VIC,Echuca East,Echuca East Primary School,Murray Plains District,"21-31 Eyre Street, Echuca East, 3564",144.76111,-36.13405
VIC,Seaford North,Seaford North Primary School,Carrum District,"Hallifax Street, Seaford, 3198",145.1343907,-38.08963127
VIC,Burwood West,Melbourne Chinese Christian Church Hall,Hawthorn District,"29 Summerhill Road, Glen Iris, 3146",145.076882,-37.851392
VIC,Melton West,Melton Secondary College,Melton District,"207 Coburns Road, Melton West, 3337",144.5671119,-37.68216921
VIC,Ocean Grove,The Wave Ocean Grove Baptist Church,Bellarine District,"corner Wallington Rd and Lake Avenue , Ocean Grove, 3326",144.507586,-38.25821525
VIC,Clyde,Clyde Public Hall,"Bass District, Cranbourne District","30 Railway Road, Clyde, 3978",145.329562,-38.131766
VIC,Beulah,Beulah Memorial Hall,Mildura District,"70 Phillips Street, Beulah, 3395",142.420776,-35.93896
VIC,Myrrhee,Myrrhee Primary School,Ovens Valley District,"1673 Benalla-Whitfield Road, Myrrhee, 3732",146.318312,-36.738271
VIC,Tarrington,Lutheran School Hall,Lowan District,"7901 Hamilton Highway, Tarrington, 3301",142.0947871,-37.76709319
VIC,Starling,St Scholastica's Community Centre,Burwood District,"4-8 Starling Street, Bennettswood, 3125",145.1261686,-37.85188493
VIC,Keon Park,Keon Park Children's Hub,Preston District,"1-7 Dole Avenue, Reservoir, 3073",145.021332,-37.700877
VIC,Caulfield West,Shelford Girls' Grammar,Caulfield District,"3 Hood Crescent, Caulfield, 3161",145.01149,-37.87761236
VIC,Vermont North,1st Vermont Scout Group,Forest Hill District,"483-485 Canterbury Road, Vermont, 3133",145.196076,-37.835689
VIC,Drouin South,Drouin South Primary School,Narracan District,"3061 Westernport Road, Drouin South, 3818",145.82682,-38.17057
VIC,Mount Waverley North,Mount Waverley Secondary College - Senior Campus,Mount Waverley District,"Lechte Road (access via Beaufort Street), Mount Waverley, 3149",145.13241,-37.868159
VIC,Heatherton North,St Andrew's Catholic Parish School,Clarinda District,"96 Bunney Road, Clayton South, 3169",145.1064986,-37.93473553
VIC,Ringwood North,Ringwood North Primary School,"Ringwood District, Warrandyte District, Croydon District","172 Oban Road, Ringwood, 3134",145.2306697,-37.79231783
VIC,Brim,Brim Memorial Hall,Lowan District,"28a Swann Street, Brim, 3391",142.416434,-36.076008
VIC,Sale North,Sale College Gymnasium Guthridge Campus,Gippsland South District,"279-295 Guthridge Parade, Sale, 3850",147.082235,-38.096878
VIC,Manangatang,Manangatang Community Centre,Mildura District,"1 Wattle Street, Manangatang, 3546",142.8820024,-35.05698153
VIC,Highvale,Highvale Primary School,Forest Hill District,"33 Ashton Street, Glen Waverley, 3150",145.1738772,-37.86717868
VIC,California Gully,California Gully Primary School,Bendigo West District,"4-14 Staley Street, California Gully, 3556",144.249871,-36.733465
VIC,Moorabbin South,Tucker Road Primary School,Bentleigh District,"16 Tucker Road, Bentleigh, 3204",145.0490104,-37.93253954
VIC,Tongala,Tongala Shire Hall,Murray Plains District,"92-96 Mangan Street, Tongala, 3621",144.9500551,-36.25019081
VIC,Berwick Lodge,Berwick Lodge Primary School,"Gembrook District, Narre Warren North District","145 Mansfield Street, Berwick, 3806",145.32711,-38.03147
VIC,Eltham,Eltham Primary School,Eltham District,"70 Dalton Street, Eltham, 3095",145.148163,-37.725366
VIC,Delbridge,Clifton Hill Presbyterian Church  Hall,Richmond District,"16 Michael Street (corner of McKean Street), Fitzroy North, 3068",144.990543,-37.787509
VIC,Streatham,Streatham Public Hall,Lowan District,"30 Campbell Street, Streatham, 3351",143.062334,-37.679172
VIC,Mirboo North,Mirboo North Town Hall,Gippsland South District,"30 Ridgway Street, Mirboo North, 3871",146.154921,-38.400802
VIC,Kilberry Valley,Kilberry Valley Primary School,Narre Warren South District,"Kilberry Boulevard, Hampton Park, 3976",145.27926,-38.0336
VIC,Merino,Merino Consolidated School,Lowan District,"49 Paschendale Road, Merino, 3310",141.54831,-37.70637
VIC,Port Campbell,Port Campbell Recreation Reserve,Polwarth District,"Desaily Street, Port Campbell, 3269",143.0031039,-38.61658314
VIC,Greenhills,Greenhills Primary School,Eltham District,"29 Mine Street, Greensborough, 3088",145.118148,-37.691859
VIC,Grassmere,Grassmere Primary School,South-West Coast District,"16 Ibbs Lane, Grassmere, 3218",142.5232646,-38.28563162
VIC,Viewbank,Viewbank Primary School,Ivanhoe District,"2-10 Nevin Parade, Viewbank, 3084",145.090435,-37.733951
VIC,Barmah,Barmah Community Hall,Shepparton District,"Schier Street, Barmah, 3639",144.962215,-36.015721
VIC,Stevensville,Movelle Primary School,Kororoit District,"Gum Road, Kings Park, 3021",144.7748628,-37.73726776
VIC,Hamilton,Monivae College,Lowan District,"Ballarat Road, Hamilton, 3300",142.0496415,-37.7423814
VIC,Seaspray,Seaspray Public Hall,Gippsland South District,"Futcher Street, Seaspray, 3851",147.1900274,-38.37526119
VIC,Darebin Parklands,Thornbury High School,Northcote District,"238 Collins Street, Thornbury, 3071",145.0254419,-37.7565657
VIC,Bullioh,Bullioh Hall,Benambra District,"7961 Murray Valley Highway, Bullioh, 3700",147.3315742,-36.19499341
VIC,Watsonia South,Watsonia Community Centre,Bundoora District,"35 Lambourn Road, Watsonia, 3087",145.0787865,-37.71225786
VIC,Black Hill,Black Hill Primary School,Wendouree District,"601 Chisholm Street, Black Hill, 3350",143.86978,-37.54984
VIC,Port Melbourne,Port Melbourne Primary School,Albert Park District,"415 Graham Street (enter via Clark Street), Port Melbourne, 3207",144.9338764,-37.83536687
VIC,Carlton North,St Michael's  Anglican Church Hall,Melbourne District,"14 McIlwraith Street, Carlton North, 3054",144.968339,-37.78499779
VIC,Bethal,Bethal Primary School,Broadmeadows District,"26-52 Eldorado Crescent (access via Rockbank Court), Meadow Heights, 3048",144.9182748,-37.65908046
VIC,Mount Dandenong,Mount Dandenong Primary School,Monbulk District,"13a Farndons Road, Mount Dandenong, 3767",145.36217,-37.83074
VIC,Hartwell,Hartwell Primary School,Burwood District,"Milverton Street, Camberwell, 3124",145.083929,-37.84758
VIC,Camperdown,Camperdown P-12 College,Polwarth District,"1 Wilson Street, Camperdown, 3260",143.1452685,-38.23984359
VIC,Learmonth,Learmonth Football and Netball Club,Ripon District,"Laidlaw Street, Learmonth, 3352",143.712671,-37.421393
VIC,Boroondara,Boroondara Park Primary School,Kew District,"Almond Street, Balwyn North, 3104",145.088062,-37.78903081
VIC,Aldercourt,Aldercourt Primary School,Frankston District,"Silver Avenue (enter via Wallowa Crescent), Frankston North, 3200",145.1612965,-38.11750101
VIC,Skipton,Skipton Mechanics' Institute,Polwarth District,"5 Anderson Street, Skipton, 3361",143.364514,-37.68697
VIC,Allansford,Allansford Primary School,South-West Coast District,"Frank Street, Allansford, 3277",142.59039,-38.38628
VIC,Jeparit,Jeparit Pre-School Centre,Lowan District,"9 Hindmarsh Street, Jeparit, 3423",141.9879195,-36.14352575
VIC,Yea,Yea Shire Hall,Eildon District,"High Street, Yea, 3717",145.4258805,-37.2114732
VIC,Heyfield,Heyfield Memorial Hall,Gippsland East District,"38 MacFarlane Street, Heyfield, 3858",146.784222,-37.984854
VIC,Doveton North,Doveton College,Dandenong District,"62 Tristania Street (access via Laurel Avenue), Doveton, 3177",145.243283,-37.99028875
VIC,Endeavour Hills,James Cook Primary School,Dandenong District,"29-59 James Cook Drive, Endeavour Hills, 3802",145.24585,-37.97906
VIC,Pimpinio,Pimpinio Uniting Church Hall,Lowan District,"47 Church Street, Pimpinio, 3401",142.1170762,-36.583985
VIC,Carnegie East,St Peter's Parish Hall,Oakleigh District,"371 Neerim Road, Carnegie, 3163",145.062661,-37.890144
VIC,Wheelers Hill South,St Justin's Primary School,Mulgrave District,"42 Whalley Drive, Wheelers Hill, 3150",145.1911347,-37.91773323
VIC,Port Melbourne East,Sol Green Community Centre,Albert Park District,"corner Montague and Coventry Streets, South Melbourne, 3205",144.952337,-37.833913
VIC,Terang,Terang Civic Hall,Polwarth District,"131 High Street, Terang, 3264",142.9153349,-38.24138667
VIC,Rawson,Rawson Primary School,Narracan District,"Knotts Siding Road, Rawson, 3825",146.3983087,-37.95821425
VIC,Campbellfield,Campbellfield Heights Primary School,Broadmeadows District,"Laurel Crescent, Campbellfield, 3061",144.9655585,-37.67446898
VIC,Northcote,Santa Maria College,Northcote District,"50 Separation Street, Northcote, 3070",145.0027,-37.769913
VIC,Fawkner,Fawkner Primary School,Broadmeadows District,"40 Lorne Street, Fawkner, 3060",144.97389,-37.715398
VIC,Lismore,Lismore Primary School,Polwarth District,"77 William Street, Lismore, 3324",143.3393,-37.9546
VIC,Napoleons,Napoleons Primary School,Buninyong District,"4721 Colac-Ballarat Road, Napoleons, 3352",143.82646,-37.67863
VIC,Bolinda,Bolinda Primary School,Macedon District,"1 Mullaleys Road, Bolinda, 3432",144.7454,-37.43373
VIC,Gardiner,Melbourne Praise Centre,Malvern District,"1536 Malvern Road, Glen Iris, 3146",145.050657,-37.854568
VIC,Fairfield,Fairfield Primary School,Northcote District,"Langridge Street, Fairfield, 3078",145.0204,-37.77799
VIC,Lillico,Nilma North and Lillico Memorial Hall,Narracan District,"488 Bloomfield Road, Nilma North, 3821",145.985949,-38.132247
VIC,Korong Vale,Korong Vale Community Centre,Ripon District,"Allen Street, Korong Vale, 3520",143.706376,-36.355827
VIC,Panton Hill,Panton Hill Primary School,Eildon District,"585 Kangaroo Ground-St Andrews Road, Panton Hill, 3759",145.23956,-37.64161
VIC,Waverley Park,Carwatha College,Mulgrave District,"43-81 Browns Road, Noble Park North, 3174",145.1890167,-37.94332768
VIC,Kyneton East,Sacred Heart College - Kyneton,Macedon District,"94 High Street (access via Ross and Begg Streets), Kyneton, 3444",144.4580443,-37.25369056
VIC,Glen Nichol,Holy Trinity Church Hall,Brunswick District,"Corner Nicholson Street and Glenlyon Road, Brunswick East, 3057",144.979695,-37.773233
VIC,Narrawong,Narrawong Mechanics Institute,South-West Coast District,"61 Windham Street, Narrawong, 3285",141.709949,-38.253344
VIC,Collendina,Bellarine Church of Christ,Bellarine District,"17 Tareeda Way, Ocean Grove, 3226",144.5498073,-38.257738
VIC,Hastings,Hastings Public Hall,Hastings District,"3 High Street, Hastings, 3915",145.194342,-38.307946
VIC,Frankston Forest,Mahogany Rise Primary School,Frankston District,"Forster Avenue, Frankston North, 3200",145.1574,-38.12562
VIC,Bolwarra,Bolwarra Primary School,South-West Coast District,"249 Princes Highway, Bolwarra, 3305",141.613823,-38.281644
VIC,Swan Hill South,Longhurst Hall - FLO Campus,Murray Plains District,"Murray Valley Highway, Swan Hill, 3585",143.5636148,-35.3564091
VIC,Maryknoll,Father Pooley Memorial Hall,Narracan District,"70 Girrahween Road, Maryknoll, 3812",145.6020456,-38.03277956
VIC,Ruffy,Ruffy Public Hall,Euroa District,"3 Nolans Road, Ruffy, 3666",145.5021333,-36.97459266
VIC,Gormandale,Gormandale Mechanics Institute,Gippsland South District,"corner Main Street and Hyland Highway, Gormandale, 3873",146.701726,-38.294507
VIC,Warrnambool - Tower Square,Our Lady Help of Christians Primary School,South-West Coast District,"28 Selby Road, Warrnambool East, 3280",142.5194431,-38.38534336
VIC,Buckley Park,Buckley Park College,"Niddrie District, Essendon District","Cooper Street, Essendon, 3040",144.897303,-37.74786689
VIC,Lakes Entrance,Lakes Entrance Mechanics Institute,Gippsland East District,"18 Mechanics Street, Lakes Entrance, 3909",147.985747,-37.880345
VIC,Toolleen,Toolleen Uniting Church Hall,Euroa District,"Toolleen-Cornella Road, Toolleen, 3551",144.685156,-36.719508
VIC,Boronia East,Boronia  Church of Christ,Bayswater District,"corner Allandale and Boronia Roads, Boronia, 3155",145.289198,-37.862473
VIC,Gisborne South,Gisborne Secondary College,Macedon District,"95 Melton Road, Gisborne, 3437",144.58477,-37.49811
VIC,Moreland,Moreland Primary School,Brunswick District,"157-163 Moreland Road, corner Blair and, De Carle Streets, Moreland, 3058",144.9663497,-37.7554606
VIC,Guthrie Street,Guthrie Street Primary School,Shepparton District,"Guthrie Street, Shepparton, 3630",145.39097,-36.3985
VIC,Rosanna,Rosanna Primary School,Ivanhoe District,"Grandview Grove, Rosanna, 3084",145.063415,-37.735203
VIC,Jobs Gully,Eaglehawk Secondary College,Bendigo East District,"1 Reserve Street, Eaglehawk, 3556",144.26269,-36.72026
VIC,Daylesford,Daylesford Primary School,Macedon District,"102-128 Vincent Street, Daylesford, 3460",144.14156,-37.3451
VIC,Melbourne,St Michael's Uniting Church,Melbourne District,"120 Collins Street, Melbourne, 3000",144.9692222,-37.81434008
VIC,Civic Square,Keystone Hall,Croydon District,"9 Civic Square, Croydon, 3136",145.2832737,-37.80085941
VIC,Carrum Downs,Carrum Downs Secondary College,Carrum District,"263 McCormicks Road, Carrum Downs, 3201",145.1974367,-38.09496818
VIC,Swan Hill West,Swan Hill Primary School,Murray Plains District,"123 Gray Street, Swan Hill, 3585",143.54325,-35.34691
VIC,Bayswater North,Bayswater North Primary School,Bayswater District,"Stuart Street, Bayswater, 3153",145.295081,-37.828567
VIC,Upfield,Dallas Brooks Community Primary School,Broadmeadows District,"26-36 King Street, Dallas, 3047",144.9432821,-37.66977727
VIC,Roxburgh Homestead,Roxburgh Homestead Primary School,"Broadmeadows District, Yuroke District","McPherson Boulevard ,  (access via Raven Hill Boulevard) , Roxburgh Park, 3064",144.9163683,-37.63218426
VIC,Streeton,Streeton Primary  School,"Bundoora District, Ivanhoe District","209 Yallambie Road, Yallambie, 3085",145.1013576,-37.72150018
VIC,Bell,Bell Primary School,"Northcote District, Preston District","78a Oakover Road (access via Scotia Road), Preston, 3072",144.9903549,-37.74694848
VIC,Barwon Heads,Barwon Heads Primary School,Bellarine District,"Golf Links Road, Barwon Heads, 3227",144.4855995,-38.2812458
VIC,Benambra,Benambra Public Hall,Gippsland East District,"Gibbo Street, Benambra, 3900",147.7037842,-36.95552942
VIC,Taggerty,Taggerty  Hall,Eildon District,"5 Taggerty-Thornton Road, Taggerty, 3714",145.7123817,-37.32107751
VIC,Glenorden,Wyndham Park Primary School,Werribee District,"59-77 Kookaburra Avenue, Werribee, 3030",144.676891,-37.883855
VIC,Montrose South,Billanook Primary School,Monbulk District,"corner Sheffield Road and Taruna Rise, Montrose, 3765",145.3387999,-37.82515379
VIC,Deer Park West,Deer Park West Primary School,Kororoit District,"Quinn Street, Deer Park, 3023",144.7652208,-37.77163287
VIC,Dunolly,Dunolly Senior Citizens Clubrooms,Ripon District,"21 Bull Street, Dunolly, 3472",143.731893,-36.858182
VIC,Kerang North,Kerang Technical High School (Thornely Hall),Murray Plains District,"48 Murray Street, Kerang, 3579",143.9138,-35.72565
VIC,Redan Central,Betty Day Centre,Prahran District,"67 Argyle Street, St Kilda, 3182",144.987432,-37.86293
VIC,Hampton,Hampton Primary School,"Brighton District, Sandringham District","528 Hampton Street, Hampton, 3188",145.004047,-37.933649
VIC,Swan Hill,Swan Hill Anglican Function Centre,Murray Plains District,"Splatt Street, Swan Hill, 3585",143.556403,-35.33971
VIC,Aspendale Gardens,Aspendale Gardens Primary School,"Mordialloc District, Keysborough District","96 Kearney Drive (Access via Kerr Crescent) , Aspendale Gardens, 3195",145.1157197,-38.02313695
VIC,Bruthen,Bruthen Mechanics Hall,Gippsland East District,"49 Main Street, Bruthen, 3885",147.8318152,-37.70730103
VIC,Canterbury Gardens,The Basin Primary School,Bayswater District,"corner Mountain Highway and Liverpool Road, The Basin, 3154",145.309641,-37.849794
VIC,Lavers Hill,Lavers Hill Public Hall,Polwarth District,"47 Great Ocean Road, Lavers Hill, 3238",143.387351,-38.682731
VIC,Britannia,St Patrick's Catholic Primary School,Geelong District,"11 Petrel Street, Geelong West, 3218",144.3462544,-38.13504352
VIC,Camberwell,Camberwell Primary School,Hawthorn District,"290 Camberwell Road (access via Reserve Road), Camberwell, 3124",145.058663,-37.83358733
VIC,The Patch,The Patch Primary School,Monbulk District,"53 Kallista-Emerald Road, The Patch, 3792",145.393752,-37.891855
VIC,Footscray,Gilmore Girls College,Footscray District,"298 Barkly Street, Footscray, 3011",144.89489,-37.7991
VIC,Cobains,Cobains Primary School,Gippsland East District,"3 Crofts Road, Cobains, 3851",147.13228,-38.07479
VIC,Caulfield East,Glen Eira College,Caulfield District,"76 Booran Road, Caulfield East, 3162",145.037964,-37.8852
VIC,Heatherhill,Heatherhill Primary School,Keysborough District,"959 Heatherton Road, Springvale, 3171",145.1583715,-37.96205125
VIC,Berwick South,Brentwood Park Primary School,Narre Warren South District,"Bemersyde Drive, Berwick, 3806",145.346428,-38.052434
VIC,Doveton West,Holy Family Catholic Primary School,Dandenong District,"100 Power Road, Doveton, 3177",145.2385754,-37.99035754
VIC,Eltham North,Eltham North Primary School,Eltham District,"35-47 Wattletree Road, Eltham North, 3095",145.15092,-37.69958
VIC,Glengala South,Sunshine Special Development School,Footscray District,"Ivory Court (access via Mounsey Street), Sunshine West, 3020",144.819889,-37.803435
VIC,Ceres,Ceres Temperance Hall,South Barwon District,"40a McCann Street, Ceres, 3221",144.2767559,-38.17030589
VIC,Preston East,The Pavilion,Preston District,"1-3 Sylvester Grove, Preston, 3072",145.0181509,-37.73799507
VIC,Mount Ridley,Mount Ridley P-12 College,Yuroke District,"2-30 Hampton Street, Craigieburn, 3064",144.9242362,-37.57943925
VIC,Strathmore North,Strathmore North Primary School,"Essendon District, Pascoe Vale District","Mascoma Street, Strathmore, 3041",144.916446,-37.724684
VIC,Taylors Hill,Taylors Hill Primary School,Sydenham District,"corner Loddon Drive and Park Lane, Taylors Hill, 3037",144.759823,-37.716619
VIC,St Albans Park,Whittington Senior Citizens Club,Geelong District,"50 Westmoreland Street, St Albans Park, 3219",144.3879896,-38.1831053
VIC,Torrumbarry,Torrumbarry Public Hall,Murray Plains District,"Murray Valley Highway, Torrumbarry, 3562",144.5143835,-36.02824174
VIC,Thornton,Thornton Memorial Hall,Eildon District,"1335 Taggerty-Thornton Road, Thornton, 3712",145.797291,-37.257537
VIC,Somerville West,Somerville Rise Primary School,Hastings District,"Blacks Camp Road, Somerville, 3912",145.16775,-38.23003
VIC,Lilydale Heights,Lilydale Heights College,Evelyn District,"17 Nelson Road, Lilydale, 3140",145.3414718,-37.74488313
VIC,Campbells Creek,Campbells Creek Primary School,Bendigo West District,"127-133 Main Road, Campbells Creek, 3451",144.204252,-37.092786
VIC,Ballam Park,McClelland College,Frankston District,"31 Belar Avenue (enter via Alexander Crescent), Frankston, 3200",145.1616231,-38.14611777
VIC,Elwood,St Columba's Catholic School and Church,Brighton District,"24 Glen Huntly Road, Elwood, 3184",144.981781,-37.88231
VIC,Pakenham Hills,Pakenham Hills Primary School,Gembrook District,"15 Kennedy Road, Pakenham, 3810",145.4958319,-38.06206477
VIC,Taylors Lakes,Taylors Lakes Primary School,Sydenham District,"Chichester Drive, Taylors Lakes, 3038",144.793223,-37.709293
VIC,Dumbalk,Dumbalk Public Hall,Gippsland South District,"Farmers Road, Dumbalk, 3956",146.0942654,-38.5332077
VIC,Knox,St Joseph's Primary School Boronia,Bayswater District,"212 Boronia Road, Boronia, 3155",145.2757684,-37.86205078
VIC,Malvern,Malvern Central School,Malvern District,"Spring Road, Malvern, 3144",145.034701,-37.85567
VIC,Yaapeet,Yaapeet Primary School,Mildura District,"4 Woods Street, Yaapeet, 3424",142.0573449,-35.76817987
VIC,Newport East,Home Road Kindergarten,Williamstown District,"44 Home Road, Newport, 3015",144.887867,-37.841206
VIC,Taylors Lakes North,Overnewton Anglican Community College - Taylors Lakes Campus,Sydenham District,"39-57 Robertsons Road, Taylors Lakes, 3038",144.774786,-37.68901
VIC,Bell Park,Bell Park North Primary School,Lara District,"16 Barton Street, Bell Park, 3215",144.3358491,-38.10597417
VIC,Mont Albert,Mont Albert Primary School,Box Hill District,"Barloa Road, Mont Albert, 3127",145.1032955,-37.81273458
VIC,Harrietville,Harrietville Community Hall,Ovens Valley District,"Great Alpine Road, Harrietville, 3741",147.0634091,-36.89174706
VIC,Cooma,Cooma Uniting Church Hall,Euroa District,"Kyabram-Cooma Road, Cooma, 3616",145.068515,-36.41429763
VIC,Haven,Haven Memorial Hall,Lowan District,"4378 Henty Highway, Haven, 3401",142.1941793,-36.75694029
VIC,Box Hill Central,Wesley Hall,Box Hill District,"2-6 Oxford Street, Box Hill, 3128",145.1220501,-37.82164814
VIC,Spring Valley,Spring Parks Primary School - Valley Campus,Clarinda District,"27-39 Clarke Road, Springvale South, 3172",145.13908,-37.96378
VIC,Arthurs Creek,Arthurs Creek Primary School,Eildon District,"900 Arthurs Creek Road, Arthurs Creek, 3099",145.2025,-37.579
VIC,Laurimar,Laurimar Primary School,Yan Yean District,"1 Armidale Road, Laurimar, 3754",145.1282742,-37.58545167
VIC,Bimbadeen,Bimbadeen Heights Primary School,Evelyn District,"Hayrick Lane, Mooroolbark, 3138",145.32114,-37.77376
VIC,Sussex Heights,Mount Waverley Heights Primary School,Oakleigh District,"36 Solomon Street, Mount Waverley, 3149",145.110571,-37.88886267
VIC,Coolaroo,Coolaroo South Primary School,Broadmeadows District,"Bushfield Crescent, Coolaroo, 3048",144.930491,-37.661631
VIC,Dimboola,Dimboola Uniting Church,Lowan District,"17-19 Normanby Street, Dimboola, 3414",142.026189,-36.451127
VIC,Great Western,Great Western Primary School,Ripon District,"Stephenson Street, Great Western, 3374",142.8517302,-37.14851045
VIC,Minyip,Minyip Memorial Hall,Lowan District,"52 Main Street, Minyip, 3392",142.58635,-36.460125
VIC,Wandiligong,Wandiligong Primary School,Ovens Valley District,"119 School Road, Wandiligong, 3744",146.98292,-36.76886
VIC,Longwarry,Longwarry Public Hall,Narracan District,"14 Kennedy Street, Longwarry, 3816",145.767716,-38.113866
VIC,Toorak Central,Toorak Primary School,"Prahran District, Malvern District","Canterbury Road, Toorak, 3142",145.009713,-37.844907
VIC,Black Rock,Black Rock Primary School,Sandringham District,"71 Arkaringa Crescent, Black Rock, 3193",145.0216402,-37.96988261
VIC,Speed,Speed Recreation Centre (Golf Club),Mildura District,"Golf Course Road, Speed, 3488",142.4397532,-35.39849606
VIC,Bellbridge East,Bellbridge Primary School,Tarneit District,"120 Bellbridge Drive (access via Matlock Street), Hoppers Crossing, 3029",144.71078,-37.87108
VIC,Emerald,Emerald Primary School,Gembrook District,"Heroes Avenue, Emerald, 3782",145.4416496,-37.93347761
VIC,Moe,Albert Street Primary School,"Narracan District, Morwell District","40 Albert Street (access via Anzac Street), Moe, 3825",146.26435,-38.17471
VIC,Newport,Newport Lakes Primary School,Williamstown District,"Elizabeth Street, Newport, 3015",144.8785356,-37.8381499
VIC,Merrilands,William Ruthven Secondary College,"Preston District, Thomastown District","60 Merrilands Road, Reservoir, 3073",145.003,-37.69653
VIC,Cobden,Cobden Civic Hall,Polwarth District,"53-55 Victoria Street, Cobden, 3266",143.0770678,-38.32704348
VIC,Sparrowhawk,Long Gully Neighbourhood Centre,Bendigo West District,"54 Derwent Drive, Long Gully, 3550",144.253744,-36.749591
VIC,Malmsbury,Malmsbury Primary School,Macedon District,"28 Cameron Street, Malmsbury, 3446",144.38694,-37.18732
VIC,Lyrebird,Lyrebird Community Centre,Carrum District,"203 Lyrebird Drive, Carrum Downs, 3201",145.187184,-38.102963
VIC,Mill Park,Mill Park Primary School,Bundoora District,"Blamey Avenue, Mill Park, 3082",145.0658198,-37.67456038
VIC,Elsternwick North,12th Caulfield Scout Hall,Caulfield District,"1 Beavis Street, Elsternwick, 3185",145.00723,-37.884755
VIC,Hyde Park,1st Kew Scout Hall,Kew District,"corner Willsmere Road and Kellett Grove, Kew, 3101",145.0396881,-37.79161051
VIC,Caulfield South,4th Caulfield Scout Hall,Caulfield District,"1a Birch Street (access via Hawthorn Road) , Caulfield South, 3162",145.021465,-37.892674
VIC,Bridport,Albert Park Primary School,Albert Park District,"Bridport Street (access via Cardigan Place), Albert Park, 3206",144.9522177,-37.84144328
VIC,Burwood,Alfred Road Kindergarten,Burwood District,"48a Alfred Road, Glen Iris, 3146",145.0888952,-37.85446257
VIC,Ashwood,Ashwood High School,Burwood District,"50 Vannam Drive Block B, Ashwood, 3147",145.1038604,-37.8643315
VIC,Auburn North,Auburn Primary School,Hawthorn District,"51 Rathmines Road, Hawthorn East, 3123",145.050392,-37.819619
VIC,Auburn South,Auburn South Primary School,Hawthorn District,"419 Tooronga Road (access via Burgess Street), Hawthorn East, 3123",145.044784,-37.839172
VIC,Balwyn Central,Balwyn Church of Christ Hall,Kew District,"corner Whitehorse and Cherry Roads, Balwyn, 3103",145.079996,-37.81295
VIC,Balwyn North,Balwyn North Primary School,Kew District,"94 Maud Street, Balwyn North, 3104",145.076826,-37.796488
VIC,Beaumaris North,Beaumaris North Primary School,Sandringham District,"McDonald Street, Beaumaris, 3193",145.0373487,-37.97390639
VIC,Balwyn North West,Belle Vue Primary School,Kew District,"20 Highview Road, Balwyn North, 3104",145.079131,-37.781835
VIC,Balwyn West,Belmore School,Kew District,"49 Stroud Street, Balwyn, 3103",145.08118,-37.804166
VIC,Black Rock South,Black Rock Uniting Church Hall,Sandringham District,"corner Balcombe Road and Central Avenue, Black Rock, 3193",145.022027,-37.976551
VIC,Brighton Beach,Brighton Beach Primary School,Brighton District,"19 Windermere Crescent, Brighton, 3186",144.996035,-37.92190498
VIC,Brighton,Brighton Primary School,Brighton District,"Wilson Street, Brighton, 3186",145.0013771,-37.91229712
VIC,Brighton High,Brighton Secondary College,Brighton District,"120 Marriage Road, Brighton East, 3187",145.0195974,-37.92050802
VIC,Studley Park,Burke Hall (Xavier Prep School),Kew District,"2 Nolan Avenue, Kew, 3101",145.0145674,-37.80563912
VIC,Camberwell Middle,Camberwell Church of Christ,Hawthorn District,"620 Riversdale Road, Camberwell, 3124",145.065958,-37.832596
VIC,Canterbury South,Camberwell High School,Hawthorn District,"Prospect Hill Road, Canterbury, 3126",145.0727881,-37.83079672
VIC,Camberwell South,Camberwell South Primary School,Hawthorn District,"Peate Avenue, Glen Iris, 3146",145.0626058,-37.8479298
VIC,Canterbury,Canterbury Girls Secondary College,"Kew District, Hawthorn District","Irilbarra Road, Canterbury, 3126",145.0702812,-37.81991415
VIC,Carlton Central,Carlton North Primary School,Melbourne District,"Lee Street, Carlton North, 3054",144.973102,-37.790982
VIC,Caulfield North,Caulfield Indonesian Uniting Church Hall,Caulfield District,"158 Balaclava Road, Caulfield North, 3161",145.01937,-37.871708
VIC,Bundeera,Caulfield South Primary School,Caulfield District,"24 Bundeera Road, Caulfield South, 3162",145.030422,-37.895534
VIC,Cheltenham East,Cheltenham East Primary School,"Clarinda District, Mordialloc District","Silver Street, Cheltenham, 3192",145.06835,-37.96526
VIC,Cheltenham,Cheltenham Primary School,Sandringham District,"231 Charman Road, Cheltenham, 3192",145.05463,-37.96861
VIC,Coburn,Coburn Primary School,Melton District,"24-42 Richard Road, Melton South, 3338",144.5724946,-37.69398345
VIC,St Kilda South,Cora Graves Centre,Albert Park District,"38 Blessington Street, St Kilda, 3182",144.9821148,-37.86969188
VIC,Alamein,Craig Family Centre,Burwood District,"7 Samarinda Avenue, Ashburton, 3147",145.084077,-37.866675
VIC,Dendy,Dendy Scout Hall,Brighton District,"210 Dendy Street, Brighton East, 3187",145.015864,-37.922367
VIC,Elsternwick South,Elsternwick Primary School,Brighton District,"44-48 Murphy Street, Brighton, 3186",144.9986382,-37.8914848
VIC,Elwood North,Elwood Primary School,Brighton District,"corner Mitford Street and Poets Grove , Elwood, 3184",144.987787,-37.88196378
VIC,Glenferrie South,Erasmus School,Hawthorn District,"40 Lisson Grove, Hawthorn, 3122",145.0314651,-37.82721474
VIC,Sandridge,Fishermens Bend Community Hall,Albert Park District,"corner Dunstan Parade and Centre Avenue, Port Melbourne, 3207",144.920433,-37.836702
VIC,Landcox,Gardenvale Primary School - Senior School Campus,Brighton District,"66 Landcox Street, Brighton East, 3187",145.015797,-37.902585
VIC,Cotham,Genazzano College,Kew District,"301 Cotham Road (access via Mont Victor Road), Kew, 3101",145.0571029,-37.80860628
VIC,Glen Eira,Glen Eira Town Hall - Auditorium,Caulfield District,"416-428 Glen Eira Road, Caulfield, 3162",145.022324,-37.880068
VIC,Glenferrie Central,Glenferrie Primary School,Hawthorn District,"78-98 Manningtree Road, Hawthorn, 3122",145.033551,-37.824393
VIC,Prahran,Grattan Gardens Community Centre,Prahran District,"40 Grattan Street, Prahran, 3181",144.991585,-37.847124
VIC,Greythorn,Greythorn Primary School,"Kew District, Box Hill District","Reading Avenue, Balwyn North, 3104",145.0956854,-37.80222112
VIC,Hampton Central,Hampton Uniting Church Hall,Sandringham District,"corner Service and Deakin Streets, Hampton, 3188",145.004622,-37.939519
VIC,Auburn,Hawthorn Citizens Youth Club,Hawthorn District,"241 Auburn Road, Hawthorn, 3122",145.044201,-37.82868
VIC,Highett South,Highett Neighbourhood Community House,Sandringham District,"2 Livingston Street, Highett, 3190",145.0379258,-37.9476645
VIC,Ormond,Katandra School,Caulfield District,"2 Walsh Street, Ormond, 3204",145.040621,-37.901965
VIC,South Kensington,Kensington Community Recreation Centre,Melbourne District,"Corner Kensington Road and Altona Street, Kensington, 3031",144.924499,-37.79683
VIC,Kensington,Kensington Primary School,Melbourne District,"62-74 McCracken Street, Kensington, 3031",144.927379,-37.792563
VIC,Kew North,Kew East Primary School,Kew District,"35 Kitchener Street, Kew East, 3102",145.0490889,-37.79633098
VIC,Kew East,Kew East Uniting Church Hall,Kew District,"142 Normanby Road, Kew East, 3102",145.056165,-37.79761
VIC,Kew,Kew Primary School,Kew District,"Pakington Street, Kew, 3101",145.0332608,-37.80414676
VIC,Mentone West,Mentone Girls Secondary College,Sandringham District,"175 Balcombe Road (enter Gate 1), Mentone, 3194",145.0544749,-37.98120326
VIC,Middle Park,Middle Park Bowling Club,Albert Park District,"Canterbury Road (access via Armstrong Street), Middle Park, 3206",144.9649486,-37.84866688
VIC,Kerferd South,Middle Park Primary School,Albert Park District,"Richardson Street (access via Mills Street), Middle Park, 3206",144.9574266,-37.84801514
VIC,Hotham Hill,North Melbourne Community Centre,Melbourne District,"49-53 Buncle Street, North Melbourne, 3051",144.9400739,-37.79313619
VIC,North Melbourne,North Melbourne Primary School,Melbourne District,"210 Errol Street, North Melbourne, 3501",144.9508037,-37.79863112
VIC,Deepdene,Our Lady of Good Counsel,Kew District,"12 Whitehorse Road, Deepdene, 3103",145.062706,-37.810993
VIC,Orrong,Our Lady of Lourdes School,Prahran District,"7 Wynnstay Road, East Prahran, 3181",145.009481,-37.852297
VIC,Prahran East,Prahan RSL Memorial Hall,Prahran District,"301 High Street, Prahran, 3181",144.998212,-37.852228
VIC,Ripponlea East,Ripponlea Primary School,Caulfield District,"Carrington Grove, St Kilda East, 3183",145.005124,-37.874706
VIC,Box Hill South,Roberts McCubbin Primary School,Burwood District,"corner Birdwood and Devon Streets, Box Hill South, 3128",145.1257142,-37.83457391
VIC,Sandringham North,Sandringham Primary School,Sandringham District,"31 Bamfield Street, Sandringham, 3191",145.008906,-37.947448
VIC,Holloway,Sandringham Secondary College,Sandringham District,"11 Holloway Road, Sandringham, 3191",145.024384,-37.95651
VIC,Highett,Sandringham Secondary College - Highett Campus,Sandringham District,"356 Bluff Road, Highett, 3190",145.021743,-37.951155
VIC,Hampton East,Sandringham Youth Club,Brighton District,"219 Thomas Street, Hampton, 3188",145.0177719,-37.93994709
VIC,Glen Iris South,Solway Primary School,Burwood District,"Winton Road, Ashburton, 3147",145.07333,-37.872499
VIC,South Melbourne,South Melbourne Town Hall,Albert Park District,"Auditorium, 208 Bank Street, South Melbourne, 3205",144.959708,-37.834202
VIC,Hawksburn Central,South Yarra Community Baptist Church,Prahran District,"12 Surrey Road, South Yarra, 3141",144.998377,-37.846117
VIC,Middle Brighton,St Andrew's Hall,Brighton District,"19-21 St Andrews Street, Brighton, 3186",144.992759,-37.912079
VIC,Mentone,St Augustine's Church Hall,"Sandringham District, Mordialloc District","90-92 Como Parade West, Mentone, 3194",145.067616,-37.986059
VIC,Burwood Central,St Benedict's Primary School Hall,Burwood District,"3-9 Central Avenue, Burwood, 3125",145.097301,-37.849422
VIC,Highfield,St Dominic's Parish Primary School,"Hawthorn District, Burwood District","145 Highfield Road, Camberwell, 3124",145.083502,-37.83868
VIC,St Kilda Park,St Kilda Park Primary School,Albert Park District,"68 Fitzroy Street, St Kilda, 3182",144.977441,-37.85797
VIC,St Kilda,St Kilda Town Hall,"Caulfield District, Albert Park District","corner Carlisle Street and Brighton Road, St Kilda, 3182",144.988404,-37.868552
VIC,Glen Iris,St Oswald's Church Hall,"Burwood District, Hawthorn District","100 High Street, Glen Iris, 3146",145.070808,-37.862732
VIC,Hawksburn,Toorak - South Yarra Library,Prahran District,"338 Toorak Road, South Yarra, 3141",144.999501,-37.840213
VIC,Kew South,Trinity Grammar School,Kew District,"40 Charles Street, Kew, 3101",145.0341784,-37.81087153
VIC,Parkville,University High School - Performance Centre,Melbourne District,"77 Story Street, Parkville, 3052",144.9556181,-37.79713206
VIC,Elsternwick,Wesley College Elsternwick Campus,Caulfield District,"5 Gladstone Parade (access via Carlingford Street), Elsternwick, 3185",145.009709,-37.889644
VIC,Chatham South,Youth With A Mission,"Burwood District, Hawthorn District","1 Kent Road, Surrey Hills, 3127",145.090117,-37.827591
VIC,Carnegie North,1st Malvern Scout Hall,Malvern District,"Cooinda Place (access via Belgrave Road), Malvern East, 3145",145.067524,-37.880112
VIC,Armadale,Armadale Primary School,Malvern District,"9-23 Densham Road, Armadale, 3143",145.0177701,-37.8522106
VIC,Malvern Lower,Lauriston Girls School,Malvern District,"38 Huntingtower Road, Armadale, 3143",145.025204,-37.852269
VIC,Malvern East,Lloyd Street Primary School,Malvern District,"corner Lloyd Street and Rothesay Avenue , Malvern East, 3144",145.056758,-37.872477
VIC,Malvern South,Malvern Primary School,Malvern District,"17 Tooronga Road, Malvern, 3144",145.037924,-37.871031
VIC,Chadstone,Malvern Valley Primary School,Malvern District,"1 Abbotsford Avenue, Malvern East, 3145",145.081794,-37.880617
VIC,Armadale East,St Joseph's Primary School (Malvern),Malvern District,"47 Stanhope Street, Malvern, 3144",145.0312457,-37.85788041
VIC,Alma,Alma Road Community House,Prahran District,"200 Alma Road, St Kilda East, 3183",145.007383,-37.863222
VIC,Balaclava,Bet Anielewicz Centre,Prahran District,"214 Inkerman Street (access via Raglan Street), St Kilda East, 3183",144.9939519,-37.86530677
VIC,Boolarra,Boolarra Memorial Hall,Morwell District,"Tarwin Street, Boolarra, 3870",146.27454,-38.378623
VIC,Churchill,Churchill Shire Hall,Morwell District,"Marina Drive, Churchill, 3842",146.421555,-38.313372
VIC,Cowwarr,Cowwarr Primary School,Morwell District,"Church Street, Cowwarr, 3857",146.69896,-38.0137
VIC,Glengarry,Glengarry Primary School,Morwell District,"Cairnbrook Road, Glengarry, 3854",146.5713396,-38.12757979
VIC,Traralgon,Grey Street Primary School,Morwell District,"30-44 Grey Street, Traralgon, 3844",146.53712,-38.19305
VIC,Hazelwood North,Hazelwood North Primary School,Morwell District,"121 Church Road, Hazelwood North, 3840",146.44768,-38.26819
VIC,Morwell Estate,Kurnai Secondary College.,Morwell District,"Bridle Road, Morwell, 3840",146.43279,-38.22879
VIC,Traralgon East,Liddiard Road Primary School,Morwell District,"148 Liddiard Road, Traralgon, 3844",146.5517397,-38.20145228
VIC,Morwell,Morwell Senior Citizens Centre,Morwell District,"Maryvale Crescent, Morwell, 3840",146.3900639,-38.23711089
VIC,Morwell East,Revival Centre International,Morwell District,"Laburnum Street, Morwell, 3840",146.418216,-38.218823
VIC,Morwell Central,St Mary's Anglican Church,Morwell District,"6 Latrobe Road, Morwell, 3840",146.3948201,-38.23501646
VIC,Toongabbie,Toongabbie Primary School,Morwell District,"Victoria Street, Toongabbie, 3856",146.62518,-38.05697
VIC,Traralgon South,Traralgon South Community Hall,Morwell District,"Cats Drive, Traralgon South, 3844",146.5393547,-38.29673589
VIC,Traralgon North East,Traralgon Uniting Church Hall,Morwell District,"19 Park Lane, Traralgon, 3844",146.5525966,-38.18921071
VIC,Tyers,Tyers Primary School,Morwell District,"Main Road, Tyers, 3844",146.47754,-38.14911
VIC,Yallourn North,Yallourn North Primary School,Morwell District,"Reserve Street, Yallourn North, 3825",146.3625533,-38.16334711
VIC,Yinnar,Yinnar RSL Hall,Morwell District,"14 Main Street, Yinnar, 3869",146.330212,-38.320316
VIC,Berendale,Berendale School,Bentleigh District,"2 Berend Street, Hampton East, 3188",145.03181,-37.93896
VIC,Moorabbin Central,City of Kingston Town Hall,Bentleigh District,"985 Nepean Highway, Moorabbin, 3189",145.036034,-37.933699
VIC,Coatesville,Coatesville Primary School,"Bentleigh District, Clarinda District","21 Mackie Road, Bentleigh East, 3165",145.07324,-37.92034
VIC,Moorabbin Heights,East Bentleigh Primary School,Bentleigh District,"90 Bignell Road, Bentleigh East, 3165",145.06992,-37.93465
VIC,McKinnon,McKinnon Public Hall,Bentleigh District,"118 McKinnon Road, McKinnon, 3204",145.0358489,-37.91092353
VIC,McKinnon East,McKinnon Secondary College,Bentleigh District,"291a McKinnon Road, McKinnon, 3204",145.04912,-37.91203
VIC,Ormond West,Ormond Primary School,Bentleigh District,"121 Wheatley Road (access via Murray Road), Ormond, 3204",145.03367,-37.907
VIC,Bentleigh,Our Lady of Sacred Heart College,Bentleigh District,"111 Jasper Road, Bentleigh, 3204",145.040291,-37.925192
VIC,Southmoor,Southmoor Primary School,Bentleigh District,"Rica Street, Moorabbin, 3189",145.0562311,-37.94129116
VIC,Moorabbin South East,Wickham Road Uniting Church Hall,"Bentleigh District, Sandringham District","185 Wickham Road, Moorabbin, 3189",145.046752,-37.945323
VIC,Tyne,11th Box Hill Scout Hall,Box Hill District,"31 Tyne Street, Box Hill North, 3129",145.1277633,-37.81098376
VIC,Blackburn Lake,Blackburn Lake Primary School,Box Hill District,"12-14 Florence Street, Blackburn, 3130",145.1651781,-37.82677943
VIC,Blackburn North,Blackburn Primary School,Box Hill District,"185 Surrey Road, Blackburn, 3130",145.15767,-37.81754
VIC,Box Hill North,Box Hill North Primary School,Box Hill District,"7-9 Elizabeth Street, Box Hill North, 3129",145.12331,-37.80079
VIC,Chatham,Chatham Primary School,Box Hill District,"Weybridge Street (access via Banool Road), Surrey Hills, 3127",145.09188,-37.81711
VIC,Kerrimuir,Kerrimuir Primary School,Box Hill District,"Molbray Street, Box Hill North, 3129",145.13512,-37.80363
VIC,Koonung Heights,Koonung Secondary College,Box Hill District,"615 Elgar Road, Mont Albert North, 3129",145.1170959,-37.80249302
VIC,Laburnum,Laburnum Primary School,Box Hill District,"corner Middleborough Road and Janet Street, Blackburn, 3130",145.13875,-37.82708
VIC,Box Hill,St Peter's Anglican Church Hall,Box Hill District,"1038 Whitehorse Road, Box Hill, 3128",145.127444,-37.818848
VIC,Surrey Hills North,Surrey Hills Holy Trinity Church Hall,Box Hill District,"177 Union Road, Surrey Hills, 3127",145.0981462,-37.82236409
VIC,Surrey Hills,Surrey Hills Uniting Church Hall,"Box Hill District, Burwood District","corner Canterbury Road and Valonia Avenue, Surrey Hills, 3127",145.101588,-37.826276
VIC,Blackburn,The Avenue Uniting Church,Box Hill District,"44 Blackburn Road, Blackburn, 3130",145.152223,-37.822904
VIC,Doncaster South,Birralee Primary School,Bulleen District,"8-26 Heyington Avenue, Doncaster, 3108",145.11334,-37.79328
VIC,Lower Templestowe,Bulleen Heights School Manningham Road Campus,Bulleen District,"221 Manningham Road, Templestowe Lower, 3107",145.1051053,-37.7711514
VIC,The Pines,Deep Creek Anglican Church Hall,"Warrandyte District, Bulleen District","460 Blackburn Road, Doncaster East, 3109",145.1666153,-37.76625059
VIC,Doncaster,Doncaster Primary School,Bulleen District,"2-12 Council Street, Doncaster, 3108",145.12967,-37.7868
VIC,Doncaster Central,Doncaster Secondary College,Bulleen District,"123 Church Road, Doncaster, 3108",145.13805,-37.78458
VIC,Manningham,St Clement of Rome Primary School,Bulleen District,"9 Egan Drive, Bulleen, 3105",145.0905395,-37.76742664
VIC,Templestowe Park,Templestowe Park Primary School,Bulleen District,"399 Church Road, Templestowe, 3106",145.1423979,-37.75612137
VIC,Templestowe Valley,Templestowe Valley Primary School,Bulleen District,"15 Birchwood Avenue, Templestowe Lower, 3107",145.1103797,-37.76004447
VIC,Doncaster West,Vista Valley Kindergarten,Bulleen District,"3 Vista Street, Bulleen, 3105",145.103124,-37.777699
VIC,Banyan Fields,Banyan Fields Primary School,Carrum District,"90 Cadles Road, Carrum Downs, 3201",145.18719,-38.09477
VIC,Belvedere Park,Belvedere Park Primary School,Carrum District,"30 Belvedere Road, Seaford, 3198",145.14681,-38.10972
VIC,Bonbeach,Bonbeach Primary School,Carrum District,"29-63 Breeze Street, Bonbeach, 3196",145.1252784,-38.06705266
VIC,Carrum,Carrum Primary School,Carrum District,"Walkers Road (access via Valetta Street), Carrum, 3197",145.1262705,-38.07843746
VIC,Chelsea Central,Chelsea Primary School,"Mordialloc District, Carrum District","34-44 Argyle Avenue, Chelsea, 3196",145.1226069,-38.05551013
VIC,Kananook,Kananook Primary School,"Carrum District, Frankston District","22 Wells Road, Seaford, 3198",145.132125,-38.12503269
VIC,Patterson Lakes,Patterson Lakes Community Centre,Carrum District,"54-70 Thompsons Road, Patterson Lakes, 3197",145.143454,-38.068894
VIC,Rowellyn Park,Rowellyn Park Primary School,Carrum District,"Corner Tattler Street and Rowellyn Avenue, Carrum Downs, 3201",145.1922457,-38.10379321
VIC,Seaford,Seaford Primary School,Carrum District,"McRae Street, Seaford, 3198",145.1305,-38.10444
VIC,Skye,Skye Primary School,Carrum District,"395 Ballarto Road, Skye, 3977",145.20124,-38.11771
VIC,Warrawong,Blackburn English Language School,Forest Hill District,"120 Eley Road, Burwood East, 3151",145.14829,-37.84789
VIC,Burwood Heights,Burwood Heights Primary School,Forest Hill District,"corner Mahoneys and Hawthorn Roads, Burwood East, 3130",145.162611,-37.847182
VIC,Camelot,Camelot Rise Primary School,Forest Hill District,"Galahad Crescent, Glen Waverley, 3150",145.18803,-37.86524
VIC,Tally Ho,East Burwood Hall,Forest Hill District,"310 Burwood Highway, Burwood East, 3151",145.1615849,-37.85438717
VIC,Glen Waverley,Glen Waverley Primary School,"Mount Waverley District, Forest Hill District","774 High Street Road, Glen Waverley, 3150",145.1678,-37.87469
VIC,Forest Hill,Holbury Childrens Centre,Forest Hill District,"29 Raleigh Street, Blackburn South, 3130",145.15907,-37.839374
VIC,Charlesworth Park,Livingstone Primary School,Forest Hill District,"25 Livingstone Road, Vermont South, 3133",145.1806597,-37.85292008
VIC,Nunawading South,Mt Pleasant Road Primary School,"Ringwood District, Forest Hill District","105 Mt Pleasant Road, Nunawading, 3131",145.1802695,-37.82855638
VIC,Parkmore,Parkmore Primary School,Forest Hill District,"38-54 Jolimont Road, Forest Hill, 3131",145.176916,-37.84390778
VIC,Mitcham South,Rangeview Primary School,"Ringwood District, Forest Hill District","27 Churinga Avenue, Mitcham, 3132",145.2061775,-37.82917441
VIC,Eastmont,St James Primary School,Forest Hill District,"51 Centre Road, Vermont, 3133",145.209429,-37.836488
VIC,Morack,Vermont Secondary College,Forest Hill District,"27-63 Morack Road, Vermont, 3133",145.200832,-37.844126
VIC,Weeden Heights,Weeden Heights Primary School,Forest Hill District,"43-51 Weeden Drive, Vermont South, 3133",145.1781124,-37.85889415
VIC,Bruce Park,Bruce Park Hall,Frankston District,"Margate Avenue, Frankston, 3199",145.138256,-38.1614187
VIC,Frankston Rail,Chisholm Institute,Frankston District,"Fletcher Road, Frankston, 3199",145.1267687,-38.14410273
VIC,Derinya,Derinya Primary School,"Frankston District, Mornington District","Overport Road, Frankston South, 3199",145.1209613,-38.1743983
VIC,Frankston East,Frankston East Primary School,Frankston District,"Ashleigh Avenue, Frankston, 3199",145.1459046,-38.14635127
VIC,Frankston Heights,Frankston Heights Primary School,Frankston District,"10 Kalmia Street, Frankston, 3199",145.14671,-38.16228
VIC,Frankston South,Frankston High School,Frankston District,"48 Foot Street, Frankston, 3199",145.1291267,-38.16237394
VIC,John Paul College,John Paul College,Frankston District,"McMahons Road, Frankston, 3199",145.1394302,-38.13606519
VIC,Karingal Heights,Karingal Heights Primary School,Frankston District,"Havana Crescent, Frankston, 3199",145.16636,-38.14102
VIC,Kingsley Park,Kingsley Park Primary School,Frankston District,"Franciscan Avenue, Frankston, 3199",145.1557,-38.16808
VIC,Mt Erin,Mount Erin College,Frankston District,"Robinsons Road, Frankston South, 3199",145.1461108,-38.17401771
VIC,Frankston,St Francis Xavier Primary School,Frankston District,"8 Park Street, Frankston, 3199",145.126207,-38.148857
VIC,Mordialloc East,Allan McLean Hall,Mordialloc District,"37 Albert Street, Mordialloc, 3195",145.086403,-38.00417343
VIC,Aspendale,Aspendale Primary School,Mordialloc District,"23 Laura Street, Aspendale, 3195",145.1004186,-38.02125088
VIC,Cheltenham South,Cheltenham East Community Centre,Mordialloc District,"39 Follett Road, Cheltenham, 3192",145.0711245,-37.97083082
VIC,Edithvale,Edithvale Primary School,Mordialloc District,"42-54 Edithvale Road, Edithvale, 3196",145.113066,-38.03750296
VIC,Mentone Park,Mentone Park Primary School,Mordialloc District,"1-7 Broome Avenue, Mentone, 3194",145.0828,-37.98001
VIC,Mentone North,Mentone Scout Hall,Mordialloc District,"38 Levanto Street, Mentone, 3194",145.0759768,-37.97876061
VIC,Parkdale Central,Parkdale Primary School,Mordialloc District,"Nepean Highway (Access via Morgan Street ), Parkdale, 3195",145.0841995,-37.99280387
VIC,Parkdale East,Parkdale Secondary College,Mordialloc District,"Warren Road, Mordialloc, 3195",145.0941,-37.98964
VIC,Oakleigh East,Amsleigh Park Primary School,Oakleigh District,"State Street, Oakleigh East, 3166",145.1096489,-37.90019445
VIC,Glen Waverley Lower,Bestchance Child Family Care,Mount Waverley District,"583 Ferntree Gully Road, Glen Waverley, 3150",145.1591724,-37.9021081
VIC,Carnegie,Carnegie Primary School,Oakleigh District,"51 Truganini Road, Carnegie, 3163",145.0546482,-37.8900519
VIC,Chelsea Heights,Chelsea Heights Primary School,Mordialloc District,"194 Thames Promenade, Chelsea Heights, 3196",145.1390901,-38.0448052
VIC,Oakleigh Central,Emmanuel Anglican Church Hall,Oakleigh District,"26 Abbeygate Street, Oakleigh, 3166",145.090198,-37.906509
VIC,Essex Heights,Essex Heights Primary School,Mount Waverley District,"22-30 Essex Road, Mount Waverley, 3149",145.115392,-37.863877
VIC,The Glen,Glen Waverley Secondary College,Mount Waverley District,"O'Sullivan Road, Glen Waverley, 3149",145.1628047,-37.87811817
VIC,Glen Waverley South,Glen Waverley South Primary School,"Mount Waverley District, Mulgrave District","corner Watsons Road and Whites Lane, Glen Waverley, 3150",145.1684291,-37.89777783
VIC,Clayton North,Monash Uniting Church Hall,"Oakleigh District, Clarinda District","1937 Dandenong Road, Clayton, 3168",145.124853,-37.912371
VIC,Mount View,Mount View Primary School,Mount Waverley District,"Shepherds Road, Glen Waverley, 3150",145.17885,-37.88355
VIC,Syndal North,Mount Waverley North Primary School,Mount Waverley District,"Marcus Avenue, Mount Waverley, 3149",145.14186,-37.86804
VIC,Mount Waverley South,Mount Waverley Primary School,Mount Waverley District,"37-45 Park Lane, Mount Waverley, 3149",145.1228424,-37.88145484
VIC,Murrumbeena,Murrumbeena Primary School,Oakleigh District,"Hobart Road, Murrumbeena, 3163",145.0707024,-37.88673464
VIC,Monash East,Notting Hill Neighbourhood House,Oakleigh District,"37 Westerfield Drive, Notting Hill, 3168",145.149379,-37.906233
VIC,Huntingdale,Oakleigh Occasional Care Centre,Oakleigh District,"corner Garnett and Greville Streets, Huntingdale, 3166",145.1117651,-37.9061
VIC,Oakleigh,Oakleigh Primary School,Oakleigh District,"corner Warrigal Road and Logie Street, Oakleigh, 3166",145.088768,-37.894908
VIC,Pinewood,Pinewood Primary School,Mount Waverley District,"27-35 Pinewood Drive, Mount Waverley, 3149",145.1418477,-37.89055455
VIC,Carnegie West,St Anthony's Parish Primary School,Oakleigh District,"cnr Neerim and Grange Roads (access via Grange Road, Carnegie, 3163",145.046641,-37.887105
VIC,Carrum Downs Central,St Joachim's Catholic Primary School,Carrum District,"25 Broderick Road, Carrum Downs, 3201",145.1785687,-38.102901
VIC,Murrumbeena South,St Patrick's School,Oakleigh District,"3 Dalny Road, Murrumbeena, 3163",145.064894,-37.901924
VIC,Syndal South,Syndal South Primary School,Mount Waverley District,"14 Montgomery Avenue, Mount Waverley, 3149",145.14297,-37.87909
VIC,Glen Waverley Central,Glen Waverley Community Centre,Mount Waverley District,"700 Waverley Road, Glen Waverley, 3150",145.1619781,-37.88887655
VIC,Bairnsdale East,Bairnsdale Early Learning Centre,Gippsland East District,"70-78 Lucknow Street, East Bairnsdale, 3875",147.654714,-37.82689854
VIC,Bendoc,Bendoc Public Hall,Gippsland East District,"26 Dowling Road, Bendoc, 3888",148.885277,-37.147054
VIC,Boisdale,Boisdale Public Hall,Gippsland East District,"Maffra-Briagolong Road, Boisdale, 3860",146.988177,-37.882788
VIC,Briagolong,Briagolong Mechanics Institute,Gippsland East District,"9 Avon Street, Briagolong, 3860",147.068442,-37.843172
VIC,Buchan,Buchan Primary School,Gippsland East District,"4 Dalley Street, Buchan, 3885",148.18082,-37.49774
VIC,Bundalaguah,Bundalaguah Primary School,Gippsland East District,"627 Maffra-Sale Road, Bundalaguah, 3851",147.0119525,-38.02299304
VIC,Cann River,Cann River P-12 College,Gippsland East District,"20-24 Tamboon Road, Cann River, 3890",149.1530277,-37.569782
VIC,Coongulla,Coongulla Hall,Gippsland East District,"5 Gillum Road, Coongulla, 3860",146.78262,-37.89307462
VIC,Eagle Point,Eagle Point Primary School,Gippsland East District,"43 School Road, Eagle Point, 3878",147.6798131,-37.89248901
VIC,Ensay,Ensay Public Hall,Gippsland East District,"Great Alpine Road, Ensay, 3895",147.8367482,-37.37542605
VIC,Ellaswood,Wy Yung Community Hall,Gippsland East District,"260 Wy Yung-Calulu Road, Ellaswood, 3875",147.5813948,-37.79785152
VIC,Genoa,Genoa Community Hall,Gippsland East District,"4644 Princes Highway, Genoa, 3891",149.5818346,-37.48199379
VIC,Glenmaggie,Glenmaggie Mechanics Institute,Gippsland East District,"21 Glenfalloch Road, Glenmaggie, 3858",146.751051,-37.895041
VIC,Johnsonville,Johnsonville Public Hall,Gippsland East District,"Princes Highway, Johnsonville, 3902",147.8303237,-37.82029828
VIC,Lindenow,Lindenow Pre-School,Gippsland East District,"152 Main Road, Lindenow, 3865",147.4563155,-37.7998316
VIC,Lucknow,Lucknow Memorial Hall,Gippsland East District,"105 Great Alpine Road, Lucknow, 3875",147.646703,-37.811204
VIC,Maffra,Maffra Uniting Church Hall,Gippsland East District,"7 Pearson Street, Maffra, 3860",146.9772465,-37.96545236
VIC,Mallacoota,Miva Miva Centre,Gippsland East District,"corner Mallacoota Road and Mattsson Street, Mallacoota, 3892",149.7504135,-37.55908117
VIC,Newlands Arm,Newlands Arm Community Centre,Gippsland East District,"25 Meridian Way, Newlands Arm, 3875",147.6919444,-37.92782986
VIC,Newmerella,Newmerella Primary School,Gippsland East District,"McLaughlins Road, Newmerella, 3886",148.434,-37.73547
VIC,Nicholson,Nicholson Recreation Rooms,Gippsland East District,"1010 Princes Highway, Nicholson, 3882",147.748645,-37.815888
VIC,Nowa Nowa,Nowa Nowa Community Health Centre,Gippsland East District,"Hall Road, Nowa Nowa, 3887",148.0928856,-37.7306587
VIC,Nungurner,Nungurner Primary School,Gippsland East District,"455 Nungurner Road, Nungurner, 3909",147.88839,-37.86592
VIC,Omeo,Soldiers Memorial Hall,Gippsland East District,"179 Day Avenue, Omeo, 3898",147.59154,-37.100791
VIC,Lakes Entrance East,St Brendan's Catholic Primary School,Gippsland East District,"40 Golf Links Road, Lakes Entrance, 3909",148.0117483,-37.87238142
VIC,Orbost,St James Anglican Parish Hall,Gippsland East District,"Browning Street, Orbost, 3888",148.456744,-37.707917
VIC,Stratford,Stratford Mechanics Hall,Gippsland East District,"Hobson Street, Stratford, 3862",147.0811845,-37.96599434
VIC,Swifts Creek,Swifts Creek Hall,Gippsland East District,"6869 Great Alpine Road, Swifts Creek, 3896",147.721811,-37.264206
VIC,Newry,Upper Maffra Mechanics Institute,Gippsland East District,"139-141 Boisdale-Newry Road, Newry, 3859",146.896013,-37.916402
VIC,Valencia Creek,Valencia Creek Soldiers Memorial Hall,Gippsland East District,"86 Valencia Creek-Briagolong Road, Valencia Creek, 3860",146.9894686,-37.82546336
VIC,Alberton,Alberton Primary School,Gippsland South District,"21 Thomson Street, Alberton, 3971",146.6666,-38.61771
VIC,Arawata,Arawata Public Hall,Gippsland South District,"401 Fairbank Road, Arawata, 3951",145.8698918,-38.39458516
VIC,Bena,Bena Public Hall,Gippsland South District,"41 Main Road, Bena, 3946",145.762307,-38.411674
VIC,Berrys Creek,Berrys Creek Public Hall,Gippsland South District,"20 Berrys Creek Road, Berrys Creek, 3953",146.0722476,-38.40617014
VIC,Leongatha,Dakers Centre,Gippsland South District,"23 Smith Street, Leongatha, 3953",145.9423727,-38.47730912
VIC,Devon North,Devon North Public Hall,Gippsland South District,"599 Tarra Valley Road, Devon North, 3971",146.658403,-38.52001
VIC,Fish Creek,Fish Creek Memorial Hall,Gippsland South District,"Falls Road, Fish Creek, 3959",146.081677,-38.692875
VIC,Golden Beach,Golden Beach Community Hall,Gippsland South District,"1/11 Surf Edge Drive, Golden Beach, 3851",147.3995407,-38.21099926
VIC,Kilmany,Kilmany Public Hall,Gippsland South District,"21 Freshwaters Road, Kilmany, 3851",146.9134445,-38.10619957
VIC,Kongwak,Kongwak Primary School,Gippsland South District,"1445 Korumburra - Wonthaggi Road, Kongwak, 3996",145.71286,-38.51511
VIC,Koonwarra,Koonwarra Fire Station,Gippsland South District,"7 Koala Drive, Koonwarra, 3954",145.946592,-38.547624
VIC,Leongatha East,Leongatha Secondary College,Gippsland South District,"Nerrena Road, Leongatha, 3953",145.9573772,-38.47936633
VIC,Leongatha South,Leongatha South and District Community Centre,Gippsland South District,"Bass Highway, Leongatha South, 3953",145.880069,-38.529549
VIC,Loch,Loch Public Hall,Gippsland South District,"Smith Street, Loch, 3945",145.707341,-38.369791
VIC,Loch Sport,Loch Sport Public Hall,Gippsland South District,"National Park Road, Loch Sport, 3851",147.6006798,-38.03407814
VIC,Longford,Longford Primary School,Gippsland South District,"6380 South Gippsland Highway, Longford, 3851",147.08841,-38.16956
VIC,Mount Eccles,Mount Eccles Mechanics Institute,Gippsland South District,"Hall Road, Mount Eccles, 3953",145.97602,-38.363217
VIC,Nerrena,Nerrena Public Hall,Gippsland South District,"Nerrena Hall Road, Nerrena, 3953",145.9975787,-38.50920123
VIC,Foster,Foster Secondary College,Gippsland South District,"2 Pioneer Street, Foster, 3960",146.19741,-38.65174
VIC,Korumburra,St Paul's Anglican Parish Hall,Gippsland South District,"5 Bridge Street, Korumburra, 3950",145.822714,-38.435665
VIC,Sale East,Araluen Primary School,Gippsland South District,"99 Patten Street, Sale, 3850",147.0890362,-38.10770402
VIC,Nyora,Nyora Primary School,Gippsland South District,"Grundy Avenue, Nyora, 3987",145.67489,-38.33624
VIC,Poowong,Poowong Consolidated School,Gippsland South District,"5 Gardner Lane, Poowong, 3988",145.7693853,-38.34230698
VIC,Port Albert,Port Albert Mechanics Institute,Gippsland South District,"20 Victoria Street, Port Albert, 3971",146.692171,-38.672392
VIC,Port Franklin,Port Franklin Public Hall,Gippsland South District,"Tramway Street, Port Franklin, 3964",146.2775883,-38.68349665
VIC,Rosedale,Rosedale Public Hall,Gippsland South District,"37 Prince Street, Rosedale, 3847",146.787029,-38.151595
VIC,Sale,Sale Memorial Hall,Gippsland South District,"82-88 MacAlister Street, Sale, 3850",147.067519,-38.109583
VIC,Staceys Bridge,Staceys Bridge Public Hall,Gippsland South District,"248 Albert River Road, Staceys Bridge, 3971",146.530113,-38.554993
VIC,Stradbroke,Stradbroke Hall,Gippsland South District,"4971 South Gippsland Highway, Stradbroke, 3851",147.036843,-38.281938
VIC,Tarwin Lower,Tarwin Lower Mechanics Institute,Gippsland South District,"27 River Drive, Tarwin Lower, 3956",145.86707,-38.699166
VIC,Toora,Toora Community Hall,Gippsland South District,"23 Gray Street, Toora, 3962",146.325227,-38.664003
VIC,Welshpool,Welshpool Fire Station,Gippsland South District,"40 Main Street, Welshpool, 3966",146.4392273,-38.6654425
VIC,Won Wron,Won Wron Public Hall,Gippsland South District,"Napier Road, Won Wron, 3971",146.717735,-38.473231
VIC,Woodside,Woodside Public Hall,Gippsland South District,"34 Prince Street, Woodside, 3874",146.8769964,-38.52746444
VIC,Wurruk,Wurruk Primary School,Gippsland South District,"13-19 Fisk Street, Wurruk, 3850",147.03995,-38.1068
VIC,Yanakie,Yanakie Public Hall,Gippsland South District,"2 Millar Road, Yanakie, 3960",146.2050852,-38.81160457
VIC,Yarram,Yarram Guide and Scout Hall,Gippsland South District,"2-4 Church Road, Yarram, 3971",146.677498,-38.555973
VIC,Moe Central,Baringa Special School,Narracan District,"47 Staff Street, Moe, 3825",146.2569164,-38.19210163
VIC,Bona Vista,Bona Vista Primary School,Narracan District,"Bona Vista Road, Bona Vista, 3820",145.9599099,-38.21051952
VIC,Buln Buln,Buln Buln Primary School,Narracan District,"15 Old Sale Road, Buln Buln, 3821",145.93817,-38.09935
VIC,Bunyip,Bunyip Hall,Narracan District,"45 Main Street, Bunyip, 3815",145.721383,-38.098216
VIC,Cora Lynn,Cora Lynn Recreation Reserve Hall,Narracan District,"corner Nine Mile and Bunyip River Road, Cora Lynn, 3814",145.6069496,-38.14285024
VIC,Darnum,Darnum Primary School,Narracan District,"6 Graham Street, Darnum, 3822",145.9997,-38.18773
VIC,Drouin,Drouin Primary School,Narracan District,"153-161 Princes Way, Drouin, 3818",145.85384,-38.13286
VIC,Drouin College,Drouin Secondary College,Narracan District,"52 Main South Road, Drouin, 3818",145.8507518,-38.1449273
VIC,Drouin West,Drouin West Primary School,Narracan District,"535 Main Neerim Road, Drouin West, 3818",145.87172,-38.08711
VIC,Ellinbank,Ellinbank Primary School,Narracan District,"13 Community Place, Ellinbank, 3821",145.93563,-38.24023
VIC,Erica,Erica Memorial Hall,Narracan District,"14 School Road, Erica, 3825",146.371526,-37.978693
VIC,Garfield,Garfield Primary School,Narracan District,"84 Railway Avenue, Garfield, 3814",145.67408,-38.09026
VIC,Hill End,Hill End Mechanics Institute Hall,Narracan District,"2494 Willow Grove Road, Hill End, 3825",146.1445529,-38.00360911
VIC,Jindivick,Jindivick Primary School,Narracan District,"1080 Jacksons Track, Jindivick, 3818",145.901195,-38.02764
VIC,Labertouche,Labertouche Public Hall,Narracan District,"440 Labertouche North Road, Labertouche, 3816",145.806703,-38.048015
VIC,Mardan,Mardan Public Hall,Gippsland South District,"Coulters Road, Mardan, 3953",146.1114531,-38.4758881
VIC,Nar Nar Goon North,Nar Nar Goon North Public Hall,Narracan District,"corner Dore and Bessie Creek Roads, Nar Nar Goon North, 3812",145.555591,-38.01886
VIC,Narracan,Narracan Public Hall,Narracan District,"401 Narracan Connection Road, Narracan, 3824",146.2275252,-38.25943608
VIC,Neerim Junction,Neerim Junction Public Hall,Narracan District,"2957 Main Neerim Road, Neerim Junction, 3832",145.9612003,-37.9283167
VIC,Neerim South,Neerim South Primary School,Narracan District,"180 Main Neerim Road, Neerim South, 3831",145.9553639,-38.01530091
VIC,Nilma,Nilma Primary School,Narracan District,"76 Bloomfield Road, Nilma, 3821",145.97429,-38.16574
VIC,Noojee,Noojee Community Hall,Narracan District,"Henty Street, Noojee, 3833",145.997958,-37.892616
VIC,Rokeby,Rokeby Public Hall,Narracan District,"Brandy Creek Road, Rokeby, 3821",145.9268972,-38.07086252
VIC,Tetoora Road,Tetoora Road Community Centre,Narracan District,"2575 Warragul-Korumburra Road, Tetoora Road, 3821",145.8929984,-38.27111073
VIC,Thorpdale,Thorpdale Public Hall,Narracan District,"14 Johnstone Street, Thorpdale, 3835",146.17752,-38.287682
VIC,Trafalgar,Trafalgar Primary School,Narracan District,"84 School Road, Trafalgar, 3824",146.15987,-38.21476
VIC,Tynong,Tynong Public Hall,Narracan District,"18 Railway Avenue, Tynong, 3813",145.625749,-38.08438
VIC,Warragul North,Warragul North Primary School,Narracan District,"Balmoral Street, Warragul, 3820",145.93985,-38.14811
VIC,Yarragon,Yarragon Public Hall,Narracan District,"Campbell Street, Yarragon, 3823",146.0637376,-38.20499615
VIC,Willow Grove,Willow Grove Community Centre,Narracan District,"Moe-Willow Grove Road, Willow Grove, 3825",146.179635,-38.07295554
VIC,Caramut,Caramut War Memorial Hall,South-West Coast District,"Brown Street, Caramut, 3274",142.519736,-37.956903
VIC,Condah,Condah Hall,South-West Coast District,"5162 Henty Highway, Condah, 3303",141.746916,-37.955218
VIC,Gorae West,Gorae West Hall,South-West Coast District,"Portland-Nelson Road, Gorae West, 3305",141.476642,-38.242663
VIC,Hawkesdale,Hawkesdale P-12 College,South-West Coast District,"corner Mitchell and Spring Streets, Hawkesdale, 3287",142.3191478,-38.10695676
VIC,Heywood,Heywood Community Complex,South-West Coast District,"Gorrie Street, Heywood, 3304",141.620702,-38.129329
VIC,Koroit,Koroit Senior Citizens Rooms,South-West Coast District,"102 High Street, Koroit, 3282",142.3676556,-38.29284731
VIC,Macarthur,Macarthur Primary School,South-West Coast District,"23 Russell Street, Macarthur, 3286",142.0006267,-38.03091846
VIC,Mailors Flat,Mailors Flat Hall,South-West Coast District,"Warrnambool-Caramut Road, Mailors Flat, 3275",142.473253,-38.290827
VIC,Naringal,Naringal Public Hall,South-West Coast District,"Cobden-Warrnambool Road, Naringal, 3277",142.6925583,-38.39650763
VIC,Nelson,Nelson Community Centre,South-West Coast District,"Leake Street, Nelson, 3292",141.0062744,-38.04794967
VIC,Orford,Orford Memorial Hall,South-West Coast District,"High Street, Orford, 3284",142.0991625,-38.20337568
VIC,Nar Nar Goon,Nar Nar Goon Community Centre,Narracan District,"Spencer Street, Nar Nar Goon, 3812",145.5740814,-38.08312338
VIC,Baxter,Baxter Primary School,Hastings District,"120 Grant Road, Baxter, 3911",145.18075,-38.199411
VIC,Beaconsfield,Beaconsfield Primary School,Gembrook District,"corner Old Princes Highway and Lyle Avenue, Beaconsfield, 3807",145.3723956,-38.04801077
VIC,Beaconsfield Upper,Beaconsfield Upper Primary School,Gembrook District,"40-42 Stoney Creek Road, Beaconsfield Upper, 3808",145.4151568,-37.99511374
VIC,Berwick,Berwick Secondary College,Gembrook District,"65 Manuka Road, Berwick, 3806",145.3630391,-38.03074393
VIC,Bittern,Bittern Primary School,Hastings District,"Portsmouth Road, Bittern, 3918",145.17168,-38.33986
VIC,Blind Bight,Blind Bight Community Centre,Hastings District,"Anchorage Drive, Blind Bight, 3980",145.339835,-38.21689
VIC,Croydon North,Brushy Creek Hall,"Croydon District, Evelyn District","435 Maroondah Highway, Croydon North, 3136",145.297425,-37.76827
VIC,Cape Paterson,Cape Paterson Community Hall,Bass District,"567 Cape Paterson Road, Cape Paterson, 3995",145.6214192,-38.66968824
VIC,Catani,Catani Recreation Reserve,Bass District,"55 Taplins Road, Catani, 3981",145.6395079,-38.1946817
VIC,Chirnside Park,Chirnside Park Primary School,Evelyn District,"66 Kimberley Drive, Chirnside Park, 3116",145.3122878,-37.7499586
VIC,Cockatoo,Cockatoo Community Complex,Gembrook District,"95 Pakenham Road, Cockatoo, 3871",145.491093,-37.936979
VIC,Coldstream,Coldstream Community Centre,Evelyn District,"Kelso Street, Coldstream, 3770",145.3820789,-37.733372
VIC,Corinella,Corinella Public Hall,Bass District,"38-44 Smythe Street, Corinella, 3984",145.433271,-38.4143
VIC,Cowes,Cowes Primary School,Bass District,"177 Settlement Road, Cowes, 3922",145.24131,-38.45628
VIC,Cranbourne South,Cranbourne South Primary School,"Hastings District, Cranbourne District","239 Pearcedale Road, Cranbourne South, 3977",145.24508,-38.14839
VIC,Crib Point,Crib Point Primary School,Hastings District,"70 Milne Street, Crib Point, 3919",145.20054,-38.36048
VIC,Devon Meadows,Devon Meadows Community Hall,Hastings District,"corner Worthing and Cross Roads, Devon Meadows, 3977",145.302095,-38.162368
VIC,Langwarrin,Elisabeth Murdoch College,Hastings District,"80 Warrandyte Road, Langwarrin, 3910",145.19018,-38.15929
VIC,Gembrook,Gembrook Primary School,Gembrook District,"50 Main Road, Gembrook, 3783",145.5456155,-37.95123454
VIC,Grantville,Grantville Hall,Bass District,"Bass Highway, Grantville, 3984",145.5312856,-38.40418822
VIC,Gruyere,Gruyere Primary School,Evelyn District,"99 Killara Road, Gruyere, 3770",145.45039,-37.73409
VIC,Harkaway,Harkaway Primary School,"Gembrook District, Narre Warren North District","65-67 King Road, Harkaway, 3806",145.3453,-38.00104
VIC,Inverloch,Inverloch Community Hub,Bass District,"16 A'Beckett Street, Inverloch, 3996",145.72789,-38.633414
VIC,Kilcunda,Kilcunda Community Centre,Bass District,"3513-3515 Bass Highway, Kilcunda, 3995",145.475033,-38.548637
VIC,Koo Wee Rup,Koo Wee Rup Community Centre,Bass District,"Rossiter Road, Koo Wee Rup, 3981",145.4874677,-38.19969465
VIC,Lakeside East,Lakeside Lutheran College,Bass District,"2 Portobello Road, Pakenham, 3810",145.4556237,-38.06529082
VIC,Lang Lang,Lang Lang Primary School,Bass District,"52 Westernport Road, Lang Lang, 3984",145.5696633,-38.2631296
VIC,Langwarrin Park,Langwarrin Park Primary School,Hastings District,"Northgateway , Langwarrin, 3910",145.2024562,-38.15084727
VIC,Langwarrin Hall,Langwarrin Public Hall,Hastings District,"Cranbourne-Frankston Road, Langwarrin, 3910",145.191818,-38.15161
VIC,Lilydale West,Lilydale West Primary School,Evelyn District,"Bowen Road, Lilydale, 3140",145.336687,-37.755603
VIC,Manchester,Manchester Primary School,"Evelyn District, Croydon District","Monomeith Street, Mooroolbark, 3138",145.3099477,-37.7712214
VIC,Newhaven,Newhaven Community Hall,Bass District,"23 Cleeland Street, Newhaven, 3925",145.358195,-38.513363
VIC,Officer,Officer Primary School,Gembrook District,"13-23 Tivendale Road, Officer, 3809",145.409868,-38.05817654
VIC,Pakenham,Pakenham Secondary College,Bass District,"1020 Princes Highway, Pakenham, 3810",145.4712691,-38.07180142
VIC,Pakenham Springs,Pakenham Springs Primary School,Bass District,"5 Livingstone Boulevard, Pakenham, 3810",145.4697539,-38.08548277
VIC,Pakenham Central,Pakenham Uniting Church Hall,Bass District,"47 James Street, Pakenham, 3810",145.481879,-38.076945
VIC,Pakenham Upper,Pakenham Upper Public Hall,Gembrook District,"Bourkes Creek Road, Pakenham Upper, 3810",145.510939,-38.010191
VIC,Pearcedale,Pearcedale Primary School,Hastings District,"Baxter-Tooradin Road, Pearcedale, 3912",145.23198,-38.20301
VIC,Mount Evelyn,Reformed Church of Mount Evelyn,Evelyn District,"45-47 Birmingham Road, Mount Evelyn, 3796",145.376694,-37.783831
VIC,Rhyll,Rhyll Mechanics Hall,Bass District,"Lock Road, Rhyll, 3923",145.302872,-38.463008
VIC,San Remo,San Remo Recreation Centre,Bass District,"1a Wynne Road, San Remo, 3925",145.370719,-38.523888
VIC,Somerville,Somerville Primary School,Hastings District,"Eramosa Road East, Somerville, 3912",145.1789003,-38.22477777
VIC,Avebury,Timbarra Community Hall,"Narre Warren North District, Gembrook District","Timbarra Way, Berwick, 3806",145.3261978,-38.02459925
VIC,Timbarra,Timbarra P-9 College,"Narre Warren North District, Gembrook District","Parkhill Drive, Berwick, 3806",145.3211624,-38.01663091
VIC,Toomuc Valley,Toomuc Valley Public Hall,Gembrook District,"15 Leppitt Road, Pakenham, 3810",145.462166,-38.031983
VIC,Tooradin,Tooradin Primary School,Hastings District,"Bayview Road, Tooradin, 3980",145.37849,-38.20763
VIC,Tyabb,Tyabb Rail Primary School,Hastings District,"88 The Crescent, Tyabb, 3913",145.192835,-38.262148
VIC,Wonthaggi North,Wonthaggi North Primary School,Bass District,"White Road, Wonthaggi, 3995",145.599591,-38.59859284
VIC,Wonthaggi,Wonthaggi Town Hall,Bass District,"14 Baillieu Street East, Wonthaggi, 3995",145.59074,-38.608245
VIC,Belgrave South,Belgrave South Primary School,Monbulk District,"175 Colby Drive (access via Gilmore Court), Belgrave South, 3160",145.3579215,-37.93118701
VIC,Kilsyth South,Gladesville Primary School,Monbulk District,"48 Gladesville Drive, Kilsyth South, 3137",145.3234638,-37.81191118
VIC,Kallista,Kallista Primary School,Monbulk District,"72 Monbulk Road, Kallista, 3791",145.3703536,-37.88523827
VIC,Kilsyth,Kilsyth Primary School,"Croydon District, Monbulk District","Durham Road, Kilsyth, 3137",145.31494,-37.80211
VIC,Kunyung,Kunyung Primary School,Mornington District,"50 Kunyung Road, Mount Eliza, 3930",145.07623,-38.18768
VIC,Macclesfield,Macclesfield Primary School,Monbulk District,"405 Macclesfield Road, Macclesfield, 3782",145.47537,-37.88979
VIC,Menzies Creek,Menzies Creek Primary School,Monbulk District,"12 School Road, Menzies Creek, 3159",145.3945602,-37.91774044
VIC,Monbulk Central,Monbulk Community Hub,Monbulk District,"21 Main Road, Monbulk, 3793",145.4096373,-37.87601359
VIC,Montrose,Montrose Primary School,Monbulk District,"Leith Road, Montrose, 3765",145.34414,-37.80879
VIC,Moorooduc,Moorooduc Primary School,Mornington District,"Mornington-Tyabb Road, Moorooduc, 3933",145.10517,-38.24809
VIC,Mooroolbark East,Mooroolbark East Primary School,Monbulk District,"Taylor Road, Mooroolbark, 3138",145.3356449,-37.78682028
VIC,Narre Warren East,Narre Warren East Hall,Monbulk District,"500 Berwick Road, Narre Warren East, 3804",145.3630269,-37.9639047
VIC,Olinda,Olinda Primary School,Monbulk District,"45 Charlemont Lane, Olinda, 3788",145.36619,-37.8547
VIC,Mooroolbark South,Pembroke Primary School,"Croydon District, Monbulk District","25 Pembroke Road, Mooroolbark, 3138",145.3271465,-37.79660899
VIC,Sassafras,Sassafras Primary School,Monbulk District,"399 Mount Dandenong Tourist Road, Sassafras, 3787",145.3546611,-37.86143117
VIC,Selby,Selby Primary School,Monbulk District,"2 Morley Street, Selby, 3159",145.3668287,-37.91136822
VIC,Silvan,Silvan Primary School,Monbulk District,"269 Monbulk Road, Silvan, 3795",145.4212712,-37.82414386
VIC,Tecoma,Tecoma Primary School,Monbulk District,"1536 Burwood Highway, Tecoma, 3160",145.344756,-37.906958
VIC,Ferntree Gully Upper,Upper Ferntree Gully Primary School,Monbulk District,"Talaskia Road, Upper Ferntree Gully, 3156",145.3143599,-37.89578059
VIC,Upwey,Upwey Primary School,Monbulk District,"15 Darling Avenue, Upwey, 3158",145.3334886,-37.90356523
VIC,Wandin East,Wandin East Public Hall,Monbulk District,"corner Old Baker and Monbulk-Seville Roads, Wandin East, 3139",145.4584776,-37.81595477
VIC,Balnarring,Balnarring Primary School,Nepean District,"Civic Court, Balnarring, 3926",145.12298,-38.37626
VIC,Waterfall Gully,Bayview Church,Nepean District,"1 Inglewood Crescent, Rosebud, 3939",144.908258,-38.37379895
VIC,Mornington East,Benton Junior College,Mornington District,"261 Racecourse Road, Mornington, 3931",145.06111,-38.24595
VIC,Beverley Hills,Beverley Hills Primary School,Warrandyte District,"Cassowary Street, Doncaster East, 3109",145.159576,-37.796811
VIC,Blairgowrie,Blairgowrie Community Hall,Nepean District,"8 William Road, Blairgowrie, 3942",144.784084,-38.363549
VIC,Boneo,Boneo Community Hall,Nepean District,"582 Boneo Road, Boneo, 3939",144.886558,-38.411427
VIC,Donburn,Donburn Primary School,Warrandyte District,"24-28 Colchester Drive, Doncaster East, 3109",145.16552,-37.78746
VIC,Doncaster Gardens,Doncaster Gardens Primary School,Warrandyte District,"corner Sandhurst Avenue and Dehnert Street, Doncaster East, 3109",145.148064,-37.782124
VIC,Tunstall,Donvale Primary School,Warrandyte District,"Elata Street (access via Argyle Street), Donvale, 3111",145.1738017,-37.79959783
VIC,Dromana,Dromana Primary School,Nepean District,"McCulloch Street, Dromana, 3936",144.95965,-38.33964
VIC,Dromana Beach,Dromana Senior Citizens Club,Nepean District,"43 Pier Street, Dromana, 3936",144.966904,-38.334207
VIC,Flinders,Flinders Civic Hall,Nepean District,"Cook Street, Flinders, 3929",145.0158927,-38.47334496
VIC,Gumnut Gully,Gumnut Gully Kindergarten,Warrandyte District,"58-60 Larnoo Drive, Doncaster East, 3109",145.180209,-37.759868
VIC,Heathmont,Heathmont Uniting Church Hall,"Bayswater District, Ringwood District","89 Canterbury Road, Heathmont, 3135",145.246734,-37.826865
VIC,Rosebud South,Genu,Nepean District,"25 Leon Avenue, Rosebud, 3939",144.913133,-38.361638
VIC,Tanti Park,Mornington Park Primary School,Mornington District,"Robertson Drive, Mornington, 3931",145.05817,-38.22602
VIC,Mt Eliza South,Mount Eliza Primary School,Mornington District,"1 Wooralla Drive, Mount Eliza, 3930",145.09203,-38.19547
VIC,Mt Eliza,Mount Eliza Secondary College,Mornington District,"Canadian Bay Road, Mount Eliza, 3930",145.0917295,-38.18929029
VIC,Mt Eliza North,Mt Eliza North Primary School,Mornington District,"Moseley Drive, Mount Eliza, 3930",145.10054,-38.1884
VIC,Mt Martha,Mt Martha Primary School,Mornington District,"Glenisla Drive, Mount Martha, 3934",145.01373,-38.27556
VIC,North Warrandyte,North Warrandyte Family Centre,Warrandyte District,"184 Research-Warrandyte Road, North Warrandyte, 3113",145.214674,-37.729423
VIC,Osborne,Osborne Primary School,Mornington District,"120 Craigie Road, Mount Martha, 3934",145.040048,-38.257306
VIC,Park Orchards,Park Orchards Community Centre,Warrandyte District,"Aviemore Avenue, Park Orchards, 3114",145.214885,-37.77904
VIC,Mornington South,Peninsula Community Theatre,Mornington District,"Wilsons Rd (cnr Wilsons Rd and Nepean Hwy), Mornington, 3931",145.0403207,-38.23184889
VIC,Portsea,Point Nepean National Park Information Centre,Nepean District,"Point Nepean Road, Portsea, 3944",144.7029123,-38.31902556
VIC,Red Hill,Red Hill Consolidated School,Nepean District,"341 Arthurs Seat Road -access via Mornington -Flinders Rd, Red Hill, 3937",144.9958127,-38.3666818
VIC,Ringwood Heights,Ringwood Heights Primary School,"Ringwood District, Warrandyte District","60 Summit Crescent, Ringwood, 3134",145.2171574,-37.80385546
VIC,Rosebud East,Rosebud Primary School,Nepean District,"corner Point Nepean and Jetty Roads, Rosebud, 3939",144.90897,-38.35514
VIC,Rosebud West,Rosebud Secondary College,Nepean District,"corner Eastbourne and Boneo Roads, Rosebud, 3939",144.8879004,-38.36879991
VIC,Rye,Rye Civic Hall,Nepean District,"12 Napier Street, Rye, 3941",144.821498,-38.371891
VIC,Shoreham,Shoreham Hall,Nepean District,"67 Byrnes Road, Shoreham, 3916",145.0453801,-38.42760482
VIC,Sorrento,Sorrento Community Centre,Nepean District,"860-868 Melbourne Road, Sorrento, 3940",144.737095,-38.338261
VIC,St Andrews Beach,St Andrews Recreation Hall,Nepean District,"99 Bass Meadows Boulevard, St Andrews Beach, 3939",144.8388015,-38.42204954
VIC,McCrae,St Katherine's Anglican Hall,Nepean District,"15 Bartels Street, McCrae, 3938",144.929358,-38.350112
VIC,Mornington,St Mark's Uniting Church,Mornington District,"50 Barkly Street, Mornington, 3931",145.037589,-38.221454
VIC,Mt Eliza Central,Toorak College,Mornington District,"73 Old Mornington Road, Mount Eliza, 3930",145.0934337,-38.17397552
VIC,Tootgarook,Tootgarook Primary School,Nepean District,"7 Carmichael Street, Tootgarook, 3941",144.8573983,-38.36935812
VIC,Warrandyte,Warrandyte Primary School,Warrandyte District,"Forbes Street, Warrandyte, 3113",145.21398,-37.74268
VIC,Warranwood,Warranwood Primary School,"Warrandyte District, Croydon District","1 Wellington Park Drive, Warranwood, 3134",145.2472593,-37.77495646
VIC,Donvale,Whitefriars College,Warrandyte District,"156 Park Road, Donvale, 3111",145.198786,-37.791142
VIC,Wonga Park,Wonga Park Primary School,Warrandyte District,"41 Dudley Road, Wonga Park, 3115",145.274,-37.73064
VIC,Baranduda,Baranduda Primary School,Benambra District,"7 Verbena Street, Baranduda, 3691",146.94812,-36.18053
VIC,Barnawartha,Barnawartha Soldiers Memorial Hall,Benambra District,"38 High Street, Barnawartha, 3688",146.673874,-36.105522
VIC,Bethanga,Bethanga Soldiers Memorial Hall,Benambra District,"Bridge Street, Bethanga, 3691",147.0981157,-36.12395188
VIC,Bonegilla,Bonegilla Hall,Benambra District,"Murray Valley Highway, Bonegilla, 3693",147.005839,-36.140956
VIC,Chiltern,Chiltern Senior Citizens Hall,Benambra District,"84 Conness Street, Chiltern, 3683",146.6120419,-36.15115158
VIC,Corryong,Corryong Memorial Hall,Benambra District,"1 Hansen Street, Corryong, 3707",147.906672,-36.195181
VIC,Cudgewa,Cudgewa Mechanics Institute,Benambra District,"195 Main Street, Cudgewa, 3705",147.778683,-36.18466
VIC,Dederang,Dederang Multi-Purpose Building,Benambra District,"Kiewa Valley Highway, Dederang, 3691",147.021294,-36.47559415
VIC,Eskdale,Eskdale Public Hall,Benambra District,"3797 Omeo Highway, Eskdale, 3701",147.252383,-36.464382
VIC,Kergunyah,Kergunyah Memorial Hall,Benambra District,"Kergunyah Road, Kergunyah, 3691",147.0303647,-36.32760988
VIC,Mitta Mitta,Mitta Mitta Mechanics Institute,Benambra District,"5543 Omeo Highway, Mitta Mitta, 3701",147.376406,-36.537287
VIC,Beechworth,Beechworth Primary School,Benambra District,"17 Junction Road, Beechworth, 3747",146.6928971,-36.35508594
VIC,Rutherglen,Rutherglen Primary School,Benambra District,"44-46 Murray Street, Rutherglen, 3685",146.46061,-36.05621
VIC,Sandy Creek,Sandy Creek Memorial Hall,Benambra District,"Lockhart's Gap Road, Sandy Creek, 3695",147.1127425,-36.27768492
VIC,Running Creek,St Albans Parish Hall,Benambra District,"Kiewa Valley Highway, Running Creek, 3691",147.0590991,-36.54702407
VIC,Stanley,Stanley Safer Place,Benambra District,"Pioneer Road, Stanley, 3747",146.754617,-36.403197
VIC,Wodonga Birallee,Melrose Primary School,Benambra District,"25 Silva Drive, Wodonga, 3690",146.8608227,-36.13121757
VIC,Mt Beauty,Mt Beauty Community Centre,Benambra District,"Kiewa Crescent, Mt Beauty, 3699",147.170763,-36.742977
VIC,Wodonga,St Augustine's Catholic Primary School,Benambra District,"Osburn Street, Wodonga, 3690",146.89013,-36.117016
VIC,Tallangatta Valley,Tallangatta Valley Public Hall,Benambra District,"Polmear Street, Tallangatta Valley, 3701",147.391619,-36.28782925
VIC,Tangambalanga,Tangambalanga Community Centre,Benambra District,"29 Kiewa East Road, Tangambalanga, 3691",147.0287189,-36.25129095
VIC,Tawonga,Tawonga Primary School,Benambra District,"91 Kiewa Valley Highway, Tawonga, 3697",147.14325,-36.6914
VIC,Victory,Victory Lutheran Primary School,Benambra District,"28 Drage Road, Wodonga, 3689",146.8454725,-36.11648799
VIC,Wahgunyah,Wahgunyah School of Arts Hall,Benambra District,"33-35 Foord Street, Wahgunyah, 3687",146.393528,-36.0109
VIC,Wodonga Central,Wodonga Senior Secondary College,Benambra District,"69 Woodland Street, Wodonga, 3690",146.8801341,-36.12561
VIC,Wooragee,Wooragee Centenary Hall,Benambra District,"Beechworth-Wodonga Road, Wooragee, 3747",146.729786,-36.29063927
VIC,Yackandandah,Yackandandah Senior Citizens Centre,Benambra District,"14 Wellsford Street, Yackandandah, 3749",146.838081,-36.313778
VIC,Alexandra,Alexandra Secondary College,Eildon District,"86 Downey Street, Alexandra, 3714",145.7018382,-37.19463761
VIC,Badger Creek,Badger Creek Primary School,Eildon District,"Badger Creek Road, Badger Creek, 3777",145.5331298,-37.6810347
VIC,Buxton,Buxton Primary School,Eildon District,"2208 Maroondah Highway, Buxton, 3711",145.709059,-37.421404
VIC,Eildon,Eildon Community Centre,Eildon District,"45 High Street, Eildon, 3713",145.9075229,-37.23458059
VIC,Flowerdale,Flowerdale Primary School,Eildon District,"3377 Whittlesea-Yea Road, Flowerdale, 3717",145.29136,-37.31692
VIC,Gladysdale,Gladysdale Primary School,Eildon District,"550 Little Yarra Road, Gladysdale, 3797",145.65099,-37.82025
VIC,Glenburn,Glenburn Community Centre,Eildon District,"3873 Melba Highway, Glenburn, 3717",145.425542,-37.419682
VIC,Healesville,Healesville High School,Eildon District,"10 Camerons Road, Healesville, 3777",145.530102,-37.643773
VIC,Healesville Central,Healesville Memorial Hall,Eildon District,"235-237 Maroondah Highway, Healesville, 3777",145.517397,-37.653437
VIC,Hoddles Creek,Hoddles Creek Primary School,Eildon District,"700 Gembrook-Launching Place Road, Hoddles Creek, 3139",145.5977579,-37.83174217
VIC,Jamieson,Jamieson Memorial Hall,Eildon District,"15 Perkins Street, Jamieson, 3723",146.1378701,-37.30195358
VIC,Kangaroo Ground,Kangaroo Ground Primary School,Eildon District,"10 Graham Road, Kangaroo Ground, 3097",145.2151248,-37.69164855
VIC,Kinglake,Kinglake Primary School,Eildon District,"20 McMahons Road, Kinglake, 3763",145.35664,-37.52157
VIC,Launching Place,Launching Place Primary School,Eildon District,"20a Carter Street, Launching Place, 3139",145.57077,-37.7825
VIC,Marysville,Marysville Primary School,Eildon District,"15 Falls Road, Marysville, 3779",145.749163,-37.511962
VIC,Merrijig,Merrijig Primary School,Eildon District,"1820 Mt Buller Road, Merrijig, 3723",146.25688,-37.1028
VIC,Merton,Merton Memorial Hall,Eildon District,"17 Shaws Road, Merton, 3715",145.70926,-36.976492
VIC,Millgrove,Millwarra Primary School (Millgrove Campus),Eildon District,"18 Cavanagh Road, Millgrove, 3799",145.651407,-37.753524
VIC,Warburton East,Millwarra Primary School (Warburton East Campus),Eildon District,"397 Woods Point Road, Warburton East, 3799",145.7354,-37.742164
VIC,Toolangi,Toolangi Memorial Hall,Eildon District,"1715 Healesville-Kinglake Road, Toolangi, 3777",145.4739185,-37.53800956
VIC,Warburton,Warburton Primary School,Eildon District,"16 Horners Road, Warburton, 3799",145.701266,-37.756138
VIC,Wesburn,Wesburn Primary School,Eildon District,"2850 Warburton Highway, Wesburn, 3799",145.647771,-37.768991
VIC,Woori Yallock,Woori Yallock Primary School,Eildon District,"1360 Healesville-Koo Wee Rup Road, Woori Yallock, 3139",145.5326921,-37.77734794
VIC,Yarra Glen,Yarra Glen Primary School,Eildon District,"35 Symonds Street, Yarra Glen, 3775",145.3728721,-37.64975063
VIC,Yarra Junction,Yarraburn Centre,Eildon District,"1 Park Road, Yarra Junction, 3797",145.6137449,-37.78070433
VIC,Kilmore,Assumption College,Euroa District,"37-43 Sutherland Street, Kilmore, 3764",144.9475144,-37.30158296
VIC,Avenel,Avenel Primary School,Euroa District,"40 Anderson Street, Avenel, 3664",145.234366,-36.90144
VIC,Benalla,Benalla Secondary College - Dunlop Campus,Euroa District,"Corner Barkly and Church Streets, Benalla, 3672",145.990939,-36.548384
VIC,Benalla West,Benalla Secondary College - Faithful Campus,Euroa District,"Faithful Street, Benalla, 3672",145.964299,-36.553334
VIC,Broadford,Broadford Secondary College,Euroa District,"Snodgrass Street, Broadford, 3658",145.0395974,-37.20492846
VIC,Byrneside,Byrneside Public Hall,Euroa District,"Midland Highway, Byrneside, 3617",145.1748216,-36.42132752
VIC,Caniambo,Caniambo Public Hall,Euroa District,"Bridge Road, Caniambo, 3630",145.6312534,-36.4684712
VIC,Colbinabbin,Colbinabbin Primary School,Euroa District,"56 Mitchell Street, Colbinabbin, 3559",144.8014991,-36.58982389
VIC,Devenish,Devenish Primary School,Euroa District,"Main Road, Devenish, 3726",145.89434,-36.32654
VIC,Dhurringile,Dhurringile Primary School,Euroa District,"605 Langham Road, Dhurringile, 3610",145.23979,-36.5432
VIC,Girgarre,Girgarre Public Hall,Euroa District,"9-13 Morgan Crescent, Girgarre, 3624",144.979884,-36.397756
VIC,Goorambat,Goorambat Public Hall,Euroa District,"55 Halls Road, Goorambat, 3725",145.922627,-36.411221
VIC,Piries-Goughs Bay,Goughs Bay Fire Station,Eildon District,"Corner Walshs and Howes Creek Roads, Goughs Bay, 3723",146.0630547,-37.17675883
VIC,Heathcote,Heathcote RSL Hall,Euroa District,"127 High Street, Heathcote, 3523",144.7092109,-36.923144
VIC,Longwood,Longwood Community Centre,Euroa District,"2a Down Street, Longwood, 3665",145.4271722,-36.80465731
VIC,Lurg,Lurg Public Hall,Euroa District,"Winton-Lurg Road, Lurg, 3673",146.1263112,-36.58170169
VIC,Merrigum,Merrigum Primary School,Euroa District,"Judd Avenue, Merrigum, 3618",145.12966,-36.36932
VIC,Murchison,Murchison Community Centre,Euroa District,"14 Watson Street, Murchison, 3610",145.216235,-36.617829
VIC,Nagambie,Nagambie Senior Citizens Hall,Euroa District,"358-360 High Street, Nagambie, 3608",145.155068,-36.781701
VIC,Baddaginnie,Peranbin Primary College,Euroa District,"Clarendon Street, Baddaginnie, 3670",145.86344,-36.59246
VIC,Pyalong,Pyalong Primary School,Euroa District,"10-14 Bourke Street, Pyalong, 3521",144.85709,-37.11724
VIC,Redesdale,Redesdale Public Hall,Euroa District,"Kyneton-Redesdale Road, Redesdale, 3444",144.531241,-37.023023
VIC,Rushworth,Rushworth P-12 College,Euroa District,"45 Heily Street, Rushworth, 3612",145.0144,-36.58332
VIC,Seymour,Anglican Parish Hall,Euroa District,"2 Anzac Avenue, Seymour, 3660",145.136426,-37.026213
VIC,Seymour East,Seymour College,Euroa District,"Loco Street, Seymour, 3660",145.143249,-37.03038639
VIC,Stanhope,Stanhope Public Hall,Euroa District,"Godley Place, Stanhope, 3623",144.984287,-36.446804
VIC,Strathbogie,Strathbogie Memorial Hall,Euroa District,"29 Main Street, Strathbogie, 3666",145.736511,-36.8571
VIC,Swanpool,Albert Heaney Recreation Reserve Clubrooms,Euroa District,"Swanpool-Lima Road, Swanpool, 3673",146.0011501,-36.74987903
VIC,Tallarook,Tallarook Primary School,Euroa District,"52 Main Road, Tallarook, 3659",145.10108,-37.096961
VIC,Ardmona,Ardmona Primary School,Shepparton District,"580 Turnbull Road, Ardmona, 3629",145.31307,-36.38546
VIC,Tatong,Tatong Memorial Hall,Euroa District,"Tiger Hill Road, Tatong, 3673",146.1092538,-36.73075326
VIC,Puckapunyal,Puckapunyal Neighbourhood Centre,Euroa District,"Labuan Street, Puckapunyal,",145.0388403,-37.00257693
VIC,Tooborac,Tooborac Primary School,Euroa District,"Northern Highway, Tooborac, 3522",144.79814,-37.03978
VIC,Wandong,Wandong Primary School,Euroa District,"39 Rail Street, Wandong, 3758",145.027861,-37.360304
VIC,Boorhaman,Boorhaman Hall,Ovens Valley District,"1430-1486 Boorhaman Road, Boorhaman, 3678",146.2905738,-36.21494154
VIC,Bright,Bright Senior Citizens Centre,Ovens Valley District,"Cobden Street, Bright, 3741",146.961815,-36.730725
VIC,Bundalong,Bundalong Hall,Ovens Valley District,"Pyke Street, Bundalong, 3730",146.1725953,-36.03759368
VIC,Londrigan,Carraragarmungee Primary School,Ovens Valley District,"Eldorado Road, Londrigan, 3678",146.46086,-36.3289
VIC,Cheshunt,Cheshunt Hall,Ovens Valley District,"454 King Valley Road, Cheshunt, 3678",146.4306253,-36.79943871
VIC,Cobram,Cobram Civic Centre,Ovens Valley District,"14-20 Punt Road, Cobram, 3643",145.651571,-35.918813
VIC,Dixons Creek,Dixons Creek Primary School,Eildon District,"1815 Melba Highway, Dixons Creek, 3775",145.41352,-37.59234
VIC,Eldorado,Eldorado Memorial Hall,Ovens Valley District,"96 Main Street, Eldorado, 3746",146.520444,-36.308388
VIC,Everton,Everton Public Hall,Ovens Valley District,"2161 Great Alpine Road, Everton, 3678",146.544758,-36.435862
VIC,Gapsted,Gapsted Public Hall,Ovens Valley District,"3722 Great Alpine Road, Gapsted, 3737",146.6758147,-36.50796234
VIC,Glenrowan,Glenrowan Primary School,Ovens Valley District,"40 Beaconsfield Parade, Glenrowan, 3675",146.222288,-36.460163
VIC,Greta West,Greta Valley School,Ovens Valley District,"2376 Wangaratta-Kilfeera Road, Greta South, 3675",146.23636,-36.61784
VIC,Katamatite,Katamatite Sports and Community Hub,Ovens Valley District,"Moore Street, Katamatite, 3649",145.6902976,-36.07640894
VIC,Milawa,Milawa Primary School,Ovens Valley District,"133 Milawa-Bobinawarrah Road, Milawa, 3678",146.43302,-36.444601
VIC,Moyhu,Moyhu Memorial Hall,Ovens Valley District,"24 Bartley Street, Moyhu, 3732",146.3758141,-36.57760095
VIC,Mudgegonga,Mudgegonga Hall,Ovens Valley District,"1395 Myrtleford-Yackandandah Road, Mudgegonga, 3737",146.829951,-36.492827
VIC,Myrtleford,Myrtleford Uniting Church Hall,Ovens Valley District,"Corner Myrtle and Albert Streets, Myrtleford, 3737",146.727213,-36.562674
VIC,Oxley,Oxley Shire Hall,Ovens Valley District,"Snow Road, Oxley, 3678",146.383481,-36.44345
VIC,Porepunkah,Porepunkah Primary School,Ovens Valley District,"Martley Street, Porepunkah, 3740",146.910994,-36.69953
VIC,Springhurst,Springhurst Primary School,Ovens Valley District,"121 Anzac Road, Springhurst, 3682",146.4681,-36.18467
VIC,Wangaratta,TAFE College Amenities Building,Ovens Valley District,"27 Docker Street, Wangaratta, 3677",146.3195239,-36.35489499
VIC,Tarrawingee,Tarrawingee Hall,Ovens Valley District,"Great Alpine Road, Tarrawingee, 3678",146.4454628,-36.39132718
VIC,Tungamah,Tungamah Primary School,Ovens Valley District,"15-17 Tower Street, Tungamah, 3728",145.879505,-36.161322
VIC,West End,Wangaratta High School,Ovens Valley District,"17-49 Edward Street, Wangaratta, 3677",146.308594,-36.34335276
VIC,Whitfield,Whitfield Primary School,Ovens Valley District,"6182 Mansfield Road, Whitfield, 3733",146.411991,-36.766335
VIC,Whorouly,Whorouly Primary School,Ovens Valley District,"18 Church Street, Whorouly, 3735",146.586663,-36.505388
VIC,Yarrawonga,Yarrawonga Secondary College - ECA Centre,Ovens Valley District,"Pinniger Street, Yarrawonga, 3730",146.0075637,-36.0216802
VIC,Yarrawonga Central,Yarrawonga Town Hall,Ovens Valley District,"100 Belmore Street, Yarrawonga, 3730",146.004812,-36.012762
VIC,Yarroweyah,Yarroweyah Public Hall,Ovens Valley District,"Murray Valley Highway, Yarroweyah, 3644",145.560442,-35.924967
VIC,St James,St James Town Hall,Ovens Valley District,"St James Road, St James, 3727",145.89591,-36.26959608
VIC,Storey,Bourchier Street Primary School,Shepparton District,"1 Bourchier Street, Shepparton, 3630",145.413279,-36.36698
VIC,Bunbartha,Bunbartha Community Centre,Shepparton District,"Barmah-Shepparton Road, Bunbartha, 3634",145.3428857,-36.21933249
VIC,Congupna,Congupna Primary School,Shepparton District,"3580 Katamatite-Shepparton Road, Congupna, 3633",145.433782,-36.299824
VIC,Dookie,Dookie Primary School,Shepparton District,"Baldock Street, Dookie, 3646",145.68279,-36.33107
VIC,Gowrie Street,Gowrie Street Primary School,Shepparton District,"1-19 Gowrie Street, Shepparton, 3630",145.39635,-36.3668
VIC,Katandra West,Katandra West Primary School,Shepparton District,"17-27 Bankin Street, Katandra West, 3634",145.560115,-36.22551066
VIC,Katunga,Katunga Primary School,Shepparton District,"Carter Street, Katunga, 3640",145.45561,-35.99856
VIC,Kialla,Kialla Primary School,Shepparton District,"128 Central Road, Kialla, 3631",145.431335,-36.452531
VIC,Kialla West,Kialla West Primary School,Shepparton District,"7370 Goulburn Valley Highway, Kialla West, 3613",145.389872,-36.466055
VIC,Lemnos,Lemnos Primary School,Shepparton District,"Lemnos Road, Lemnos, 3631",145.46246,-36.35805
VIC,Mooroopna,Mooroopna Secondary College,Shepparton District,"141-179 Echuca Road, Mooroopna, 3629",145.3518188,-36.38177111
VIC,Naring,Naring War Memorial Hall,Shepparton District,"Naring Hall Road, Naring, 3636",145.531369,-36.055463
VIC,Nathalia,Nathalia Community Centre,Shepparton District,"Robertson Street, Nathalia, 3638",145.206101,-36.060853
