Polling Location Name,Venue Name,Type,Electorate 1,Electorate 2,Property Name,Flat Number,Street Number,Street Name,Street Type,Locality,Postcode,Melway/Vicroads Ref,Longitude,Latitude
Bentleigh EO - EVC,Bentleigh State EO - EVC,Early Voting Centre,Bentleigh District,,,,417,South,Road,Bentleigh,3204,77 D4,145.035762000141,-37.9329289998787
Brunswick EO - EVC,Brunswick State EO - EVC,Early Voting Centre,Brunswick District,,,,783-787,Sydney,Road,Brunswick,3056,29 H5,144.963415000139,-37.7584659998752
Bulleen EO - EVC,Bulleen EO - EVC,Early Voting Centre,Bulleen District,,"Suite 5, Level 1",,90-94,Tram,Road,Doncaster,3108,47 D1,145.125386000142,-37.7890199998758
Bundoora EO - EVC,Bundoora State EO - EVC,Early Voting Centre,Bundoora District,,,,98-100,Main,Street,Greensborough,3088,20 K2,145.105378000142,-37.7030219998741
Burwood EO - EVC,Burwood State EO - EVC,Early Voting Centre,Burwood District,,,6,154,Highbury,Road,Burwood,3125,61 A7,145.112528000142,-37.8556909998771
Caulfield EO - EVC,Caulfield State EO - EVC,Early Voting Centre,Caulfield District,,,,Units,"5 and 6,15-17 Pakington",Street,St Kilda,3182,2P F8,144.98727200014,-37.8660269998773
Cranbourne EO - EVC,Cranbourne State EO - EVC,Early Voting Centre,Cranbourne District,,"Showroom 2, Cranbourne Home",,398,South Gippsland,Highway,Cranbourne,3977,129 J10,145.278901541812,-38.0847693165484
Dandenong EO - EVC,Dandenong State EO - EVC,Early Voting Centre,Dandenong District,,,,279,Lonsdale,Street,Dandenong,3175,91A E6,145.213846000144,-37.9871799998797
Eltham EO - EVC,Eltham EO - EVC,Early Voting Centre,Eltham District,,,,Level 1/,1 Peel,Street,Eltham,3095,21 G6,145.138676000143,-37.7199689998744
Hastings EO - EVC,Hastings State EO - EVC,Early Voting Centre,Hastings District,,,,Shop 10,108 High,Street,Hastings,3915,154 H11,145.188341000144,-38.3075009998862
Ivanhoe EO - EVC,Ivanhoe State EO - EVC,Early Voting Centre,Ivanhoe District,,,,179,Burgundy,Street,Heidelberg,3084,31 K4,145.063978000141,-37.7561189998751
Mount Waverley EO - EVC,Mount Waverley EO - EVC,Early Voting Centre,Mount Waverley District,,,2,350,Springvale,Road,Glen Waverley,3150,71 C4,145.166374000143,-37.8877039998778
Narre Warren North EO - EVC,Narre Warren North EO - EVC,Early Voting Centre,Narre Warren North District,,,6,74-80,Melverton,Drive,Hallam,3803,96 H2,145.275307000145,-38.0128079998803
Nepean EO - EVC,Nepean State EO - EVC,Early Voting Centre,Nepean District,,,,Shop 13,143 Point Nepean,Road,Dromana,3936,159 J5,144.968463000139,-38.3318089998866
Niddrie EO - EVC,Niddrie EO - EVC,Early Voting Centre,Niddrie District,,,,12,Howes,Street,Airport West,3042,16 A5,144.889941000138,-37.7146149998743
Northcote EO - EVC,Northcote State EO - EVC,Early Voting Centre,Northcote District,,,,885,High,Street,Thornbury,3071,30 F4,145.00122700014,-37.7537519998751
Pascoe Vale EO - EVC,Pascoe Vale EO - EVC,Early Voting Centre,Pascoe Vale District,,,,98,Gaffney,Street,Coburg,3058,17 F10,144.957906000139,-37.7331439998747
Thomastown EO - EVC,Thomastown State EO -EVC,Early Voting Centre,Thomastown District,,,,Suite 2,62 Keon,Parade,Thomastown,3074,8 K12,145.02005300014,-37.6956009998739
Warrandyte EO - EVC,Warrandyte EO - EVC,Early Voting Centre,Warrandyte District,,,2,860,Doncaster,Road,Doncaster East,3109,47 J1,145.144164000143,-37.7872839998757
Benambra EO - EVC,Benambra State EO - EVC,Early Voting Centre,Benambra District,,,,170,High,Street,Wodonga,3690,35 G3,146.888364000178,-36.1216619998424
Bendigo East EO - EVC,Bendigo East EO - EVC,Early Voting Centre,Bendigo East District,,,,"Unit 13a,",172-176 McIvor,Road,Bendigo,3550,44 F6,144.310598000126,-36.7596509998552
Euroa EO - EVC,Euroa State EO - EVC,Early Voting Centre,Euroa District,,,,16-18,Station,Street,Seymour,3660,61 D2,145.138687000143,-37.0237079998605
Lowan EO - EVC,Lowan State EO - EVC,Early Voting Centre,Lowan District,,,,45,Wilson,Street,Horsham,3400,40 E5,142.200260000084,-36.7168609998543
Macedon EO - EVC,Macedon State EO -  EVC,Early Voting Centre,Macedon District,,,,4/17,Goode,Street,Gisborne,3437,678 B3,144.587260583465,-37.4864309082031
Mildura EO - EVC,Mildura State EO - EVC,Early Voting Centre,Mildura District,,,,824,Fifteenth,Street,Mildura,3500,3 D5,142.141931000083,-34.2120119998042
Murray Plains EO - EVC,Murray Plains State EO - EVC,Early Voting Centre,Murray Plains District,,,,22,Sturt,Street,Echuca,3564,586 H3,144.755463000135,-36.1392659998428
Ovens Valley EO - EVC,Ovens Valley State EO - EVC,Early Voting Centre,Ovens Valley District,,,,2a/14-24,Parfitt,Road,Wangaratta,3677,34 G7,146.333038000167,-36.352507999847
Polwarth EO - EVC,Polwarth State EO - EVC,Early Voting Centre,Polwarth District,,,,6,Murray,Street,Colac,3250,92 B7,143.591622000112,-38.3397839998868
Shepparton EO - EVC,Shepparton State EO - EVC,Early Voting Centre,Shepparton District,,,,57,Benalla,Road,Shepparton,3630,32 H8,145.419085000148,-36.3842679998477
South West Coast EO - EVC,South West Coast State EO - EVC,Early Voting Centre,South-West Coast District,,,,48,Kepler,Street,Warrnambool,3280,89J8,142.48103400009,-38.3835389998877
Bayswater EO - EVC,Bayswater EO - EVC,Early Voting Centre,Bayswater District,,,Unit 3,24,Longstaff,Road,Bayswater,3153,64 K2,145.283711000146,-37.8344129998767
Croydon EO - EVC,Croydon EO - EVC,Early Voting Centre,Croydon District,,,Unit 1,37-51,Lusher,Road,Croydon,3136,50 J5,145.278848000146,-37.8034179998761
Ferntree Gully EO - EVC,Ferntree Gully State EO - EVC,Early Voting Centre,Ferntree Gully District,,,,500,Burwood Highway (Corner Tyner,Rd),Wantirna South,3152,64 A12,145.243599116812,-37.8722913915441
Gembrook EO - EVC,Gembrook State EO - EVC,Early Voting Centre,Gembrook District,,,Lot 1,24,Toomuc Valley,Road,Pakenham,3810,317 A4,145.466921883483,-38.0623967248812
Monbulk EO - EVC,Monbulk State EO - EVC,Early Voting Centre,Monbulk District,,,,"Shops 1-4,",232 Ridge,Road,Olinda,3788,66 G5,145.360235000147,-37.847533999877
Rowville EO - EVC,Rowville State EO - EVC,Early Voting Centre,Rowville District,,,,14/5,Kelletts,Road,Rowville,3178,72 K10,145.238298000145,-37.9106359998782
Tarneit EO - EVC,Tarneit State EO - EVC,Early Voting Centre,Tarneit District,,,7,3-4,Desire,Place,Hoppers Crossing,3029,207 C1,144.720689000134,-37.8760519998775
Bass EO - EVC,Bass State EO - EVC,Early Voting Centre,Bass District,,,,1/20,Inverloch,Road,Wonthaggi,3995,102 C3,145.603606000152,-38.6065029998921
Bellarine EO - EVC,Bellarine State EO - EVC,Early Voting Centre,Bellarine District,,,,252-260,Portarlington,Road,Moolap,3224,453 D8,144.411150000128,-38.1638049998833
Gippsland East EO - EVC,Gippsland East State EO - EVC,Early Voting Centre,Gippsland East District,,,Shop 1,80-88,Main,Street,Bairnsdale,3875,84 C7,147.633467000193,-37.8250499998765
Morwell EO - EVC,Morwell State EO - EVC,Early Voting Centre,Morwell District,,,,64,Church,Street,Traralgon,3844,98 A5,146.535939000171,-38.1935099998839
South Barwon EO - EVC,South Barwon EO - EVC,Early Voting Centre,South Barwon District,,,Lot 1,8,Winki,Way,Torquay,3228,493 C12,144.318694000126,-38.3096639998862
St Albans EO - EVC,St Albans EO - EVC,Early Voting Centre,St Albans District,,,,3,St Albans,Road,St Albans,3021,26 A1,144.801136866803,-37.7455159332082
Werribee EO - EVC,Werribee EO - EVC,Early Voting Centre,Werribee District,,,,Shop 3-8,28 Watton,Street,Werribee,3030,205 J8,144.660604000133,-37.901484999878
Melbourne EO - EVC,Melbourne State EO - EVC,Early Voting Centre,Melbourne District,,,,Level 4,530 Collins,Street,Melbourne,3000,2F B6,144.956874000139,-37.8180679998764
Gippsland South - EVC,Gippsland South - EVC,Early Voting Centre,Gippsland South District,,,,337,Raymond,Street,Sale,3850,693 O6,147.065262000181,-38.1062879998821
Albert Park EO - EVC,Albert Park State EO - EVC,Early Voting Centre,Albert Park District,,,,307-309,Clarendon,Street,South Melbourne,3205,2K D2,144.961241000139,-37.8338479998767
Bendigo West EO - EVC,Bendigo West State EO - EVC,Early Voting Centre,Bendigo West District,,,,284-288,High,Street,Golden Square,3555,44 F6,144.262184000125,-36.7705139998554
Box Hill EO - EVC,Box Hill State EO - EVC,Early Voting Centre,Box Hill District,,,,34-36,Prospect,Street,Box Hill,3128,75A C4,145.116941000142,-37.8178679998764
Buninyong EO - EVC,Buninyong EO - EVC,Early Voting Centre,Buninyong District,,,,1/401,Lal Lal,Street,Canadian,3350,76 G3,143.878524000118,-37.5811989998716
Forest Hill EO - EVC,Forest Hill State EO - EVC,Early Voting Centre,Forest Hill District,,,,Building 1,"Ground Floor, 303 Burwood",Highway,Burwood East,3151,62 B7,145.16095921681,-37.8535296915437
Geelong EO - EVC,Geelong State EO - EVC,Early Voting Centre,Geelong District,,,,"Shop 1a,",110-122 High,Street,Belmont,3216,451 J10,144.345441000127,-38.1722589998834
Hawthorn EO - EVC,Hawthorn State EO - EVC,Early Voting Centre,Hawthorn District,,,,Part 2-6,Hall,Street,Hawthorn East,3123,59 E4,145.042139000141,-37.8442969998769
Keysborough EO - EVC,Keysborough EO - EVC,Early Voting Centre,Keysborough District,,,,"Office A,","and Warehouse A, 41-51 Mills",Road,Braeside,3195,88 B9,145.115729000142,-37.9940309998799
Kororoit EO - EVC,Kororoit State EO - EVC,Early Voting Centre,Kororoit District,,,,5/93,Elgar,Road,Derrimut,3030,39 E1,144.772929000135,-37.7884999998758
Mordialloc EO - EVC,Mordialloc EO - EVC,Early Voting Centre,Mordialloc District,,,,14-16,Bond,Street,Mordialloc,3195,87 K9,145.104883000142,-37.9926489998799
Mulgrave EO - EVC,Mulgrave EO - EVC,Early Voting Centre,Mulgrave District,,,,126-128,Browns,Road,Noble Park North,3174,80 H9,145.187262000144,-37.948130999879
Oakleigh EO - EVC,Oakleigh EO - EVC,Early Voting Centre,Oakleigh District,,,,Level 1,20 Atherton,Road,Oakleigh,3166,69F7,145.089438000142,-37.898829999878
Portland - EVC,Portland - EVC,Early Voting Centre,South-West Coast District,,,Unit 2,103-111,Percy,Street,Portland,3305,503 P3,141.603536000072,-38.3448079998869
Preston EO - EVC,Preston EO - EVC,Early Voting Centre,Preston District,,,,508,High Street,Street,Preston,3072,18 G10,145.00517887553,-37.7344636165966
Sandringham EO - EVC,Sandringham State EO - EVC,Early Voting Centre,Sandringham District,,,,5/47,Wangara,Road,Cheltenham,3192,77 D11,145.035579000141,-37.9573639998791
Carrum EO - EVC,Carrum State EO - EVC,Early Voting Centre,Carrum District,,,5,684-700,Frankston-Dandenong,Road,Carrum Downs,3201,98 G1,145.18160076681,-38.0873527082151
Altona EO - EVC,Altona EO - EVC,Early Voting Centre,Altona District,,,,108,Pier,Street,Altona,3018,54 H10,144.830963000137,-37.8662949998773
Swan Hill - EVC,Swan Hill - EVC,Early Voting Centre,Murray Plains District,,,,126,Campbell,Street,Swan Hill,3585,VR 586 H3,143.558847000111,-35.3374739998267
Footscray EO - EVC,Footscray State EO - EVC,Early Voting Centre,Footscray District,,,,Level 2,27 Albert,Street,Footscray,3011,2S E8,144.898132167429,-37.8013894430746
Kew EO - EVC,Kew - EO - EVC,Early Voting Centre,Kew District,,,,"Unit 3,",796 High,Street,Kew East,3102,45 J3,145.058015000141,-37.7962839998759
Narre Warren South EO - EVC,Narre Warren South EO - EVC,Early Voting Centre,Narre Warren South District,,Shop 62 Hampton Park Shopping Square,,,(access via Commerce Drive),,Hampton Park,3976,96 F8,145.266098000145,-38.0331389998807
Ripon EO - EVC,Ripon State EO - EVC,Early Voting Centre,Ripon District,,,,8-12,Scotland,Place,Stawell,3380,56 E2,142.780306000096,-37.0573189998611
Sydenham EO - EVC,Sydenham EO - EVC,Early Voting Centre,Sydenham District,,Watergardens Town Centre Shop R1,,corner,McCubbin Drive and Melton H'way (next to,Red Rooster),Taylors Lakes,3038,3 E12,144.774070000135,-37.6961659998739
Williamstown EO - EVC,Williamstown State EO - EVC,Early Voting Centre,Williamstown District,,,Unit 1,13,Export,Drive,Brooklyn,3012,41 C10,144.855709000137,-37.8195399998764
Essendon EO - EVC,Essendon State EO - EVC,Early Voting Centre,Essendon District,,,,1065-1069,Mt Alexander,Road,Essendon,3040,28F1,144.910647000138,-37.7458899998749
Prahran EO - EVC,Prahran EO- EVC,Early Voting Centre,Prahran District,,,,441,Malvern,Road,South Yarra,3141,2M B10,145.00202100014,-37.847792999877
Brighton EO - EVC,Brighton EO - EVC,Early Voting Centre,Brighton District,,,,441a,Bluff,Road,Hampton,3188,77 A6,145.023530866807,-37.9378417748788
Evelyn EO - EVC,Evelyn State EO - EVC,Early Voting Centre,Evelyn District,,,,,26 Tesmar Circuit (via Ramset,Drive),Chirnside Park,3116,37D8,145.301006000146,-37.7701469998754
Lara EO - EVC,Lara EO - EVC,Early Voting Centre,Lara District,,,,4-6,Beauford,Avenue,Bell Post Hill,3215,441 E4,144.327479000127,-38.1045649998821
Malvern EO - EVC,Malvern  EO - EVC,Early Voting Centre,Malvern District,,,,"Suite 2,",1949 -1957 Malvern,Road,Malvern East,3145,59 K11,145.061464000141,-37.8700719998774
Sunbury EO - EVC,Sunbury State EO - EVC,Early Voting Centre,Sunbury District,,,,61,Horne,Street,Sunbury,3429,382 D5,144.724725000134,-37.5815879998716
Yuroke EO - EVC,Yuroke EO - EVC,Early Voting Centre,Yuroke District,,,,29a,Yellowbox,Drive,Craigieburn,3064,180 C3,144.943145000139,-37.6185339998724
Bright - EVC,Bright - EVC,Early Voting Centre,Ovens Valley District,,,,104c,Gavan,Street,Bright,3741,VR 661 P2,146.961963000179,-36.7268389998545
Melton EO - EVC,Melton State EO - EVC,Early Voting Centre,Melton District,,,,1/16,Harrison,Court,Melton,3337,337 E11,144.598747000132,-37.6940479998739
Melbourne Airport - EVC,Melbourne Airport - EVC,Early Voting Centre,Sunbury District,,Virgin Terminal T3  (Mezzanine Floor),,,Airport,Drive,Melbourne Airport,3045,5 B5,144.848437999014,-37.6712099986115
Cowes - EVC,Cowes - EVC,Early Voting Centre,Bass District,,,,"Shop 2,",42 Thompson,Avenue,Cowes,3922,731 K2,145.238617000145,-38.449387999889
Gippsland South EO - EVC,Gippsland South State EO - EVC,Early Voting Centre,Gippsland South District,,,,40,McCartin,Street,Leongatha,3953,96 H9,145.944725976064,-38.4770310336424
Narracan EO - EVC,Narracan State EO - EVC,Early Voting Centre,Narracan District,,,Unit 4,142,Queen,Street,Warragul,3820,96 G4,145.935833000159,-38.1653479998833
Yan Yean EO - EVC,Yan Yean State EO - EVC,Early Voting Centre,Yan Yean District,,,,57,Church,Street,Whittlesea,3757,246 F8,145.117684000142,-37.5125469998703
Caulfield - EVC,Caulfield - EVC,Early Voting Centre,Caulfield District,,,,863,Glen Huntly,Road,Caulfield South,3162,68 A4,145.02415600014,-37.8870119998777
Queen Victoria - EVC,Drill Hall - EVC,Early Voting Centre,Melbourne District,,,,51-57,Victoria,Street,Melbourne,3000,43 G6,144.960611383473,-37.8066904082095
Hamilton - EVC,Hamilton - EVC,Early Voting Centre,Lowan District,,,,38,Thompson,Street,Hamilton,3300,506 F8,142.02447500008,-37.7451799998749
Melbourne - EVC,St Michael's Uniting Church - EVC,Early Voting Centre,Melbourne District,,,,120,Collins,Street,Melbourne,3000,43 J8,144.969222186562,-37.8143400759587
Pakenham - EVC,Pakenham - EVC,Early Voting Centre,Bass District,,,,45a,Main,Street,Pakenham,3810,317 C7,145.48002700015,-38.0762779998815
Sunshine - EVC,Sunshine Early Voting Centre,Early Voting Centre,St Albans District,,,,T53-T55,Sunshine Plaza 324-328 Hampshire,Road,Sunshine,3020,26H11,144.833692304992,-37.7824570471856
Mordialloc - EVC,Mordialloc - EVC,Early Voting Centre,Mordialloc District,,,,Shop 13-15,450 Nepean,Highway,Chelsea,3196,97 B2,145.116868675142,-38.0547969998811
Mornington - EVC,Mornington - EVC,Early Voting Centre,Mornington District,,,Unit 1,176,Main,Street,Mornington,3931,104 E11,145.040100898998,-38.2214701003453
Wendouree EO - EVC,Wendouree State EO - EVC,Early Voting Centre,Wendouree District,,,,607,La Trobe,Street,Redan,3350,76F3,143.833760000117,-37.5726859998715
Richmond EO - EVC,Richmond EO - EVC,Early Voting Centre,Richmond District,,,,Shop SP61A,61-63 Burnley,Street,Richmond,3121,2H F3,145.00957100014,-37.8137769998763
Mill Park EO - EVC,Mill Park EO - EVC,Early Voting Centre,Mill Park District,,Westfield Plenty Valley Shop MM3,,415,McDonalds Road (next to Australia,Post),Mill Park,3082,183 B12,145.072978983475,-37.6512068415397
Yarrawonga - EVC,Yarrawonga - EVC,Early Voting Centre,Ovens Valley District,,,,"Shop 4,",106 Belmore Street (access via Orr,Street),Yarrawonga,3730,668 D8,146.00505400016,-36.0132009998403
Ringwood EO - EVC,Ringwood State EO - EVC,Early Voting Centre,Ringwood District,,,,259,Maroondah,Highway,Ringwood,3134,49 J8,145.233304000145,-37.8133319998763
Eildon EO - EVC,Eildon State EO - EVC,Early Voting Centre,Eildon District,,,,1995,Warburton,Highway,Launching Place,3139,287 D7,145.568241000151,-37.7797259998756
Mornington EO - EVC,Mornington EO - EVC,Early Voting Centre,Mornington District,,,,28,Milgate,Drive,Mornington,3931,145 K3,145.060795000141,-38.2354649998847
Broadmeadows EO - EVC,Broadmeadows State EO - EVC,Early Voting Centre,Broadmeadows District,,,1,11,Cooper,Street,Campbellfield,3061,180 K10,144.971607000139,-37.6469399998729
Clarinda EO - EVC,Clarinda State EO - EVC,Early Voting Centre,Clarinda District,,,,,"Ground Floor, Building 25,121 Rayhur",Street,Clayton South,3169,79 G5,145.137860508476,-37.9364318332121
Frankston EO - EVC,Frankston State EO - EVC,Early Voting Centre,Frankston District,,,,Suite G4,431 Nepean,Highway,Frankston,3199,100A C6,145.121886000142,-38.1419449998828
Essendon State EO,Essendon State Election Office,Election Office,Essendon District,,,,1065-1069,Mt Alexander,Road,Essendon,3040,28 F1,144.910647000138,-37.7458899998749
Prahran State EO,Prahran State Election Office,Election Office,Prahran District,,,,441,Malvern,Road,South Yarra,3141,2M B10,145.00202100014,-37.847792999877
Cranbourne State EO,Cranbourne State Election Office,Election Office,Cranbourne District,,"Shop 2, Cranbourne Home (near Bunnings)",,398,South Gippsland,Highway,Cranbourne,3977,129 J10,145.278901541812,-38.0847693165484
Yan Yean State EO,Yan Yean State Election Office,Election Office,Yan Yean District,,Level 1 Suite 4D,,61,High,Street,Wallan,3756,646 A10,144.97884300014,-37.4143329998683
Bendigo East State EO,Bendigo East State Election Office,Election Office,Bendigo East District,,,,"Unit 13a,",172-176 McIvor,Road,Bendigo,3550,44 F6,144.310598000126,-36.7596509998552
Lara State EO,Lara State Election Office,Election Office,Lara District,,,,4-6,Beauford,Avenue,Bell Post Hill,3215,441 E4,144.327479000127,-38.1045649998821
Macedon State EO,Macedon State Election Office,Election Office,Macedon District,,,,4/17,Goode,Street,Gisborne,3437,678 B3,144.587260583465,-37.4864309082031
Evelyn State EO,Evelyn State Election Office,Election Office,Evelyn District,,,,,26 Tesmar Circuit (via Ramset,Drive),Chirnside Park,3116,37 D8,145.301006000146,-37.7701469998754
Buninyong State EO,Buninyong State Election Office,Election Office,Buninyong District,,,,1/401,Lal Lal,Street,Canadian,3350,76 G3,143.878524000118,-37.5811989998716
Brunswick State EO,Brunswick State Election Office,Election Office,Brunswick District,,,,783-787,Sydney,Road,Brunswick,3056,29 H5,144.963415000139,-37.7584659998752
Williamstown State EO,Williamstown State Election Office,Election Office,Williamstown District,,,Unit 1,13,Export,Drive,Brooklyn,3012,41 C10,144.855709000137,-37.8195399998764
Mill Park State EO,Mill Park State Election Office,Election Office,Mill Park District,,Westfield Plenty Valley Shop MM3,,415,McDonalds,Road,Mill Park,3082,183 B12,145.072978983475,-37.6512068415397
Malvern State EO,Malvern State Election Office,Election Office,Malvern District,,,,"Suite 2,",1949 -1957 Malvern,Road,Malvern East,3145,59K11,145.061464000141,-37.8700719998774
Yuroke State EO,Yuroke State Election Office,Election Office,Yuroke District,,,,29a,Yellowbox,Drive,Craigieburn,3064,180 C3,144.943145000139,-37.6185339998724
Sunbury State EO,Sunbury State Election Office,Election Office,Sunbury District,,,,61,Horne,Street,Sunbury,3429,382 D5,144.724725000134,-37.5815879998716
Richmond State EO,Richmond State Election Office,Election Office,Richmond District,,,,Shop SP61A,61-63 Burnley,Street,Richmond,3121,2H F3,145.00957100014,-37.8137769998763
Narre Warren South State EO,Narre Warren South State Election Office,Election Office,Narre Warren South District,,Shop 62 Hampton Park Shopping Square,,,(access via Commerce Drive),,Hampton Park,3976,96 F8,145.266098000145,-38.0331389998807
Sydenham State EO,Sydenham State Election Office,Election Office,Sydenham District,,Watergardens Town Centre Shop R1,,corner,McCubbin Drive and Melton,Highway,Taylors Lakes,3038,3 E12,144.774070000135,-37.6961659998739
Kew State EO,Kew State Election Office,Election Office,Kew District,,,,"Unit 3,",796 High,Street,Kew East,3102,45 J3,145.058015000141,-37.7962839998759
Benambra State EO,Benambra State Election Office,Election Office,Benambra District,,,,170,High,Street,Wodonga,3690,35 G3,146.888364000178,-36.1216619998424
Bulleen State EO,Bulleen State Election Office,Election Office,Bulleen District,,,,Suite 5,"Level 1, 90-94, Tram",Road,Doncaster,3108,47 D1,145.125386000142,-37.7890199998758
St Albans State EO,St Albans State Election Office,Election Office,St Albans District,,,,3,St Albans,Road,St Albans,3021,26 A1,144.801136866803,-37.7455159332082
Monbulk State EO,Monbulk State Election Office,Election Office,Monbulk District,,,,"Shops 1-4,",232 Ridge,Road,Olinda,3788,66 G5,145.360235000147,-37.847533999877
Ringwood State EO,Ringwood State Election Office,Election Office,Ringwood District,,,,259,Maroondah,Highway,Ringwood,3134,49 J8,145.233304000145,-37.8133319998763
Footscray State EO,Footscray State Election Office,Election Office,Footscray District,,,,Level 2,27 Albert,Street,Footscray,3011,2S E8,144.898132167429,-37.8013894430746
Ripon State EO,Ripon State Election Office.,Election Office,Ripon District,,,,8-12,Scotland,Place,Stawell,3380,56 E2,142.780306000096,-37.0573189998611
Bendigo West State EO,Bendigo West State Election Office,Election Office,Bendigo West District,,,,284-288,High,Street,Golden Square,3555,44 F6,144.262184000125,-36.7705139998554
Brighton State EO,Brighton State Election Office,Election Office,Brighton District,,,,441a,Bluff,Road,Hampton,3188,77 A6,145.023530866807,-37.9378417748788
Broadmeadows State EO,Broadmeadows State Election Office.,Election Office,Broadmeadows District,,,1,11,Cooper,Street,Campbellfield,3061,180 K10,144.971607000139,-37.6469399998729
Forest Hill State EO,Forest Hill State Election Office,Election Office,Forest Hill District,,,,Building 1,"Ground Floor, 303 Burwood",Highway,Burwood East,3151,62 B7,145.16095921681,-37.8535296915437
Keysborough State EO,Keysborough State Election Office,Election Office,Keysborough District,,,,Office A,"and Warehouse A, 41-51 Mills",Road,Braeside,3195,88 B9,145.115729000142,-37.9940309998799
Albert Park State EO,Albert Park State Election Office,Election Office,Albert Park District,,,,307-309,Clarendon,Street,South Melbourne,3205,2K D2,144.961241000139,-37.8338479998767
Clarinda State EO,Clarinda State Election Office,Election Office,Clarinda District,,,,,"Ground Floor, Building 25, 121 Rayhur",Street,Clayton South,3169,79 G5,145.137860508476,-37.9364318332121
Hawthorn State EO,Hawthorn State Election Office,Election Office,Hawthorn District,,,,Part 2-6,Hall,Street,Hawthorn East,3123,59 E4,145.042139000141,-37.8442969998769
Mulgrave State EO,Mulgrave State Election Office.,Election Office,Mulgrave District,,,,126-128,Browns,Road,Noble Park North,3174,80 H9,145.187262000144,-37.948130999879
Oakleigh State EO,Oakleigh State Election Office,Election Office,Oakleigh District,,,,Level 1,20 Atherton,Road,Oakleigh,3166,69F7,145.089438000142,-37.898829999878
Sandringham State EO,Sandringham State Election Office,Election Office,Sandringham District,,,,5/47,Wangara,Road,Cheltenham,3192,77 D11,145.035579000141,-37.9573639998791
Box Hill State EO,Box Hill State Election Office,Election Office,Box Hill District,,,,34-36,Prospect,Street,Box Hill,3128,75A C4,145.116941000142,-37.8178679998764
Frankston State EO,Frankston State Election Office,Election Office,Frankston District,,,,Suite G4,431 Nepean,Highway,Frankston,3199,100A C6,145.121886000142,-38.1419449998828
Gembrook State EO,Gembrook State Election Office.,Election Office,Gembrook District,,,Lot 1,24,Toomuc Valley,Road,Pakenham,3810,317 A4,145.466921883483,-38.0623967248812
Hastings State EO,Hastings State Election Office,Election Office,Hastings District,,,,Shop 10,108 High,Street,Hastings,3915,154 H11,145.188341000144,-38.3075009998862
Melbourne State EO,Melbourne State Election Office,Election Office,Melbourne District,,,,Level 4,530 Collins,Street,Melbourne,3000,2F B6,144.956874000139,-37.8180679998764
Mildura State EO,Mildura State Election Office,Election Office,Mildura District,,,,824,Fifteenth,Street,Mildura,3500,3 D5,142.141931000083,-34.2120119998042
Mount Waverley State EO,Mount Waverley State Election Office,Election Office,Mount Waverley District,,,2,350,Springvale,Road,Glen Waverley,3150,71 C4,145.166374000143,-37.8877039998778
Nepean State EO,Nepean State Election Office,Election Office,Nepean District,,,,Shop 13,143 Point Nepean,Road,Dromana,3936,159 J5,144.968463000139,-38.3318089998866
Pascoe Vale State EO,Pascoe Vale State Election Office,Election Office,Pascoe Vale District,,,,98,Gaffney,Street,Coburg,3058,17 F10,144.957906000139,-37.7331439998747
Caulfield State EO,Caulfield State Election Office,Election Office,Caulfield District,,,,Units,"5 and 6,15-17 Pakington",Street,St Kilda,3182,2P F8,144.98727200014,-37.8660269998773
Gippsland East State EO,Gippsland East State Election Office,Election Office,Gippsland East District,,,Shop 1,80-88,Main,Street,Bairnsdale,3875,84 C7,147.633467000193,-37.8250499998765
Murray Plains State EO,Murray Plains State Election Office,Election Office,Murray Plains District,,,,22,Sturt,Street,Echuca,3564,31 E4,144.755463000135,-36.1392659998428
Bundoora State EO,Bundoora State Election Office,Election Office,Bundoora District,,,,98-100,Main,Street,Greensborough,3088,20 K2,145.105378000142,-37.7030219998741
Bentleigh State EO,Bentleigh State Election Office,Election Office,Bentleigh District,,,,417,South,Road,Bentleigh,3204,77 D4,145.035762000141,-37.9329289998787
Kororoit State EO,Kororoit State Election Office,Election Office,Kororoit District,,,,5/93,Elgar,Road,Derrimut,3030,39 E1,144.772929000135,-37.7884999998758
Werribee State EO,Werribee State Election Office,Election Office,Werribee District,,,,Shop 3-8,28 Watton,Street,Werribee,3030,205 J8,144.660604000133,-37.901484999878
Northcote State EO,Northcote State Election Office,Election Office,Northcote District,,,,885,High,Street,Thornbury,3071,30 F4,145.00122700014,-37.7537519998751
Lowan State EO,Lowan State Election Office,Election Office,Lowan District,,,,45,Wilson,Street,Horsham,3400,40 E5,142.200260000084,-36.7168609998543
Narracan State EO,Narracan State Election Office,Election Office,Narracan District,,,Unit 4,142,Queen,Street,Warragul,3820,96 G4,145.935833000159,-38.1653479998833
Wendouree State EO,Wendouree State Election Office,Election Office,Wendouree District,,,,607,La Trobe,Street,Redan,3350,76F3,143.833760000117,-37.5726859998715
Bellarine State EO,Bellarine State Election Office,Election Office,Bellarine District,,,,252-260,Portarlington,Road,Moolap,3224,453 D8,144.411150000128,-38.1638049998833
Geelong State EO,Geelong State Election Office,Election Office,Geelong District,,,,"Shop 1a,",110-122 High,Street,Belmont,3216,451 J10,144.345441000127,-38.1722589998834
Preston State EO,Preston State Election Office.,Election Office,Preston District,,,,508,High,Street,Preston,3072,18 G10,145.00517887553,-37.7344636165966
Polwarth State EO,Polwarth State Election Office,Election Office,Polwarth District,,,,6,Murray,Street,Colac,3250,92 B7,143.591622000112,-38.3397839998868
Altona State EO,Altona State Election Office,Election Office,Altona District,,,,108,Pier,Street,Altona,3018,54 H10,144.830963000137,-37.8662949998773
Eildon State EO,Eildon State Election Office,Election Office,Eildon District,,,,1995,Warburton,Highway,Launching Place,3139,287 D7,145.568241000151,-37.7797259998756
Eltham State EO,Eltham State Election Office,Election Office,Eltham District,,,,Level 1/,1 Peel,Street,Eltham,3095,21 G6,145.138676000143,-37.7199689998744
Euroa State EO,Euroa State Election Office,Election Office,Euroa District,,,,16-18,Station,Street,Seymour,3660,61 D2,145.138687000143,-37.0237079998605
Mornington State EO,Mornington State Election Office.,Election Office,Mornington District,,,,28,Milgate,Drive,Mornington,3931,145 K3,145.060795000141,-38.2354649998847
Narre Warren North State EO,Narre Warren North State Election Office,Election Office,Narre Warren North District,,,6,74-80,Melverton,Drive,Hallam,3803,96 H2,145.275307000145,-38.0128079998803
Niddrie State EO,Niddrie State Election Office,Election Office,Niddrie District,,,,12,Howes,Street,Airport West,3042,16 A5,144.889941000138,-37.7146149998743
Rowville State EO,Rowville State Election Office,Election Office,Rowville District,,,,14/5,Kelletts,Road,Rowville,3178,72 K10,145.238298000145,-37.9106359998782
South West Coast State EO,South West Coast State Election Office,Election Office,South-West Coast District,,,,48,Kepler,Street,Warrnambool,3280,89J8,142.48103400009,-38.3835389998877
Ovens Valley State EO,Ovens Valley State Election Office,Election Office,Ovens Valley District,,,,2a/14-24,Parfitt,Road,Wangaratta,3677,34 G7,146.333038000167,-36.352507999847
Shepparton State EO,Shepparton State Election Office,Election Office,Shepparton District,,,,57,Benalla,Road,Shepparton,3630,32 H8,145.419085000148,-36.3842679998477
Bayswater State EO,Bayswater State Election Office,Election Office,Bayswater District,,,Unit 3,24,Longstaff,Road,Bayswater,3153,62 K2,145.283711000146,-37.8344129998767
Croydon State EO,Croydon State Election Office,Election Office,Croydon District,,,Unit 1,37-51,Lusher,Road,Croydon,3136,50 J5,145.278848000146,-37.8034179998761
Dandenong State EO,Dandenong State Election Office,Election Office,Dandenong District,,,,279,Lonsdale,Street,Dandenong,3175,91A E6,145.213846000144,-37.9871799998797
Gippsland South State EO,Gippsland South State Election Office,Election Office,Gippsland South District,,,,40,McCartin,Street,Leongatha,3953,96 H9,145.944725976064,-38.4770310336424
Melton State EO,Melton State Election Office,Election Office,Melton District,,,,1/16,Harrison,Court,Melton,3337,337 E11,144.598747000132,-37.6940479998739
Mordialloc State EO,Mordialloc State Election Office,Election Office,Mordialloc District,,,,14-16,Bond,Street,Mordialloc,3195,87 K9,145.104883000142,-37.9926489998799
Morwell State EO,Morwell State Election Office.,Election Office,Morwell District,,,,64,Church,Street,Traralgon,3844,98 A5,146.535939000171,-38.1935099998839
South Barwon State EO,South Barwon State Election Office,Election Office,South Barwon District,,,Lot 1,8,Winki,Way,Torquay,3228,493 C12,144.318694000126,-38.3096639998862
Bass State EO,Bass State Election Office,Election Office,Bass District,,,,1/20,Inverloch,Road,Wonthaggi,3995,102 C3,145.603606000152,-38.6065029998921
Burwood State EO,Burwood State Election Office,Election Office,Burwood District,,,6,154,Highbury,Road,Burwood,3125,61 A7,145.112528000142,-37.8556909998771
Ferntree Gully State EO,Ferntree Gully State Election Office,Election Office,Ferntree Gully District,,,,500,Burwood Highway (corner Tyner,Road),Wantirna South,3152,64 A12,145.243599116812,-37.8722913915441
Tarneit State EO,Tarneit State Election Office,Election Office,Tarneit District,,,7,3-4,Desire,Place,Hoppers Crossing,3029,207 C1,144.720689000134,-37.8760519998775
Thomastown State EO,Thomastown State Election Office,Election Office,Thomastown District,,,,Suite 2,62 Keon,Parade,Thomastown,3074,8 K12,145.02005300014,-37.6956009998739
Carrum State EO,Carrum State Election Office,Election Office,Carrum District,,,5,684-700,Frankston-Dandenong,Road,Carrum Downs,3201,98 G1,145.18160076681,-38.0873527082151
Warrandyte State EO,Warrandyte State Election Office.,Election Office,Warrandyte District,,,2,860,Doncaster,Road,East Doncaster,3109,47 J1,145.144164000143,-37.7872839998757
Ivanhoe State EO,Ivanhoe State Election Office,Election Office,Ivanhoe District,,,,179,Burgundy,Street,Heidelberg,3084,31 K4,145.063978000141,-37.7561189998751
Balwyn,Balwyn Baptist Church,Voting Centre,Box Hill District,,,,517,Whitehorse,Road,Surrey Hills,3127,46 F8,145.090446589341,-37.8137240925006
Apollo Bay,Apollo Bay Senior Citizens Centre,Voting Centre,Polwarth District,,,,4,Whelan,Street,Apollo Bay,3233,101 C6,143.666222000113,-38.7547579998951
Eaglemont,Bellfield Community Centre,Voting Centre,Ivanhoe District,,,,,corner of Oriel Road and Banksia Street,,Bellfield,3081,31 E4,145.038192750141,-37.7562515832085
Spring Gully,Spring Gully Tennis Club,Voting Centre,Bendigo East District,,,,,Spring Gully,Road,Spring Gully,3550,44 F6,144.285262920669,-36.7916469778332
Darling,Caulfield Grammar School - Malvern,Voting Centre,Malvern District,,,,,Harold,Avenue,Glen Iris,3146,59H10,145.052412871086,-37.8636661387907
Kooyong,H.A. Smith Reserve,Voting Centre,Malvern District,Hawthorn District,,,458,Glenferrie,Road,Hawthorn,3122,59C2,145.033345066807,-37.8362234832101
Lyndhurst West,Lyndhurst Primary School,Voting Centre,Cranbourne District,,,,70,Brookwater,Parade,Lyndhurst,3975,129 C7,145.25418216325,-38.0742031826453
Bass,Bass Valley Community Centre,Voting Centre,Bass District,,,,2-4,Bass School,Road,Bass,3991,95 J9,145.465275033483,-38.484515408223
Red Cliffs,St Joseph's School Red Cliffs,Voting Centre,Mildura District,,,,17,Fitzroy,Avenue,Red Cliffs,3496,3 D6,142.188124000084,-34.302360999806
Yarrunga,Our Lady's Primary School,Voting Centre,Ovens Valley District,,,,52-60,White,Street,Wangaratta,3677,664 G12,146.320294347504,-36.3725928688866
Newborough,Newborough Public Hall,Voting Centre,Morwell District,,,,18,Balfour,Street,Newborough,3825,700 K7,146.291788316832,-38.1868372582171
Pakenham Lakeside,Pakenham Lakeside Primary School,Voting Centre,Bass District,,,,23,Shearwater,Drive,Pakenham,3810,215 E6,145.439255465124,-38.0680389219905
Toorak,Toorak Uniting Church Hall,Voting Centre,Malvern District,,,,603,Toorak,Road,Toorak,3142,2M K7,145.01951400014,-37.8419139998768
Edenhope,Senior Citizens Building,Voting Centre,Lowan District,,,,54-56,Langford,Street,Edenhope,3318,NULL,141.299217000066,-37.0368469998607
Sandringham,Sacred Heart Parish School,Voting Centre,Sandringham District,,,,11,Fernhill Road (enter via Sandringham,Road),Sandringham,3191,76 H9,145.008626605747,-37.9514834532545
Blackburn South,St Luke's Roman Catholic School,Voting Centre,Forest Hill District,,,,46,Orchard,Grove,Blackburn South,3130,61 J2,145.146214650143,-37.83548255821
Rosebud,Rosebud Memorial Hall,Voting Centre,Nepean District,,,,994,Point Nepean,Road,Rosebud,3939,158 D12,144.900159900138,-38.3563394248871
Findon,Findon Primary School,Voting Centre,Mill Park District,Bundoora District,,,5,Cuthbert,Drive,Mill Park,3082,9 G4,145.050760863185,-37.666492489982
Preston South,Preston South Primary School,Voting Centre,Northcote District,Preston District,,,56b,Hotham,Street,Preston,3072,30 H2,145.00776370014,-37.7479699165416
Eltham Woods,Eltham Woods Pre-School,Voting Centre,Eltham District,,,,50a,Frank,Street,Eltham,3095,22 D3,145.167305000143,-37.7079009998742
Balmoral,Balmoral Memorial Hall,Voting Centre,Lowan District,,,,26,Glendinning,Street,Balmoral,3407,508J9,141.842177,-37.248662
Middlefield,Old Orchard Primary School,Voting Centre,Box Hill District,,,,,corner Adina and Lantana,Streets,Blackburn North,3130,47 K6,145.150411367144,-37.8069028491568
Golf Links,Rosanna Fire Station Community House,Voting Centre,Ivanhoe District,,,,232,Lower Plenty,Road,Rosanna,3084,20B11,145.072474000141,-37.7388519998748
Traralgon North,Traralgon Secondary College - West Campus,Voting Centre,Morwell District,,,,,Grey,Street,Traralgon,3844,98 A5,146.51949000017,-38.1914199998838
Hughesdale,Hughesdale Community Centre,Voting Centre,Oakleigh District,,,,corner,Poath and Kangaroo,Roads,Hughesdale,3166,69 C7,145.076588791808,-37.8979915082113
Brighton East,Melbourne Montessori School,Voting Centre,Brighton District,,,,741,Hawthorn,Road,Brighton East,3187,67 K11,145.01761700014,-37.9119009998782
Ferny Creek,Ferny Creek Primary School,Voting Centre,Monbulk District,,,,,School,Road,Ferny Creek,3786,75 A3,145.334720000147,-37.8842099998777
Dargo,Dargo Public Hall,Voting Centre,Gippsland East District,,,,177,Lind,Avenue,Dargo,3862,65 E9,147.250882000185,-37.4554909998691
Woodlands Primary,Woodlands Primary School,Voting Centre,Hastings District,,,,10,Gum Nut,Drive,Langwarrin,3910,132 B 12,145.205020000144,-38.1356799998827
Wantirna South,Wantirna South Primary School,Voting Centre,Ferntree Gully District,,,,,Tyner,Road,Wantirna South,3152,63 J12,145.236990433478,-37.8723898415441
Frankston Beach,St Pauls Anglican Church Hall,Voting Centre,Frankston District,,,,corner,Bay and High,Streets,Frankston,3199,100A A9,145.118845371672,-38.1474357566107
Bentleigh East,Bentleigh Secondary College,Voting Centre,Bentleigh District,,,,,Vivien,Street,Bentleigh East,3165,77 J3,145.059910000141,-37.9276699998786
Coburg North,Coburg Special Development School,Voting Centre,Pascoe Vale District,,,,187-195,Gaffney,Street,Coburg North,3058,17 E10,144.952057145192,-37.7330776931026
Nambrok,Nambrok-Denison Primary School,Voting Centre,Gippsland South District,,,,947,Sale-Cowwarr,Road,Nambrok,3847,98F2,146.874695914136,-38.0544054846271
Fawkner Park,Christchurch Grammar School,Voting Centre,Prahran District,,,,677,Punt,Road,South Yarra,3141,2L E5,144.98615200014,-37.8391079998768
Bayles,Bayles Hall,Voting Centre,Bass District,,,,660,Koo Wee Rup-Longwarry,Road,Bayles,3981,96 B4,145.569960000151,-38.1781459998836
Ludstone,Ludstone Scout Hall,Voting Centre,Brighton District,,,,corner,Ludstone and Kingston,Streets,Hampton,3188,76 J5,145.012856038358,-37.9339345733792
Lyndhurst,Lyndhurst Secondary College,Voting Centre,Cranbourne District,,,,950,South Gippsland,Highway,Cranbourne North,3977,129 G7,145.26938921584,-38.0750178919287
Avondale Heights Central,St Martin De Porres Catholic Church Hall,Voting Centre,Niddrie District,,,,158,Military,Road,Avondale Heights,3034,27 E5,144.860965226329,-37.7584060984156
Wendouree West,Yuille Park Community College,Voting Centre,Wendouree District,,,,,Violet,Grove,Wendouree,3355,561 R12,143.820273970433,-37.5275955602111
Doreen,Ivanhoe Grammar School - Plenty Campus,Voting Centre,Yan Yean District,,,,730,Bridge Inn,Road,Doreen,3754,391 B11,145.114737197486,-37.6041423129318
Canadian,Canadian Lead Primary School,Voting Centre,Buninyong District,,,,301,Otway,Street South,Canadian,3350,566 G11,143.87591,-37.57297
Orrvale,Orrvale Primary School,Voting Centre,Shepparton District,,,,300,Channel,Road,Orrvale,3631,32 J8,145.440001000149,-36.4103479998482
Craigieburn West,Willmott Park Primary School,Voting Centre,Yuroke District,,,,54-56,Dorchester,Street,Craigieburn,3064,386 H7,144.921420000138,-37.5914599998718
Ascot Vale East,Ascot Vale Uniting Church,Voting Centre,Essendon District,,,,60,Maribyrnong,Road,Moonee Ponds,3039,28 H9,144.922189000138,-37.7721649998754
Hume Central,Hume Central Secondary College - Dimboola Campus,Voting Centre,Broadmeadows District,,30-54 Dimboola Road,,,(access via Johnstone Street carpark),,Broadmeadows,3047,6 F8,144.911088921197,-37.679882311138
Collingwood,Collingwood Secondary College,Voting Centre,Richmond District,,,,Corner,Cromwell Street and McCutcheon,Way,Collingwood,3066,2C G9,144.990440969843,-37.8030404597121
Croydon East,Ruskin Park Primary School,Voting Centre,Croydon District,,,,18-20,Ruskin,Avenue,Croydon,3136,51C4,145.297530280564,-37.7990253149623
Tanjil South,Tanjil South Centenary Hall,Voting Centre,Narracan District,,,,383,Moe-Willow Grove,Road,Tanjil South,3825,97000,146.247480885443,-38.1095871560409
Manooka,Burwood East Special Developmental School,Voting Centre,Forest Hill District,,,,18,Manooka,Street,Burwood East,3151,61 H8,145.142120000143,-37.8571999998771
Templestowe Heights,Templestowe Heights Primary School,Voting Centre,Bulleen District,,,,276-300,High,Street,Templestowe Lower,3107,33 C7,145.120439665283,-37.7665229234863
Deans Marsh,Deans Marsh Public Hall,Voting Centre,Polwarth District,,,,,Pennyroyal Valley,Road,Deans Marsh,3235,92 G8,143.884839675118,-38.3990433915546
Berriwillock,Berriwillock Community Centre,Voting Centre,Mildura District,,,,69,Taverner,Street,Berriwillock,3531,18 H4,142.994677,-35.636033
Metung,Metung Primary School,Voting Centre,Gippsland East District,,,,90,Stirling,Road,Metung,3904,84F8,147.852378308054,-37.8831800184455
Doncaster East,East Doncaster Secondary College,Voting Centre,Warrandyte District,,,,20,George,Street,Doncaster East,3109,34 B11,145.15790762834,-37.7822586500734
Geelong East,Geelong East Primary School,Voting Centre,Geelong District,,,,184,Boundary,Road,Geelong East,3219,452 G11,144.382723025128,-38.1754011415502
Croydon Central,Croydon Primary School,Voting Centre,Croydon District,,,,corner,Kent Avenue and Croydon,Road,Croydon,3136,50J2,145.281154125146,-37.7933040832092
Walwa,Walwa Servicemen's Memorial Hall,Voting Centre,Benambra District,,,,56,Main,Street,Walwa,3709,37 D1,147.737237658528,-35.9639818498393
Wodonga South,Wodonga Middle Years College - Huon Campus,Voting Centre,Benambra District,,,,22-24,Mitchell,Street,Wodonga,3690,35 G4,146.890693266634,-36.1314262685092
St Andrews,St Andrews Primary School,Voting Centre,Eildon District,,,,25,Caledonia,Street,St Andrews,3761,394 G10,145.269830000145,-37.602319999872
Fairhills,Fairhills Primary School,Voting Centre,Ferntree Gully District,Bayswater District,,,,Manuka,Drive,Ferntree Gully,3156,64-F11,145.265185925145,-37.8697080415441
Echuca East,Echuca East Primary School,Voting Centre,Murray Plains District,,,,21-31,Eyre,Street,Echuca East,3564,596 K8,144.761110000135,-36.1340499998427
Seaford North,Seaford North Primary School,Voting Centre,Carrum District,,,,,Hallifax,Street,Seaford,3198,97 F11,145.134390728502,-38.0896312719849
Burwood West,Melbourne Chinese Christian Church Hall,Voting Centre,Hawthorn District,,,,29,Summerhill,Road,Glen Iris,3146,60 C6,145.076882000142,-37.851391999877
Melton West,Melton Secondary College,Voting Centre,Melton District,,,,207,Coburns,Road,Melton West,3337,336 H8,144.567111878007,-37.6821692053292
Ocean Grove,The Wave Ocean Grove Baptist Church,Voting Centre,Bellarine District,,,,corner,Wallington Rd and Lake Avenue,,Ocean Grove,3326,483 E10,144.507585958463,-38.2582152498852
Clyde,Clyde Public Hall,Voting Centre,Bass District,Cranbourne District,,,30,Railway,Road,Clyde,3978,134 K11,145.329562000147,-38.1317659998826
Beulah,Beulah Memorial Hall,Voting Centre,Mildura District,,,,70,Phillips,Street,Beulah,3395,548 H3,142.420776,-35.93896
Myrrhee,Myrrhee Primary School,Voting Centre,Ovens Valley District,,,,1673,Benalla-Whitfield,Road,Myrrhee,3732,48 G5,146.318312000166,-36.7382709998548
Tarrington,Lutheran School Hall,Voting Centre,Lowan District,,,,7901,Hamilton,Highway,Tarrington,3301,73 C6,142.094787075082,-37.767093191542
Starling,St Scholastica's Community Centre,Voting Centre,Burwood District,,,,4-8,Starling,Street,Bennettswood,3125,61 D6,145.126168600143,-37.8518849332104
Keon Park,Keon Park Children's Hub,Voting Centre,Preston District,,,,1-7,Dole,Avenue,Reservoir,3073,19 A1,145.02133200014,-37.700876999874
Caulfield West,Shelford Girls' Grammar,Voting Centre,Caulfield District,,,,3,Hood,Crescent,Caulfield,3161,67 J1,145.011489991807,-37.8776123582109
Vermont North,1st Vermont Scout Group,Voting Centre,Forest Hill District,,,,483-485,Canterbury,Road,Vermont,3133,62 K2,145.196076000144,-37.8356889998767
Drouin South,Drouin South Primary School,Voting Centre,Narracan District,,,,3061,Westernport,Road,Drouin South,3818,96 F4,145.826820000157,-38.1705699998834
Mount Waverley North,Mount Waverley Secondary College - Senior Campus,Voting Centre,Mount Waverley District,,,,,Lechte Road (access via Beaufort,Street),Mount Waverley,3149,61 F11,145.132410000143,-37.8681589998774
Heatherton North,St Andrew's Catholic Parish School,Voting Centre,Clarinda District,,,,96,Bunney,Road,Clayton South,3169,78 K5,145.106498634591,-37.9347355296806
Ringwood North,Ringwood North Primary School,Voting Centre,Ringwood District,Warrandyte District,,,172,Oban,Road,Ringwood,3134,49 H2,145.230669687351,-37.7923178273283
Brim,Brim Memorial Hall,Voting Centre,Lowan District,,,,28a,Swann,Street,Brim,3391,548C3,142.416434000088,-36.0760079998415
Sale North,Sale College Gymnasium Guthridge Campus,Voting Centre,Gippsland South District,,,,279-295,Guthridge,Parade,Sale,3850,693 R4,147.082235000182,-38.0968779998819
Manangatang,Manangatang Community Centre,Voting Centre,Mildura District,,,,1,Wattle,Street,Manangatang,3546,587 S12,142.882002377276,-35.0569815318485
Highvale,Highvale Primary School,Voting Centre,Forest Hill District,,,,33,Ashton,Street,Glen Waverley,3150,62 E10,145.17387724919,-37.8671786789436
Ringwood North,Ringwood North Primary School,Voting Centre,Ringwood District,Croydon District,,,172,Oban,Road,Ringwood,3134,49 H2,145.230669687351,-37.7923178273283
California Gully,California Gully Primary School,Voting Centre,Bendigo West District,,,,4-14,Staley,Street,California Gully,3556,44E5,144.249871000125,-36.7334649998547
Moorabbin South,Tucker Road Primary School,Voting Centre,Bentleigh District,,,,16,Tucker,Road,Bentleigh,3204,77 G4,145.049010400141,-37.9325395415453
Tongala,Tongala Shire Hall,Voting Centre,Murray Plains District,,,,92-96,Mangan,Street,Tongala,3621,31 H6,144.950055133472,-36.2501908081783
Berwick Lodge,Berwick Lodge Primary School,Voting Centre,Gembrook District,Narre Warren North District,,,145,Mansfield,Street,Berwick,3806,110 K7,145.327110000147,-38.0314699998806
Eltham,Eltham Primary School,Voting Centre,Eltham District,,,,70,Dalton,Street,Eltham,3095,21 J8,145.148163000143,-37.7253659998745
Delbridge,Clifton Hill Presbyterian Church  Hall,Voting Centre,Richmond District,,,,16,Michael Street (corner of McKean,Street),Fitzroy North,3068,2C G1,144.99054300014,-37.7875089998757
Streatham,Streatham Public Hall,Voting Centre,Lowan District,,,,30,Campbell,Street,Streatham,3351,75 B4,143.062334000101,-37.6791719998736
Mirboo North,Mirboo North Town Hall,Voting Centre,Gippsland South District,,,,30,Ridgway,Street,Mirboo North,3871,97D8,146.154921000163,-38.400801999888
Kilberry Valley,Kilberry Valley Primary School,Voting Centre,Narre Warren South District,,,,,Kilberry,Boulevard,Hampton Park,3976,96 J8,145.279260000146,-38.0335999998807
Merino,Merino Consolidated School,Voting Centre,Lowan District,,,,49,Paschendale,Road,Merino,3310,72 A5,141.548310000071,-37.7063699998741
Port Campbell,Port Campbell Recreation Reserve,Voting Centre,Polwarth District,,,,,Desaily,Street,Port Campbell,3269,516 D3,143.003103866767,-38.616583141559
Greenhills,Greenhills Primary School,Voting Centre,Eltham District,,,,29,Mine,Street,Greensborough,3088,11 C11,145.118148000142,-37.6918589998738
Grassmere,Grassmere Primary School,Voting Centre,South-West Coast District,,,,16,Ibbs,Lane,Grassmere,3218,90 A6,142.523264583424,-38.2856316165524
Viewbank,Viewbank Primary School,Voting Centre,Ivanhoe District,,,,2-10,Nevin,Parade,Viewbank,3084,20 F10,145.090435,-37.733951
Barmah,Barmah Community Hall,Voting Centre,Shepparton District,,,,,Schier,Street,Barmah,3639,VR 31 H2,144.962215000139,-36.0157209998403
Stevensville,Movelle Primary School,Voting Centre,Kororoit District,,,,,Gum,Road,Kings Park,3021,13 E11,144.774862822422,-37.737267761013
Hamilton,Monivae College,Voting Centre,Lowan District,,,,,Ballarat,Road,Hamilton,3300,73B5,142.049641466748,-37.7423813998749
Seaspray,Seaspray Public Hall,Voting Centre,Gippsland South District,,,,,Futcher,Street,Seaspray,3851,99E8,147.190027430313,-38.3752611852007
Darebin Parklands,Thornbury High School,Voting Centre,Northcote District,,,,238,Collins,Street,Thornbury,3071,31 B4,145.025441882757,-37.7565656978332
Bullioh,Bullioh Hall,Voting Centre,Benambra District,,,,7961,Murray Valley,Highway,Bullioh,3700,36 G5,147.331574219578,-36.1949934122732
Watsonia South,Watsonia Community Centre,Voting Centre,Bundoora District,,,,35,Lambourn,Road,Watsonia,3087,20 D4,145.078786501578,-37.7122578584806
Black Hill,Black Hill Primary School,Voting Centre,Wendouree District,,,,601,Chisholm,Street,Black Hill,3350,566 F6,143.869780000117,-37.549839999871
Port Melbourne,Port Melbourne Primary School,Voting Centre,Albert Park District,,,,415,Graham Street (enter via Clark,Street),Port Melbourne,3207,2J B3,144.933876375139,-37.8353668748767
Carlton North,St Michael's  Anglican Church Hall,Voting Centre,Melbourne District,,,,14,McIlwraith,Street,Carlton North,3054,29 J12,144.968338984483,-37.7849977937654
Bethal,Bethal Primary School,Voting Centre,Broadmeadows District,,,,26-52,Eldorado Crescent (access via Rockbank,Court),Meadow Heights,3048,6 G2,144.918274836127,-37.6590804604111
Mount Dandenong,Mount Dandenong Primary School,Voting Centre,Monbulk District,,,,13a,Farndons,Road,Mount Dandenong,3767,66 H1,145.362170000147,-37.8307399998766
Hartwell,Hartwell Primary School,Voting Centre,Burwood District,,,,,Milverton,Street,Camberwell,3124,60 E5,145.083929000142,-37.8475799998769
Camperdown,Camperdown P-12 College,Voting Centre,Polwarth District,,,,1,Wilson,Street,Camperdown,3260,517 O5,143.14526854177,-38.2398435915515
Learmonth,Learmonth Football and Netball Club,Voting Centre,Ripon District,,,,,Laidlaw,Street,Learmonth,3352,58 D8,143.712671000114,-37.4213929998684
Boroondara,Boroondara Park Primary School,Voting Centre,Kew District,,,,,Almond,Street,Balwyn North,3104,46 F1,145.088062007903,-37.7890308144024
Aldercourt,Aldercourt Primary School,Voting Centre,Frankston District,,,,,Silver Avenue (enter via Wallowa,Crescent),Frankston North,3200,100 B7,145.16129649989,-38.1175010106831
Skipton,Skipton Mechanics' Institute,Voting Centre,Polwarth District,,,,5,Anderson,Street,Skipton,3361,75 G4,143.364514000107,-37.6869699998737
Allansford,Allansford Primary School,Voting Centre,South-West Coast District,,,,,Frank,Street,Allansford,3277,512 E7,142.590390000092,-38.3862799998877
Jeparit,Jeparit Pre-School Centre,Voting Centre,Lowan District,,,,9,Hindmarsh,Street,Jeparit,3423,545 T3,141.987919516746,-36.1435257498429
Yea,Yea Shire Hall,Voting Centre,Eildon District,,,,,High,Street,Yea,3717,681 S9,145.425880496148,-37.2114731998642
Heyfield,Heyfield Memorial Hall,Voting Centre,Gippsland East District,,,,38,MacFarlane,Street,Heyfield,3858,VR 695 P11,146.784222,-37.984854
Doveton North,Doveton College,Voting Centre,Dandenong District,,,,62,Tristania Street (access via Laurel,Avenue),Doveton,3177,91 A8,145.243282987607,-37.9902887456417
Endeavour Hills,James Cook Primary School,Voting Centre,Dandenong District,,,,29-59,James Cook,Drive,Endeavour Hills,3802,91 A5,145.245850000145,-37.9790599998796
Pimpinio,Pimpinio Uniting Church Hall,Voting Centre,Lowan District,,,,47,Church,Street,Pimpinio,3401,40 C3,142.117076160456,-36.5839849998517
Carnegie East,St Peter's Parish Hall,Voting Centre,Oakleigh District,,,,371,Neerim,Road,Carnegie,3163,68 K5,145.062661000141,-37.8901439998778
Wheelers Hill South,St Justin's Primary School,Voting Centre,Mulgrave District,,,,42,Whalley,Drive,Wheelers Hill,3150,71 J12,145.191134739787,-37.9177332317634
Port Melbourne East,Sol Green Community Centre,Voting Centre,Albert Park District,,,,corner,Montague and Coventry,Streets,South Melbourne,3205,2J K2,144.952337000139,-37.8339129998767
Terang,Terang Civic Hall,Voting Centre,Polwarth District,,,,131,High,Street,Terang,3264,517 R10,142.915334900098,-38.2413866665515
Rawson,Rawson Primary School,Voting Centre,Narracan District,,,,,Knotts Siding,Road,Rawson,3825,81 H9,146.398308696392,-37.9582142536608
Campbellfield,Campbellfield Heights Primary School,Voting Centre,Broadmeadows District,,,,,Laurel,Crescent,Campbellfield,3061,7 H6,144.965558481031,-37.6744689757805
Northcote,Santa Maria College,Voting Centre,Northcote District,,,,50,Separation,Street,Northcote,3070,30 G8,145.00270000014,-37.7699129998754
Fawkner,Fawkner Primary School,Voting Centre,Broadmeadows District,,,,40,Lorne,Street,Fawkner,3060,17 K5,144.973890000139,-37.7153979998743
Lismore,Lismore Primary School,Voting Centre,Polwarth District,,,,77,William,Street,Lismore,3324,75 G9,143.339300000107,-37.9545999998791
Napoleons,Napoleons Primary School,Voting Centre,Buninyong District,,,,4721,Colac-Ballarat,Road,Napoleons,3352,76 F4,143.82646,-37.67863
Bolinda,Bolinda Primary School,Voting Centre,Macedon District,,,,1,Mullaleys,Road,Bolinda,3432,60 D8,144.7454,-37.43373
Gardiner,Melbourne Praise Centre,Voting Centre,Malvern District,,,,1536,Malvern,Road,Glen Iris,3146,59 G7,145.050657000141,-37.8545679998771
Fairfield,Fairfield Primary School,Voting Centre,Northcote District,,,,,Langridge,Street,Fairfield,3078,31 A10,145.02040000014,-37.7779899998756
Lillico,Nilma North and Lillico Memorial Hall,Voting Centre,Narracan District,,,,488,Bloomfield,Road,Nilma North,3821,96 H4,145.98594900016,-38.1322469998826
Korong Vale,Korong Vale Community Centre,Voting Centre,Ripon District,,,,,Allen,Street,Korong Vale,3520,29 D7,143.706376,-36.355827
Panton Hill,Panton Hill Primary School,Voting Centre,Eildon District,,,,585,Kangaroo Ground-St Andrews,Road,Panton Hill,3759,263 K9,145.239560000145,-37.6416099998728
Waverley Park,Carwatha College,Voting Centre,Mulgrave District,,,,43-81,Browns,Road,Noble Park North,3174,80 J7,145.189016668773,-37.9433276842115
Kyneton East,Sacred Heart College - Kyneton,Voting Centre,Macedon District,,,,94,High Street (access via Ross and Begg,Streets),Kyneton,3444,632 E6,144.458044296296,-37.2536905560982
Glen Nichol,Holy Trinity Church Hall,Voting Centre,Brunswick District,,,,Corner,Nicholson Street and Glenlyon,Road,Brunswick East,3057,30 A9,144.97969500014,-37.7732329998755
Narrawong,Narrawong Mechanics Institute,Voting Centre,South-West Coast District,,,,61,Windham,Street,Narrawong,3285,88 D6,141.709949000074,-38.2533439998851
Collendina,Bellarine Church of Christ,Voting Centre,Bellarine District,,,,17,Tareeda,Way,Ocean Grove,3226,484 E9,144.549807333464,-38.2577379998852
Hastings,Hastings Public Hall,Voting Centre,Hastings District,,,,3,High,Street,Hastings,3915,154  K11,145.194342000144,-38.3079459998862
Frankston Forest,Mahogany Rise Primary School,Voting Centre,Frankston District,,,,,Forster,Avenue,Frankston North,3200,100 A9,145.157400000143,-38.1256199998825
Bolwarra,Bolwarra Primary School,Voting Centre,South-West Coast District,,,,249,Princes,Highway,Bolwarra,3305,88 B6,141.613823000072,-38.2816439998856
Swan Hill South,Longhurst Hall - FLO Campus,Voting Centre,Murray Plains District,,,,,Murray Valley,Highway,Swan Hill,3585,14 A7,143.563614777725,-35.3564091035628
Maryknoll,Father Pooley Memorial Hall,Voting Centre,Narracan District,,,,70,Girrahween,Road,Maryknoll,3812,304 B8,145.602045597311,-38.0327795574943
Ruffy,Ruffy Public Hall,Voting Centre,Euroa District,,,,3,Nolans,Road,Ruffy,3666,46 J9,145.502133320956,-36.9745926622
Gormandale,Gormandale Mechanics Institute,Voting Centre,Gippsland South District,,,,corner,Main Street and Hyland,Highway,Gormandale,3873,98 D6,146.701726000174,-38.2945069998859
Warrnambool - Tower Square,Our Lady Help of Christians Primary School,Voting Centre,South-West Coast District,,,,28,Selby,Road,Warrnambool East,3280,90 A8,142.519443116757,-38.385343358221
Buckley Park,Buckley Park College,Voting Centre,Niddrie District,Essendon District,,,,Cooper,Street,Essendon,3040,28 C2,144.897302996918,-37.747866889821
Lakes Entrance,Lakes Entrance Mechanics Institute,Voting Centre,Gippsland East District,,,,18,Mechanics,Street,Lakes Entrance,3909,686 F5,147.9857470002,-37.8803449998776
Toolleen,Toolleen Uniting Church Hall,Voting Centre,Euroa District,,,,,Toolleen-Cornella,Road,Toolleen,3551,45 C5,144.685156000134,-36.7195079998544
Boronia East,Boronia  Church of Christ,Voting Centre,Bayswater District,,,,corner,Allandale and Boronia,Roads,Boronia,3155,65 A9,145.289198000146,-37.8624729998772
Gisborne South,Gisborne Secondary College,Voting Centre,Macedon District,,,,95,Melton,Road,Gisborne,3437,678 B6,144.584770000132,-37.49810999987
Moreland,Moreland Primary School,Voting Centre,Brunswick District,,,,157-163,"Moreland Road, corner",Blair and,"De Carle Streets, Moreland",3058,29 H4,144.966349652518,-37.7554605967113
Guthrie Street,Guthrie Street Primary School,Voting Centre,Shepparton District,,,,,Guthrie,Street,Shepparton,3630,675 N1,145.390970000148,-36.398499999848
Rosanna,Rosanna Primary School,Voting Centre,Ivanhoe District,,,,,Grandview,Grove,Rosanna,3084,19 K10,145.063415000141,-37.7352029998747
Jobs Gully,Eaglehawk Secondary College,Voting Centre,Bendigo East District,,,,1,Reserve,Street,Eaglehawk,3556,603 P9,144.262690000125,-36.7202599998544
Daylesford,Daylesford Primary School,Voting Centre,Macedon District,,,,102-128,Vincent,Street,Daylesford,3460,582 E10,144.14156,-37.3451
Melbourne,St Michael's Uniting Church,Voting Centre,Melbourne District,,,,120,Collins,Street,Melbourne,3000,2FG3,144.969222186562,-37.8143400759587
Civic Square,Keystone Hall,Voting Centre,Croydon District,,,,9,Civic,Square,Croydon,3136,50K4,145.283273700146,-37.8008594082093
Carrum Downs,Carrum Downs Secondary College,Voting Centre,Carrum District,,,,263,McCormicks,Road,Carrum Downs,3201,100 K1,145.197436659268,-38.0949681794589
Swan Hill West,Swan Hill Primary School,Voting Centre,Murray Plains District,,,,123,Gray,Street,Swan Hill,3585,14 A7,143.543250000111,-35.3469099998269
Bayswater North,Bayswater North Primary School,Voting Centre,Bayswater District,,,,,Stuart,Street,Bayswater,3153,51 C12,145.295081000146,-37.8285669998766
Upfield,Dallas Brooks Community Primary School,Voting Centre,Broadmeadows District,,,,26-36,King,Street,Dallas,3047,7 C4,144.943282124733,-37.6697772693468
Roxburgh Homestead,Roxburgh Homestead Primary School,Voting Centre,Broadmeadows District,Yuroke District,McPherson Boulevard,,,(access via Raven Hill Boulevard),,Roxburgh Park,3064,179 G6,144.916368258472,-37.632184258206
Streeton,Streeton Primary  School,Voting Centre,Bundoora District,Ivanhoe District,,,209,Yallambie,Road,Yallambie,3085,20 J7,145.101357640846,-37.7215001764427
Bell,Bell Primary School,Voting Centre,Northcote District,Preston District,,,78a,Oakover Road (access via Scotia,Road),Preston,3072,30 D2,144.99035485216,-37.7469484801553
Barwon Heads,Barwon Heads Primary School,Voting Centre,Bellarine District,,,,,Golf Links,Road,Barwon Heads,3227,497 A4,144.485599549418,-38.2812458002365
Benambra,Benambra Public Hall,Voting Centre,Gippsland East District,,,,,Gibbo,Street,Benambra,3900,VR 51 C9,147.703784210034,-36.9555294237079
Taggerty,Taggerty  Hall,Voting Centre,Eildon District,,,,5,Taggerty-Thornton,Road,Taggerty,3714,62 D7,145.712381700154,-37.3210775081998
Glenorden,Wyndham Park Primary School,Voting Centre,Werribee District,,,,59-77,Kookaburra,Avenue,Werribee,3030,206 C3,144.676891000134,-37.8838549998777
Montrose South,Billanook Primary School,Voting Centre,Monbulk District,,,,,corner Sheffield Road and Taruna,Rise,Montrose,3765,52 B11,145.338799894502,-37.8251537943774
Deer Park West,Deer Park West Primary School,Voting Centre,Kororoit District,,,,,Quinn,Street,Deer Park,3023,25 C9,144.765220844735,-37.771632865567
Dunolly,Dunolly Senior Citizens Clubrooms,Voting Centre,Ripon District,,,,21,Bull,Street,Dunolly,3472,43D7,143.731893000115,-36.8581819998572
Kerang North,Kerang Technical High School (Thornely Hall),Voting Centre,Murray Plains District,,,,48,Murray,Street,Kerang,3579,20 G5,143.913800000118,-35.7256499998345
Redan Central,Betty Day Centre,Voting Centre,Prahran District,,,,67,Argyle,Street,St Kilda,3182,2P F6,144.98743200014,-37.8629299998773
Hampton,Hampton Primary School,Voting Centre,Brighton District,Sandringham District,,,528,Hampton,Street,Hampton,3188,76 G5,145.00404700014,-37.9336489998787
Swan Hill,Swan Hill Anglican Function Centre,Voting Centre,Murray Plains District,,,,,Splatt,Street,Swan Hill,3585,14 A7,143.556403000111,-35.3397099998268
Aspendale Gardens,Aspendale Gardens Primary School,Voting Centre,Mordialloc District,Keysborough District,,,96,Kearney Drive (Access via Kerr Crescent),,Aspendale Gardens,3195,93 B5,145.11571968997,-38.0231369499065
Bruthen,Bruthen Mechanics Hall,Voting Centre,Gippsland East District,,,,49,Main,Street,Bruthen,3885,686 F10,147.831815175063,-37.7073010340506
Canterbury Gardens,The Basin Primary School,Voting Centre,Bayswater District,,,,corner,Mountain Highway and Liverpool,Road,The Basin,3154,65 F6,145.309641,-37.849794
Lavers Hill,Lavers Hill Public Hall,Voting Centre,Polwarth District,,,,47,Great Ocean,Road,Lavers Hill,3238,100 H4,143.387351,-38.682731
Britannia,St Patrick's Catholic Primary School,Voting Centre,Geelong District,,,,11,Petrel,Street,Geelong West,3218,441 J12,144.34625440846,-38.1350435248827
Camberwell,Camberwell Primary School,Voting Centre,Hawthorn District,,,,290,Camberwell Road (access via Reserve,Road),Camberwell,3124,59 J1,145.058663037899,-37.8335873327678
The Patch,The Patch Primary School,Voting Centre,Monbulk District,,,,53,Kallista-Emerald,Road,The Patch,3792,124 E5,145.393752000148,-37.8918549998778
Footscray,Gilmore Girls College,Voting Centre,Footscray District,,,,298,Barkly,Street,Footscray,3011,2S D7,144.894890000138,-37.799099999876
Cobains,Cobains Primary School,Voting Centre,Gippsland East District,,,,3,Crofts,Road,Cobains,3851,99 D3,147.132280000183,-38.0747899998815
Caulfield East,Glen Eira College,Voting Centre,Caulfield District,,,,76,Booran,Road,Caulfield East,3162,68 E3,145.037964000141,-37.8851999998777
Heatherhill,Heatherhill Primary School,Voting Centre,Keysborough District,,,,959,Heatherton,Road,Springvale,3171,89 B1,145.15837151242,-37.9620512452782
Berwick South,Brentwood Park Primary School,Voting Centre,Narre Warren South District,,,,,Bemersyde,Drive,Berwick,3806,131 D1,145.346428000147,-38.052433999881
Doveton West,Holy Family Catholic Primary School,Voting Centre,Dandenong District,,,,100,Power,Road,Doveton,3177,90 K8,145.238575368163,-37.9903575386031
Eltham North,Eltham North Primary School,Voting Centre,Eltham District,,,,35-47,Wattletree,Road,Eltham North,3095,21 K1,145.150920000143,-37.699579999874
Glengala South,Sunshine Special Development School,Voting Centre,Footscray District,,,,,Ivory Court (access via Mounsey,Street),Sunshine West,3020,40 E5,144.819889000136,-37.8034349998761
Ceres,Ceres Temperance Hall,Voting Centre,South Barwon District,,,,40a,McCann,Street,Ceres,3221,450 C10,144.276755916792,-38.1703058915501
Preston East,The Pavilion,Voting Centre,Preston District,,,,1-3,Sylvester,Grove,Preston,3072,18 K11,145.01815092514,-37.7379950665414
Mount Ridley,Mount Ridley P-12 College,Voting Centre,Yuroke District,,,,2-30,Hampton,Street,Craigieburn,3064,386 J4,144.924236184439,-37.5794392468439
Strathmore North,Strathmore North Primary School,Voting Centre,Essendon District,Pascoe Vale District,,,,Mascoma,Street,Strathmore,3041,16 G8,144.916446000138,-37.7246839998745
Taylors Hill,Taylors Hill Primary School,Voting Centre,Sydenham District,,,,corner,Loddon Drive and Park,Lane,Taylors Hill,3037,13 B5,144.759823000135,-37.7166189998743
St Albans Park,Whittington Senior Citizens Club,Voting Centre,Geelong District,,,,50,Westmoreland,Street,St Albans Park,3219,466 J1,144.387989575128,-38.1831052998837
Torrumbarry,Torrumbarry Public Hall,Voting Centre,Murray Plains District,,,,,Murray Valley,Highway,Torrumbarry,3562,31 A2,144.51438345013,-36.0282417415072
Thornton,Thornton Memorial Hall,Voting Centre,Eildon District,,,,1335,Taggerty-Thornton,Road,Thornton,3712,62 E6,145.797291000156,-37.2575369998652
Somerville West,Somerville Rise Primary School,Voting Centre,Hastings District,,,,,Blacks Camp,Road,Somerville,3912,148 D2,145.167750000143,-38.2300299998846
Lilydale Heights,Lilydale Heights College,Voting Centre,Evelyn District,,,,17,Nelson,Road,Lilydale,3140,38 C2,145.341471760316,-37.744883125826
Campbells Creek,Campbells Creek Primary School,Voting Centre,Bendigo West District,,,,127-133,Main,Road,Campbells Creek,3451,59 E3,144.204252,-37.092786
Ballam Park,McClelland College,Voting Centre,Frankston District,,,,31,Belar Avenue (enter via Alexander,Crescent),Frankston,3200,103 B3,145.161623116954,-38.1461177665772
Elwood,St Columba's Catholic School and Church,Voting Centre,Brighton District,,,,24,Glen Huntly,Road,Elwood,3184,67 B3,144.98178100014,-37.8823099998776
Pakenham Hills,Pakenham Hills Primary School,Voting Centre,Gembrook District,,,,15,Kennedy,Road,Pakenham,3810,317 H4,145.495831913803,-38.06206476861
Taylors Lakes,Taylors Lakes Primary School,Voting Centre,Sydenham District,,,,,Chichester,Drive,Taylors Lakes,3038,13 J3,144.793223000136,-37.7092929998742
Dumbalk,Dumbalk Public Hall,Voting Centre,Gippsland South District,,,,,Farmers,Road,Dumbalk,3956,103 B2,146.094265374323,-38.5332077012251
Knox,St Joseph's Primary School Boronia,Voting Centre,Bayswater District,,,,212,Boronia,Road,Boronia,3155,64-H9,145.275768350146,-37.8620507832106
Malvern,Malvern Central School,Voting Centre,Malvern District,,,,,Spring,Road,Malvern,3144,59 D7,145.034701000141,-37.8556699998771
Yaapeet,Yaapeet Primary School,Voting Centre,Mildura District,,,,4,Woods,Street,Yaapeet,3424,17B6,142.057344896987,-35.7681798692957
Newport East,Home Road Kindergarten,Voting Centre,Williamstown District,,,,44,Home,Road,Newport,3015,56 A3,144.887867000138,-37.8412059998768
Taylors Lakes North,Overnewton Anglican Community College - Taylors Lakes Campus,Voting Centre,Sydenham District,,,,39-57,Robertsons,Road,Taylors Lakes,3038,3 E10,144.774786000135,-37.6890099998738
Bell Park,Bell Park North Primary School,Voting Centre,Lara District,,,,16,Barton,Street,Bell Park,3215,441 G4,144.33584910846,-38.1059741748821
Mont Albert,Mont Albert Primary School,Voting Centre,Box Hill District,,,,,Barloa,Road,Mont Albert,3127,46 J8,145.103295484393,-37.8127345807437
Harrietville,Harrietville Community Hall,Voting Centre,Ovens Valley District,,,,,Great Alpine,Road,Harrietville,3741,662 C3,147.06340910952,-36.8917470628024
Cooma,Cooma Uniting Church Hall,Voting Centre,Euroa District,,,,,Kyabram-Cooma,Road,Cooma,3616,32 C8,145.06851496729,-36.4142976337935
Haven,Haven Memorial Hall,Voting Centre,Lowan District,,,,4378,Henty,Highway,Haven,3401,40 E6,142.194179327193,-36.7569402856242
Box Hill Central,Wesley Hall,Voting Centre,Box Hill District,,,,2-6,Oxford,Street,Box Hill,3128,75A F6,145.122050137161,-37.8216481417735
Spring Valley,Spring Parks Primary School - Valley Campus,Voting Centre,Clarinda District,,,,27-39,Clarke,Road,Springvale South,3172,88 G1,145.139080000143,-37.9637799998793
Arthurs Creek,Arthurs Creek Primary School,Voting Centre,Eildon District,,,,900,Arthurs Creek,Road,Arthurs Creek,3099,393 B4,145.202500000144,-37.5789999998716
Laurimar,Laurimar Primary School,Voting Centre,Yan Yean District,,,,1,Armidale,Road,Laurimar,3754,391 E6,145.128274248516,-37.5854516737021
Bimbadeen,Bimbadeen Heights Primary School,Voting Centre,Evelyn District,,,,,Hayrick,Lane,Mooroolbark,3138,37 J9,145.321140000146,-37.7737599998755
Sussex Heights,Mount Waverley Heights Primary School,Voting Centre,Oakleigh District,,,,36,Solomon,Street,Mount Waverley,3149,70 A4,145.110570952792,-37.8888626725113
Coolaroo,Coolaroo South Primary School,Voting Centre,Broadmeadows District,,,,,Bushfield,Crescent,Coolaroo,3048,6 K2,144.930491000139,-37.6616309998732
Dimboola,Dimboola Uniting Church,Voting Centre,Lowan District,,,,17-19,Normanby,Street,Dimboola,3414,546 G9,142.026189000081,-36.451126999849
Great Western,Great Western Primary School,Voting Centre,Ripon District,,,,,Stephenson,Street,Great Western,3374,56 F4,142.851730216764,-37.148510449863
Minyip,Minyip Memorial Hall,Voting Centre,Lowan District,,,,52,Main,Street,Minyip,3392,549S2,142.586350000092,-36.4601249998492
Wandiligong,Wandiligong Primary School,Voting Centre,Ovens Valley District,,,,119,School,Road,Wandiligong,3744,49 H6,146.98292000018,-36.7688599998554
Longwarry,Longwarry Public Hall,Voting Centre,Narracan District,,,,14,Kennedy,Street,Longwarry,3816,707 O11,145.767716000155,-38.1138659998823
Toorak Central,Toorak Primary School,Voting Centre,Prahran District,Malvern District,,,,Canterbury,Road,Toorak,3142,2M F8,145.00971300014,-37.8449069998769
Black Rock,Black Rock Primary School,Voting Centre,Sandringham District,,,,71,Arkaringa,Crescent,Black Rock,3193,86 A3,145.021640158474,-37.9698826082127
Speed,Speed Recreation Centre (Golf Club),Voting Centre,Mildura District,,,,,Golf Course,Road,Speed,3488,547 S2,142.439753216755,-35.3984960581613
Bellbridge East,Bellbridge Primary School,Voting Centre,Tarneit District,,,,120,Bellbridge Drive (access via Matlock,Street),Hoppers Crossing,3029,203 A12,144.710780000134,-37.8710799998774
Emerald,Emerald Primary School,Voting Centre,Gembrook District,,,,,Heroes,Avenue,Emerald,3782,127 F5,145.441649595774,-37.9334776111155
Moe,Albert Street Primary School,Voting Centre,Narracan District,Morwell District,,,40,Albert Street (access via Anzac,Street),Moe,3825,700 F4,146.264350000165,-38.1747099998835
Newport,Newport Lakes Primary School,Voting Centre,Williamstown District,,,,,Elizabeth,Street,Newport,3015,55 J3,144.878535574528,-37.838149903912
Merrilands,William Ruthven Secondary College,Voting Centre,Preston District,Thomastown District,,,60,Merrilands,Road,Reservoir,3073,8 G12,145.00300000014,-37.6965299998739
Cobden,Cobden Civic Hall,Voting Centre,Polwarth District,,,,53-55,Victoria,Street,Cobden,3266,91 C7,143.077067750102,-38.3270434832199
Sparrowhawk,Long Gully Neighbourhood Centre,Voting Centre,Bendigo West District,,,,54,Derwent,Drive,Long Gully,3550,44 F5,144.253744,-36.749591
Malmsbury,Malmsbury Primary School,Voting Centre,Macedon District,,,,28,Cameron,Street,Malmsbury,3446,631 P10,144.386940000128,-37.1873199998637
Lyrebird,Lyrebird Community Centre,Voting Centre,Carrum District,,,,203,Lyrebird,Drive,Carrum Downs,3201,100 H3,145.187184,-38.102963
Mill Park,Mill Park Primary School,Voting Centre,Bundoora District,,,,,Blamey,Avenue,Mill Park,3082,10 A6,145.065819841355,-37.6745603770699
Elsternwick North,12th Caulfield Scout Hall,Voting Centre,Caulfield District,,,,1,Beavis,Street,Elsternwick,3185,67 H3,145.00723000014,-37.8847549998777
Hyde Park,1st Kew Scout Hall,Voting Centre,Kew District,,,,corner,Willsmere Road and Kellett,Grove,Kew,3101,45 E2,145.039688084866,-37.7916105128676
Caulfield South,4th Caulfield Scout Hall,Voting Centre,Caulfield District,,,,1a,Birch Street (access via Hawthorn Road),,Caulfield South,3162,68 A5,145.02146500014,-37.8926739998779
Bridport,Albert Park Primary School,Voting Centre,Albert Park District,,,,,Bridport Street (access via Cardigan,Place),Albert Park,3206,2J K7,144.952217705884,-37.8414432841396
Burwood,Alfred Road Kindergarten,Voting Centre,Burwood District,,,,48a,Alfred,Road,Glen Iris,3146,60 F7,145.088895174093,-37.8544625693755
Ashwood,Ashwood High School,Voting Centre,Burwood District,,,,50,Vannam Drive,Block B,Ashwood,3147,60 K10,145.103860428558,-37.8643314960341
Auburn North,Auburn Primary School,Voting Centre,Hawthorn District,,,,51,Rathmines,Road,Hawthorn East,3123,45 G10,145.050392000141,-37.8196189998764
Auburn South,Auburn South Primary School,Voting Centre,Hawthorn District,,,,419,Tooronga Road (access via Burgess,Street),Hawthorn East,3123,59 F3,145.044784000141,-37.8391719998768
Balwyn Central,Balwyn Church of Christ Hall,Voting Centre,Kew District,,,,corner,Whitehorse and Cherry,Roads,Balwyn,3103,46 D8,145.079996000142,-37.8129499998763
Balwyn North,Balwyn North Primary School,Voting Centre,Kew District,,,,,94 Maud,Street,Balwyn North,3104,46 C3,145.076826000142,-37.7964879998759
Beaumaris North,Beaumaris North Primary School,Voting Centre,Sandringham District,,,,,McDonald,Street,Beaumaris,3193,86 D4,145.037348673849,-37.9739063852214
Balwyn North West,Belle Vue Primary School,Voting Centre,Kew District,,,,20,Highview,Road,Balwyn North,3104,32 D11,145.079131000142,-37.7818349998756
Balwyn West,Belmore School,Voting Centre,Kew District,,,,49,Stroud,Street,Balwyn,3103,46 D5,145.081180000142,-37.8041659998761
Black Rock South,Black Rock Uniting Church Hall,Voting Centre,Sandringham District,,,,corner,Balcombe Road and Central,Avenue,Black Rock,3193,86 A4,145.02202700014,-37.9765509998795
Brighton Beach,Brighton Beach Primary School,Voting Centre,Brighton District,,,,19,Windermere,Crescent,Brighton,3186,76 E1,144.996035037758,-37.9219049837138
Brighton,Brighton Primary School,Voting Centre,Brighton District,,,,,Wilson,Street,Brighton,3186,67 F11,145.001377138273,-37.9122971206584
Brighton High,Brighton Secondary College,Voting Centre,Brighton District,,,,120,Marriage,Road,Brighton East,3187,76 K1,145.019597436143,-37.9205080197404
Studley Park,Burke Hall (Xavier Prep School),Voting Centre,Kew District,,,,2,Nolan,Avenue,Kew,3101,2D H11,145.014567416006,-37.8056391186708
Camberwell Middle,Camberwell Church of Christ,Voting Centre,Hawthorn District,,,,620,Riversdale,Road,Camberwell,3124,60 A1,145.065958000141,-37.8325959998767
Canterbury South,Camberwell High School,Voting Centre,Hawthorn District,,,,,Prospect Hill,Road,Canterbury,3126,46 B12,145.072788118869,-37.8307967160853
Camberwell South,Camberwell South Primary School,Voting Centre,Hawthorn District,,,,,Peate,Avenue,Glen Iris,3146,59 K5,145.062605837136,-37.8479297970858
Canterbury,Canterbury Girls Secondary College,Voting Centre,Kew District,Hawthorn District,,,,Irilbarra,Road,Canterbury,3126,46 B10,145.070281156568,-37.8199141479422
Carlton Central,Carlton North Primary School,Voting Centre,Melbourne District,,,,,Lee,Street,Carlton North,3054,2B J3,144.973102000139,-37.7909819998758
Caulfield North,Caulfield Indonesian Uniting Church Hall,Voting Centre,Caulfield District,,,,158,Balaclava,Road,Caulfield North,3161,58 K12,145.01937000014,-37.8717079998774
Bundeera,Caulfield South Primary School,Voting Centre,Caulfield District,,,,24,Bundeera,Road,Caulfield South,3162,68 C6,145.030422000141,-37.8955339998779
Cheltenham East,Cheltenham East Primary School,Voting Centre,Clarinda District,Mordialloc District,,,,Silver,Street,Cheltenham,3192,87 A1,145.068350000141,-37.9652599998793
Cheltenham,Cheltenham Primary School,Voting Centre,Sandringham District,,,,231,Charman,Road,Cheltenham,3192,86 H2,145.054630000141,-37.9686099998794
Coburn,Coburn Primary School,Voting Centre,Melton District,,,,24-42,Richard,Road,Melton South,3338,336 J12,144.572494588791,-37.6939834499845
St Kilda South,Cora Graves Centre,Voting Centre,Albert Park District,,,,38,Blessington,Street,St Kilda,3182,2P C10,144.982114818465,-37.8696918775602
Alamein,Craig Family Centre,Voting Centre,Burwood District,,,,7,Samarinda,Avenue,Ashburton,3147,60 E10,145.084077000142,-37.8666749998773
Dendy,Dendy Scout Hall,Voting Centre,Brighton District,,,,210,Dendy,Street,Brighton East,3187,76 K2,145.01586400014,-37.9223669998784
Elsternwick South,Elsternwick Primary School,Voting Centre,Brighton District,,,,44-48,Murphy,Street,Brighton,3186,67 E5,144.998638242028,-37.891484796969
Elwood North,Elwood Primary School,Voting Centre,Brighton District,,,,corner,Mitford Street and Poets Grove,,Elwood,3184,67 C2,144.987787009828,-37.8819637810369
Glenferrie South,Erasmus School,Voting Centre,Hawthorn District,,,,40,Lisson,Grove,Hawthorn,3122,45 C12,145.031465060133,-37.8272147358226
Sandridge,Fishermens Bend Community Hall,Voting Centre,Albert Park District,,,,corner,Dunstan Parade and Centre,Avenue,Port Melbourne,3207,56 H2,144.920433000138,-37.8367019998767
Landcox,Gardenvale Primary School - Senior School Campus,Voting Centre,Brighton District,,,,66,Landcox,Street,Brighton East,3187,67 K8,145.01579700014,-37.9025849998781
Cotham,Genazzano College,Voting Centre,Kew District,,,,301,Cotham Road (access via Mont Victor,Road),Kew,3101,45 J7,145.057102914326,-37.8086062826452
Glen Eira,Glen Eira Town Hall - Auditorium,Voting Centre,Caulfield District,,,,416-428,Glen Eira,Road,Caulfield,3162,68 A2,145.02232400014,-37.8800679998776
Glenferrie Central,Glenferrie Primary School,Voting Centre,Hawthorn District,,,,78-98,Manningtree,Road,Hawthorn,3122,45 D11,145.033551000141,-37.8243929998765
Prahran,Grattan Gardens Community Centre,Voting Centre,Prahran District,,,,40,Grattan,Street,Prahran,3181,2L H10,144.99158500014,-37.8471239998769
Greythorn,Greythorn Primary School,Voting Centre,Kew District,Box Hill District,,,,Reading,Avenue,Balwyn North,3104,46 H5,145.095685385127,-37.802221124973
Hampton Central,Hampton Uniting Church Hall,Voting Centre,Sandringham District,,,,corner,Service and Deakin,Streets,Hampton,3188,76 G6,145.00462200014,-37.9395189998788
Auburn,Hawthorn Citizens Youth Club,Voting Centre,Hawthorn District,,,,241,Auburn,Road,Hawthorn,3122,45 F12,145.044201000141,-37.8286799998766
Highett South,Highett Neighbourhood Community House,Voting Centre,Sandringham District,,,,2,Livingston,Street,Highett,3190,77 E8,145.037925838708,-37.9476645027669
Ormond,Katandra School,Voting Centre,Caulfield District,,,,2,Walsh,Street,Ormond,3204,68 E8,145.040621000141,-37.901964999878
South Kensington,Kensington Community Recreation Centre,Voting Centre,Melbourne District,,,,Corner,Kensington Road and Altona,Street,Kensington,3031,2T G6,144.924499000138,-37.7968299998759
Kensington,Kensington Primary School,Voting Centre,Melbourne District,,,,62-74,McCracken,Street,Kensington,3031,2T J4,144.927379000139,-37.7925629998759
Kew North,Kew East Primary School,Voting Centre,Kew District,,,,35,Kitchener,Street,Kew East,3102,45 G3,145.049088898444,-37.7963309848759
Kew East,Kew East Uniting Church Hall,Voting Centre,Kew District,,,,142,Normanby,Road,Kew East,3102,45 J3,145.056165000141,-37.797609999876
Kew,Kew Primary School,Voting Centre,Kew District,,,,,Pakington,Street,Kew,3101,45 D5,145.033260750141,-37.8041467599588
Mentone West,Mentone Girls Secondary College,Voting Centre,Sandringham District,,,,175,Balcombe Road (enter,Gate 1),Mentone,3194,86 H6,145.054474854212,-37.9812032646746
Middle Park,Middle Park Bowling Club,Voting Centre,Albert Park District,,,,,Canterbury Road (access via Armstrong,Street),Middle Park,3206,2K F10,144.964948576078,-37.8486668846086
Kerferd South,Middle Park Primary School,Voting Centre,Albert Park District,,,,,Richardson Street (access via Mills,Street),Middle Park,3206,2K B10,144.957426648431,-37.8480151379211
Hotham Hill,North Melbourne Community Centre,Voting Centre,Melbourne District,,,,49-53,Buncle,Street,North Melbourne,3051,2A D4,144.940073870416,-37.7931361937074
North Melbourne,North Melbourne Primary School,Voting Centre,Melbourne District,,,,210,Errol,Street,North Melbourne,3501,2A J7,144.950803730307,-37.7986311246925
Deepdene,Our Lady of Good Counsel,Voting Centre,Kew District,,,,12,Whitehorse,Road,Deepdene,3103,45 K7,145.062706000141,-37.8109929998762
Orrong,Our Lady of Lourdes School,Voting Centre,Prahran District,,,,7,Wynnstay,Road,East Prahran,3181,2M F12,145.00948100014,-37.852296999877
Prahran East,Prahan RSL Memorial Hall,Voting Centre,Prahran District,,,,301,High,Street,Prahran,3181,2M A12,144.99821200014,-37.852227999877
Ripponlea East,Ripponlea Primary School,Voting Centre,Caulfield District,,,,,Carrington,Grove,St Kilda East,3183,67 G1,145.00512400014,-37.8747059998775
Box Hill South,Roberts McCubbin Primary School,Voting Centre,Burwood District,,,,corner,Birdwood and Devon,Streets,Box Hill South,3128,61 D2,145.125714225851,-37.8345739114125
Sandringham North,Sandringham Primary School,Voting Centre,Sandringham District,,,,31,Bamfield,Street,Sandringham,3191,76 H8,145.00890600014,-37.9474479998789
Holloway,Sandringham Secondary College,Voting Centre,Sandringham District,,,,11,Holloway,Road,Sandringham,3191,77 A11,145.02438400014,-37.9565099998791
Highett,Sandringham Secondary College - Highett Campus,Voting Centre,Sandringham District,,,,356,Bluff,Road,Highett,3190,77 A9,145.02174300014,-37.951154999879
Hampton East,Sandringham Youth Club,Voting Centre,Brighton District,,,,219,Thomas,Street,Hampton,3188,76 K6,145.017771903021,-37.9399470917697
Glen Iris South,Solway Primary School,Voting Centre,Burwood District,,,,,Winton,Road,Ashburton,3147,60 B12,145.073330000141,-37.8724989998775
South Melbourne,South Melbourne Town Hall,Voting Centre,Albert Park District,,,,,"Auditorium, 208 Bank",Street,South Melbourne,3205,2K C2,144.959708000139,-37.8342019998767
Hawksburn Central,South Yarra Community Baptist Church,Voting Centre,Prahran District,,,,12,Surrey,Road,South Yarra,3141,2M A9,144.99837700014,-37.8461169998769
Middle Brighton,St Andrew's Hall,Voting Centre,Brighton District,,,,19-21,St Andrews,Street,Brighton,3186,67 D11,144.99275900014,-37.9120789998782
Mentone,St Augustine's Church Hall,Voting Centre,Sandringham District,Mordialloc District,,,90-92,Como,Parade West,Mentone,3194,87 A7,145.067616000141,-37.9860589998797
Burwood Central,St Benedict's Primary School Hall,Voting Centre,Burwood District,,,,3-9,Central,Avenue,Burwood,3125,60 H6,145.097301000142,-37.849421999877
Highfield,St Dominic's Parish Primary School,Voting Centre,Hawthorn District,Burwood District,,,145,Highfield,Road,Camberwell,3124,60 E3,145.083502000142,-37.8386799998768
St Kilda Park,St Kilda Park Primary School,Voting Centre,Albert Park District,,,,68,Fitzroy,Street,St Kilda,3182,2P A3,144.97744100014,-37.8579699998772
St Kilda,St Kilda Town Hall,Voting Centre,Caulfield District,Albert Park District,,,corner,Carlisle Street and Brighton,Road,St Kilda,3182,2P F9,144.98840400014,-37.8685519998774
Glen Iris,St Oswald's Church Hall,Voting Centre,Burwood District,Hawthorn District,,,100,High,Street,Glen Iris,3146,60 B9,145.070808000141,-37.8627319998773
Hawksburn,Toorak - South Yarra Library,Voting Centre,Prahran District,,,,338,Toorak,Road,South Yarra,3141,2M A6,144.99950100014,-37.8402129998768
Kew South,Trinity Grammar School,Voting Centre,Kew District,,,,40,Charles,Street,Kew,3101,45 D7,145.034178354216,-37.8108715259952
Parkville,University High School - Performance Centre,Voting Centre,Melbourne District,,,,77,Story,Street,Parkville,3052,2B A6,144.955618061447,-37.7971320632327
Elsternwick,Wesley College Elsternwick Campus,Voting Centre,Caulfield District,,,,5,Gladstone Parade (access via Carlingford,Street),Elsternwick,3185,67 H5,145.00970900014,-37.8896439998778
Chatham South,Youth With A Mission,Voting Centre,Burwood District,Hawthorn District,,,1,Kent,Road,Surrey Hills,3127,46 F12,145.090117000142,-37.8275909998766
Carnegie North,1st Malvern Scout Hall,Voting Centre,Malvern District,,,,,Cooinda Place (access via Belgrave,Road),Malvern East,3145,69 A2,145.067524000141,-37.8801119998776
Armadale,Armadale Primary School,Voting Centre,Malvern District,,,,9-23,Densham,Road,Armadale,3143,2M J12,145.01777009789,-37.8522106027003
Malvern Lower,Lauriston Girls School,Voting Centre,Malvern District,,,,38,Huntingtower,Road,Armadale,3143,59 B6,145.02520400014,-37.852268999877
Malvern East,Lloyd Street Primary School,Voting Centre,Malvern District,,,,corner,Lloyd Street and Rothesay Avenue,,Malvern East,3144,59 J12,145.056758000141,-37.8724769998774
Malvern South,Malvern Primary School,Voting Centre,Malvern District,,,,17,Tooronga,Road,Malvern,3144,59 E12,145.037924000141,-37.8710309998774
Chadstone,Malvern Valley Primary School,Voting Centre,Malvern District,,,,1,Abbotsford,Avenue,Malvern East,3145,69 D2,145.081794000142,-37.8806169998776
Armadale East,St Joseph's Primary School (Malvern),Voting Centre,Malvern District,,,,47,Stanhope,Street,Malvern,3144,59 C8,145.031245739099,-37.857880411342
Alma,Alma Road Community House,Voting Centre,Prahran District,,,,200,Alma,Road,St Kilda East,3183,58 H9,145.00738300014,-37.8632219998773
Balaclava,Bet Anielewicz Centre,Voting Centre,Prahran District,,,,214,Inkerman Street (access via Raglan,Street),St Kilda East,3183,2P J8,144.993951910932,-37.8653067669338
Boolarra,Boolarra Memorial Hall,Voting Centre,Morwell District,,,,,Tarwin,Street,Boolarra,3870,97 F8,146.274540000165,-38.3786229998876
Churchill,Churchill Shire Hall,Voting Centre,Morwell District,,,,,Marina,Drive,Churchill,3842,702 D5,146.421555000168,-38.3133719998863
Cowwarr,Cowwarr Primary School,Voting Centre,Morwell District,,,,,Church,Street,Cowwarr,3857,98 D2,146.698960000174,-38.0136999998803
Glengarry,Glengarry Primary School,Voting Centre,Morwell District,,,,,Cairnbrook,Road,Glengarry,3854,702 J10,146.571339591838,-38.1275797915492
Traralgon,Grey Street Primary School,Voting Centre,Morwell District,,,,,Grey,Street,Traralgon,3844,98 A5,146.537120000171,-38.1930499998839
Hazelwood North,Hazelwood North Primary School,Voting Centre,Morwell District,,,,121,Church,Road,Hazelwood North,3840,97 J6,146.447680000169,-38.2681899998854
Morwell Estate,Kurnai Secondary College.,Voting Centre,Morwell District,,,,,Bridle,Road,Morwell,3840,699 R5,146.432790000169,-38.2287899998846
Traralgon East,Liddiard Road Primary School,Voting Centre,Morwell District,,,,148,Liddiard,Road,Traralgon,3844,697 L7,146.551739683504,-38.2014522832174
Morwell,Morwell Senior Citizens Centre,Voting Centre,Morwell District,,,,,Maryvale,Crescent,Morwell,3840,698 K6,146.390063891301,-38.2371108890738
Morwell East,Revival Centre International,Voting Centre,Morwell District,,,,,Laburnum,Street,Morwell,3840,699 P2,146.418216000168,-38.2188229998844
Morwell Central,St Mary's Anglican Church,Voting Centre,Morwell District,,,,6,Latrobe,Road,Morwell,3840,699 L6,146.394820083501,-38.235016458218
Toongabbie,Toongabbie Primary School,Voting Centre,Morwell District,,,,,Victoria,Street,Toongabbie,3856,703 N2,146.625180000172,-38.0569699998811
Traralgon South,Traralgon South Community Hall,Voting Centre,Morwell District,,,,,Cats,Drive,Traralgon South,3844,698 A7,146.539354700171,-38.2967358915526
Traralgon North East,Traralgon Uniting Church Hall,Voting Centre,Morwell District,,,,19,Park,Lane,Traralgon,3844,98 A5,146.552596633504,-38.1892107082171
Tyers,Tyers Primary School,Voting Centre,Morwell District,,,,,Main,Road,Tyers,3844,97 J4,146.47754000017,-38.149109999883
Yallourn North,Yallourn North Primary School,Voting Centre,Morwell District,,,,,Reserve,Street,Yallourn North,3825,703 T4,146.362553341834,-38.1633471082166
Yinnar,Yinnar RSL Hall,Voting Centre,Morwell District,,,,14,Main,Street,Yinnar,3869,701 S3,146.330212000167,-38.3203159998864
Berendale,Berendale School,Voting Centre,Bentleigh District,,,,2,Berend,Street,Hampton East,3188,77 C6,145.031810000141,-37.9389599998788
Moorabbin Central,City of Kingston Town Hall,Voting Centre,Bentleigh District,,,,985,Nepean,Highway,Moorabbin,3189,77 D5,145.036034000141,-37.9336989998787
Coatesville,Coatesville Primary School,Voting Centre,Bentleigh District,Clarinda District,,,21,Mackie,Road,Bentleigh East,3165,78 B1,145.073240000141,-37.9203399998784
Moorabbin Heights,East Bentleigh Primary School,Voting Centre,Bentleigh District,,,,90,Bignell,Road,Bentleigh East,3165,78 B5,145.069920000141,-37.9346499998787
McKinnon,McKinnon Public Hall,Voting Centre,Bentleigh District,,,,118,McKinnon,Road,McKinnon,3204,68 D10,145.035848850141,-37.9109235332116
McKinnon East,McKinnon Secondary College,Voting Centre,Bentleigh District,,,,291a,McKinnon,Road,McKinnon,3204,68 G11,145.049120000141,-37.9120299998782
Ormond West,Ormond Primary School,Voting Centre,Bentleigh District,,,,121,Wheatley Road (access via Murray,Road),Ormond,3204,68 D9,145.033670000141,-37.9069999998781
Bentleigh,Our Lady of Sacred Heart College,Voting Centre,Bentleigh District,,,,111,Jasper,Road,Bentleigh,3204,77 E2,145.040291000141,-37.9251919998785
Southmoor,Southmoor Primary School,Voting Centre,Bentleigh District,,,,,Rica,Street,Moorabbin,3189,77 J7,145.056231140671,-37.9412911552923
Moorabbin South East,Wickham Road Uniting Church Hall,Voting Centre,Bentleigh District,Sandringham District,,,185,Wickham,Road,Moorabbin,3189,77 F8,145.046752000141,-37.9453229998789
Tyne,11th Box Hill Scout Hall,Voting Centre,Box Hill District,,,,31,Tyne,Street,Box Hill North,3129,47 E7,145.127763333476,-37.8109837582096
Blackburn Lake,Blackburn Lake Primary School,Voting Centre,Box Hill District,,,,12-14,Florence,Street,Blackburn,3130,48 C12,145.165178085427,-37.8267794305964
Blackburn North,Blackburn Primary School,Voting Centre,Box Hill District,,,,185,Surrey,Road,Blackburn,3130,48 B9,145.157670000143,-37.8175399998764
Box Hill North,Box Hill North Primary School,Voting Centre,Box Hill District,,,,7-9,Elizabeth,Street,Box Hill North,3129,47 D4,145.123310000142,-37.800789999876
Chatham,Chatham Primary School,Voting Centre,Box Hill District,,,,,Weybridge Street (access via Banool,Road),Surrey Hills,3127,46 G9,145.091880000142,-37.8171099998763
Kerrimuir,Kerrimuir Primary School,Voting Centre,Box Hill District,,,,,Molbray,Street,Box Hill North,3129,47 G5,145.135120000143,-37.8036299998761
Koonung Heights,Koonung Secondary College,Voting Centre,Box Hill District,,,,615,Elgar,Road,Mont Albert North,3129,47 B5,145.117095908476,-37.8024930248761
Laburnum,Laburnum Primary School,Voting Centre,Box Hill District,,,,corner,Middleborough Road and Janet,Street,Blackburn,3130,47 G12,145.138750000143,-37.8270799998765
Box Hill,St Peter's Anglican Church Hall,Voting Centre,Box Hill District,,,,1038,Whitehorse,Road,Box Hill,3128,75A H4,145.127444000143,-37.8188479998764
Surrey Hills North,Surrey Hills Holy Trinity Church Hall,Voting Centre,Box Hill District,,,,177,Union,Road,Surrey Hills,3127,46 H10,145.098146233475,-37.8223640915431
Surrey Hills,Surrey Hills Uniting Church Hall,Voting Centre,Box Hill District,Burwood District,,,corner,Canterbury Road and Valonia,Avenue,Surrey Hills,3127,46 J11,145.101588,-37.826276
Blackburn,The Avenue Uniting Church,Voting Centre,Box Hill District,,,,44,Blackburn,Road,Blackburn,3130,47 K10,145.152223000143,-37.8229039998765
Doncaster South,Birralee Primary School,Voting Centre,Bulleen District,,,,8-26,Heyington,Avenue,Doncaster,3108,47 B2,145.113340000142,-37.7932799998759
Lower Templestowe,Bulleen Heights School Manningham Road Campus,Voting Centre,Bulleen District,,,,221,Manningham,Road,Templestowe Lower,3107,32 K8,145.105105263869,-37.7711514038637
The Pines,Deep Creek Anglican Church Hall,Voting Centre,Warrandyte District,Bulleen District,,,460,Blackburn,Road,Doncaster East,3109,34 D7,145.166615251362,-37.7662505899722
Doncaster,Doncaster Primary School,Voting Centre,Bulleen District,,,,2-12,Council,Street,Doncaster,3108,47 E1,145.129670000143,-37.7867999998757
Doncaster Central,Doncaster Secondary College,Voting Centre,Bulleen District,,,,123,Church,Road,Doncaster,3108,33 G12,145.138050000143,-37.7845799998757
Manningham,St Clement of Rome Primary School,Voting Centre,Bulleen District,,,,9,Egan,Drive,Bulleen,3105,32 F7,145.090539471179,-37.7674266378872
Templestowe Park,Templestowe Park Primary School,Voting Centre,Bulleen District,,,,399,Church,Road,Templestowe,3106,33 H4,145.142397851227,-37.756121366456
Templestowe Valley,Templestowe Valley Primary School,Voting Centre,Bulleen District,,,,15,Birchwood,Avenue,Templestowe Lower,3107,33 A5,145.110379739034,-37.7600444702077
Doncaster West,Vista Valley Kindergarten,Voting Centre,Bulleen District,,,,3,Vista,Street,Bulleen,3105,32 J10,145.103124000142,-37.7776989998756
Banyan Fields,Banyan Fields Primary School,Voting Centre,Carrum District,,,,90,Cadles,Road,Carrum Downs,3201,100 H1,145.187190000144,-38.0947699998819
Belvedere Park,Belvedere Park Primary School,Voting Centre,Carrum District,,,,30,Belvedere,Road,Seaford,3198,99 J5,145.146810000143,-38.1097199998822
Bonbeach,Bonbeach Primary School,Voting Centre,Carrum District,,,,29-63,Breeze,Street,Bonbeach,3196,97 D5,145.125278404028,-38.0670526572615
Carrum,Carrum Primary School,Voting Centre,Carrum District,,,,,Walkers Road (access via Valetta,Street),Carrum,3197,97 D8,145.126270467327,-38.0784374636058
Chelsea Central,Chelsea Primary School,Voting Centre,Mordialloc District,Carrum District,,,34-44,Argyle,Avenue,Chelsea,3196,97 C2,145.12260694015,-38.055510131088
Kananook,Kananook Primary School,Voting Centre,Carrum District,Frankston District,,,22,Wells,Road,Seaford,3198,99 F9,145.132124961309,-38.1250326936031
Patterson Lakes,Patterson Lakes Community Centre,Voting Centre,Carrum District,,,,54-70,Thompsons,Road,Patterson Lakes,3197,97 H6,145.143454000143,-38.0688939998814
Rowellyn Park,Rowellyn Park Primary School,Voting Centre,Carrum District,,,,Corner,Tattler Street and Rowellyn,Avenue,Carrum Downs,3201,100 J3,145.192245699941,-38.1037932064681
Seaford,Seaford Primary School,Voting Centre,Carrum District,,,,,McRae,Street,Seaford,3198,99 E3,145.130500000143,-38.1044399998821
Skye,Skye Primary School,Voting Centre,Carrum District,,,,395,Ballarto,Road,Skye,3977,132 A7,145.201240000144,-38.1177099998824
Warrawong,Blackburn English Language School,Voting Centre,Forest Hill District,,,,120,Eley,Road,Burwood East,3151,61 J5,145.148290000143,-37.847889999877
Burwood Heights,Burwood Heights Primary School,Voting Centre,Forest Hill District,,,,,corner Mahoneys and Hawthorn,Roads,Burwood East,3130,62 C5,145.162611000143,-37.8471819998769
Camelot,Camelot Rise Primary School,Voting Centre,Forest Hill District,,,,,Galahad,Crescent,Glen Waverley,3150,62 H10,145.188030000144,-37.8652399998773
Tally Ho,East Burwood Hall,Voting Centre,Forest Hill District,,,,310,Burwood,Highway,Burwood East,3151,62 B7,145.161584865704,-37.8543871654429
Glen Waverley,Glen Waverley Primary School,Voting Centre,Mount Waverley District,Forest Hill District,,,774,High Street,Road,Glen Waverley,3150,71 D1,145.167800000143,-37.8746899998775
Forest Hill,Holbury Childrens Centre,Voting Centre,Forest Hill District,,,,29,Raleigh,Street,Blackburn South,3130,62 B3,145.159070000143,-37.8393739998768
Charlesworth Park,Livingstone Primary School,Voting Centre,Forest Hill District,,,,25,Livingstone,Road,Vermont South,3133,62 G7,145.180659658477,-37.8529200832104
Nunawading South,Mt Pleasant Road Primary School,Voting Centre,Ringwood District,Forest Hill District,,,105,Mt Pleasant,Road,Nunawading,3131,48 G12,145.180269497795,-37.8285563757171
Parkmore,Parkmore Primary School,Voting Centre,Forest Hill District,,,,38-54,Jolimont,Road,Forest Hill,3131,62 F4,145.176916019613,-37.8439077841963
Mitcham South,Rangeview Primary School,Voting Centre,Ringwood District,Forest Hill District,,,27,Churinga,Avenue,Mitcham,3132,49 B12,145.206177536842,-37.829174410963
Eastmont,St James Primary School,Voting Centre,Forest Hill District,,,,51,Centre,Road,Vermont,3133,63 C2,145.209429000144,-37.8364879998767
Morack,Vermont Secondary College,Voting Centre,Forest Hill District,,,,27-63,Morack,Road,Vermont,3133,63 A4,145.200832000144,-37.8441259998769
Weeden Heights,Weeden Heights Primary School,Voting Centre,Forest Hill District,,,,43-51,Weeden,Drive,Vermont South,3133,62 F8,145.178112408248,-37.8588941495908
Bruce Park,Bruce Park Hall,Voting Centre,Frankston District,,,,,Margate,Avenue,Frankston,3199,102 G7,145.138256006722,-38.161418695817
Frankston Rail,Chisholm Institute,Voting Centre,Frankston District,,,,,Fletcher,Road,Frankston,3199,100A F6,145.12676871605,-38.1441027346326
Derinya,Derinya Primary School,Voting Centre,Frankston District,Mornington District,,,,Overport,Road,Frankston South,3199,102 C10,145.120961325142,-38.1743982998835
Frankston East,Frankston East Primary School,Voting Centre,Frankston District,,,,,Ashleigh,Avenue,Frankston,3199,102 J3,145.145904583476,-38.1463512748829
Frankston Heights,Frankston Heights Primary School,Voting Centre,Frankston District,,,,10,Kalmia,Street,Frankston,3199,102 J7,145.146710000143,-38.1622799998832
Frankston South,Frankston High School,Voting Centre,Frankston District,,,,48,Foot,Street,Frankston,3199,102 E6,145.129126737849,-38.1623739441136
John Paul College,John Paul College,Voting Centre,Frankston District,,,,,McMahons,Road,Frankston,3199,99 G12,145.139430152027,-38.1360651866856
Karingal Heights,Karingal Heights Primary School,Voting Centre,Frankston District,,,,,Havana,Crescent,Frankston,3199,103 C1,145.166360000143,-38.1410199998828
Kingsley Park,Kingsley Park Primary School,Voting Centre,Frankston District,,,,,Franciscan,Avenue,Frankston,3199,103 A9,145.155700000143,-38.1680799998834
Mt Erin,Mount Erin College,Voting Centre,Frankston District,,,,,Robinsons,Road,Frankston South,3199,102 J10,145.146110787671,-38.1740177065534
Frankston,St Francis Xavier Primary School,Voting Centre,Frankston District,,,,8,Park,Street,Frankston,3199,100A E10,145.126207000143,-38.148856999883
Mordialloc East,Allan McLean Hall,Voting Centre,Mordialloc District,,,,37,Albert,Street,Mordialloc,3195,87 E12,145.086402992247,-38.0041734313378
Aspendale,Aspendale Primary School,Voting Centre,Mordialloc District,,,,23,Laura,Street,Aspendale,3195,92 H4,145.100418613984,-38.0212508800321
Cheltenham South,Cheltenham East Community Centre,Voting Centre,Mordialloc District,,,,39,Follett,Road,Cheltenham,3192,87 B3,145.071124483475,-37.9708308248794
Edithvale,Edithvale Primary School,Voting Centre,Mordialloc District,,,,42-54,Edithvale,Road,Edithvale,3196,93 B9,145.113065976725,-38.0375029614125
Mentone Park,Mentone Park Primary School,Voting Centre,Mordialloc District,,,,1-7,Broome,Avenue,Mentone,3194,87 E5,145.082800000142,-37.9800099998796
Mentone North,Mentone Scout Hall,Voting Centre,Mordialloc District,,,,38,Levanto,Street,Mentone,3194,87 C5,145.075976768067,-37.9787606109913
Parkdale Central,Parkdale Primary School,Voting Centre,Mordialloc District,,,,,Nepean Highway (Access via Morgan Street,),Parkdale,3195,87 E9,145.084199496123,-37.9928038745059
Parkdale East,Parkdale Secondary College,Voting Centre,Mordialloc District,,,,,Warren,Road,Mordialloc,3195,87 G8,145.094100000142,-37.9896399998798
Oakleigh East,Amsleigh Park Primary School,Voting Centre,Oakleigh District,,,,,State,Street,Oakleigh East,3166,69 K7,145.109648885792,-37.9001944453763
Glen Waverley Lower,Bestchance Child Family Care,Voting Centre,Mount Waverley District,,,,583,Ferntree Gully,Road,Glen Waverley,3150,71 B8,145.159172388997,-37.9021080963766
Carnegie,Carnegie Primary School,Voting Centre,Oakleigh District,,,,51,Truganini,Road,Carnegie,3163,68 H5,145.05464817695,-37.8900519013959
Chelsea Heights,Chelsea Heights Primary School,Voting Centre,Mordialloc District,,,,194,Thames,Promenade,Chelsea Heights,3196,93 G11,145.13909013979,-38.044805197398
Oakleigh Central,Emmanuel Anglican Church Hall,Voting Centre,Oakleigh District,,,,26,Abbeygate,Street,Oakleigh,3166,69 F9,145.090198000142,-37.9065089998781
Essex Heights,Essex Heights Primary School,Voting Centre,Mount Waverley District,,,,22-30,Essex,Road,Mount Waverley,3149,61 B10,145.115392000142,-37.8638769998773
The Glen,Glen Waverley Secondary College,Voting Centre,Mount Waverley District,,,,,O'Sullivan,Road,Glen Waverley,3149,71 C1,145.162804680712,-37.8781181702096
Glen Waverley South,Glen Waverley South Primary School,Voting Centre,Mount Waverley District,Mulgrave District,,,corner,Watsons Road and Whites,Lane,Glen Waverley,3150,71 D7,145.168429138404,-37.8977778344343
Clayton North,Monash Uniting Church Hall,Voting Centre,Oakleigh District,Clarinda District,,,1937,Dandenong,Road,Clayton,3168,70 D11,145.124853000142,-37.9123709998782
Mount View,Mount View Primary School,Voting Centre,Mount Waverley District,,,,,Shepherds,Road,Glen Waverley,3150,71 F3,145.178850000144,-37.8835499998777
Syndal North,Mount Waverley North Primary School,Voting Centre,Mount Waverley District,,,,,Marcus,Avenue,Mount Waverley,3149,61 H11,145.141860000143,-37.8680399998774
